     2.11           OBSERVATION DATA    G (GPS)             RINEX VERSION / TYPE
teqc  2019Feb25     Martin Truffer      20190308 01:04:37UTCPGM / RUN BY / DATE
Linux 2.6.32-573.12.1.x86_64|x86_64|gcc|Linux 64|=+         COMMENT
BIT 2 OF LLI FLAGS DATA COLLECTED UNDER A/S CONDITION       COMMENT
51890640                                                    MARKER NAME
5189                                                        MARKER NUMBER
-Unknown-           -Unknown-                               OBSERVER / AGENCY
0220315189          TRIMBLE 5700        2.30                REC # / TYPE / VERS
-Unknown-           TRM41249.00     NONE                    ANT # / TYPE
 -1795819.1874 -3484480.6697  5017253.5570                  APPROX POSITION XYZ
        0.0530        0.0000        0.0000                  ANTENNA: DELTA H/E/N
     1     1                                                WAVELENGTH FACT L1/2
     7    L1    L2    C1    P1    P2    S1    S2            # / TYPES OF OBSERV
    18                                                      LEAP SECONDS
 SNR is mapped to RINEX snr flag value [0-9]                COMMENT
  L1 & L2: min(max(int(snr_dBHz/6), 0), 9)                  COMMENT
  2019     3     5     0     0   25.0000000     GPS         TIME OF FIRST OBS
                                                            END OF HEADER
 19  3  5  0  0 25.0000000  0  7G19G11G13G28G30G18G17
 -10125580.19957 -13048753.40655  22014032.7194                   22014027.9924
        46.7504         30.7504
  -2140826.77715                  22668877.414
        34.000
   -696297.93457 -11569986.61754  22363124.0554                   22363121.8324
        45.2504         27.2504
  -2928382.19557 -14488000.92253  20854699.1024                   20854695.5164
        42.0004         21.7504
   1356804.45357  -3012641.65653  22756314.9534                   22756314.6844
        42.5004         23.2504
  -2574677.80116                  23290014.984
        36.250
  -8529324.00458 -21434440.50055  20821720.6414                   20821717.8014
        50.5004         33.7504
 19  3  5  0  0 30.0000000  0  7G19G11G13G28G30G18G17
 -10154360.88347 -13071179.94544  22008555.8204                   22008551.3754
        45.0004         29.5004
  -2143277.355 6                  22668410.469
        39.000
   -695720.38347 -11569536.60944  22363234.1024                   22363232.0594
        45.0004         26.0004
  -2934509.00447 -14492775.10545  20853533.5084                   20853529.3834
        46.5004         30.0004
   1361285.60946  -3009149.85943  22757167.3914                   22757167.8834
        39.7504         22.5004
  -2577976.555 5                  23289386.930
        35.000
  -8548102.89848 -21449073.41445  20818146.9304                   20818144.3524
        49.7504         32.2504
 19  3  5  0  0 35.0000000  0  8G01G19G11G13G28G30G18G17
                                  22445743.445
        41.500
 -10183134.87947 -13093601.20745  22003079.8524                   22003075.7504
        45.0004         30.2504
  -2145715.84446 -12454397.85253  22667945.7894                   22667941.3984
        38.7504         20.2504
   -695133.84447 -11569079.60244  22363345.8834                   22363343.4184
        45.0004         25.5004
  -2940631.54347 -14497545.86744  20852368.3444                   20852364.2114
        45.7504         29.7504
   1365770.68046  -3005655.03543  22758021.7194                   22758021.3874
        41.5004         22.7504
  -2581261.875 6                  23288761.945
        37.500
  -8566871.35248 -21463698.18745  20814575.7584                   20814572.7034
        49.7504         33.5004
 19  3  5  0  0 40.0000000  0  8G01G19G11G13G28G30G18G17
    -20730.66447  -8785182.74253  22443338.5784                   22443338.8244
        42.0004         22.0004
 -10211902.05947 -13116017.18044  21997605.9614                   21997601.3634
        46.0004         29.5004
  -2148142.14846 -12456288.52343  22667484.3444                   22667480.0004
        39.2504         18.2504
   -694538.27347 -11568615.50044  22363458.3134                   22363456.3054
        45.0004         25.7504
  -2946749.68747 -14502313.29344  20851203.9924                   20851200.4774
        45.7504         29.5004
   1370259.93446  -3002156.92643  22758875.3674                   22758875.8014
        41.0004         22.5004
  -2584533.746 6                  23288139.586
        37.500
  -8585629.25048 -21478314.72345  20811005.9774                   20811003.0634
        50.0004         33.2504
 19  3  5  0  0 45.0000000  0  8G01G19G11G13G28G30G18G17
    -33351.13747  -8795016.85943  22440937.7424                   22440937.8594
        42.5004         22.0004
 -10240662.72347 -13138428.10544  21992133.0164                   21992128.1684
        46.2504         29.2504
  -2150556.60946 -12458169.88342  22667025.3524                   22667021.2814
        39.0004         17.2504
   -693933.93447 -11568144.60544  22363574.7194                   22363571.1644
        46.2504         25.5004
  -2952863.78547 -14507077.50044  20850040.2504                   20850036.6484
        45.7504         29.0004
   1374752.97716                  22759730.898
        38.500
  -2587792.547 6                  23287520.422
        36.750
  -8604376.91048 -21492923.28545  20807438.7034                   20807435.5744
        49.7504         33.0004
 19  3  5  0  0 50.0000000  0  8G01G19G11G13G28G30G18G17
    -45955.88347  -8804838.75443  22438539.3524                   22438539.1804
        42.7504         22.5004
 -10269416.18047 -13160833.39544  21986661.0394                   21986656.5664
        45.7504         29.7504
  -2152958.46546 -12460041.43743  22666568.3984                   22666563.9884
        39.7504         18.2504
   -693320.19547 -11567666.35244  22363690.7974                   22363687.8244
        45.5004         24.5004
  -2958973.10547 -14511838.02044  20848878.1414                   20848873.7624
        45.5004         28.7504
   1379250.39546  -2999074.33653  22760586.4144                   22760586.1884
        39.5004         20.5004
  -2591037.379 6                  23286902.273
        37.250
  -8623113.64548 -21507523.33245  20803873.1254                   20803870.2894
        50.0004         33.5004
 19  3  5  0  0 55.0000000  0  8G01G19G11G13G28G30G18G17
    -58544.88747  -8814648.34443  22436143.4614                   22436144.2624
        42.5004         22.2504
 -10298162.34447 -13183232.99245  21981191.0634                   21981186.5434
        46.0004         30.7504
  -2155347.80946 -12461903.30542  22666113.1644                   22666110.3134
        39.0004         17.7504
   -692697.00847 -11567180.76244  22363809.1884                   22363806.8714
        45.7504         26.7504
  -2965077.71147 -14516594.85245  20847716.5004                   20847712.5474
        46.0004         30.0004
   1383752.12946  -2995566.49243  22761443.3914                   22761443.0824
        40.7504         19.7504
  -2594268.465 6                  23286287.516
        37.250
  -8641839.31248 -21522114.76645  20800310.1174                   20800307.0664
        50.0004         34.0004
 19  3  5  0  1  0.0000000  0  8G01G19G11G13G28G30G18G17
    -71118.39147  -8824445.88743  22433750.8914                   22433750.9844
        42.2504         22.0004
 -10326901.59047 -13205627.21144  21975722.0474                   21975717.7114
        46.2504         29.5004
  -2157724.84846 -12463755.52742  22665661.5474                   22665657.7814
        39.0004         17.7504
   -692064.71547 -11566688.06644  22363929.7584                   22363926.7194
        45.2504         25.5004
  -2971177.79347 -14521348.17244  20846556.0704                   20846552.0234
        45.7504         29.2504
   1388258.21946  -2992055.29743  22762300.7814                   22762301.0944
        40.7504         20.7504
  -2597486.000 6                  23285674.742
        36.500
  -8660554.35248 -21536697.90645  20796748.4774                   20796745.5634
        50.0004         33.2504
 19  3  5  0  1  5.0000000  0  8G01G19G11G13G28G30G18G17
    -83675.50046  -8834230.65643  22431360.4614                   22431361.6484
        41.7504         22.5004
 -10355632.95747 -13228015.29345  21970253.8984                   21970250.0314
        45.2504         30.0004
  -2160088.68046 -12465597.48442  22665211.1564                   22665207.9024
        39.0004         17.7504
   -691422.44147 -11566187.60944  22364052.5554                   22364049.6094
        46.0004         27.2504
  -2977272.53547 -14526097.30944  20845395.6254                   20845391.7734
        45.7504         29.0004
   1392769.35546  -2988540.12943  22763159.3674                   22763158.8054
        41.0004         19.7504
  -2600688.980 6                  23285066.125
        36.250
  -8679257.83248 -21551272.04745  20793189.0234                   20793186.2464
        50.0004         33.0004
 19  3  5  0  1 10.0000000  0  8G01G19G11G13G28G30G18G17
    -96216.12947  -8844002.56643  22428974.7194                   22428975.2934
        42.5004         21.7504
 -10384356.34847 -13250397.11744  21964788.7814                   21964784.5904
        45.5004         29.7504
  -2162439.23846 -12467429.09843  22664763.7664                   22664760.7854
        38.7504         18.2504
   -690770.04347 -11565679.23444  22364176.4534                   22364173.3164
        46.0004         25.5004
  -2983361.82847 -14530842.21944  20844237.2034                   20844233.1994
        45.7504         29.5004
   1397285.63346  -2985020.96143  22764018.6884                   22764018.2854
        39.5004         20.7504
  -2603877.523 6                  23284459.758
        36.750
  -8697949.67248 -21565837.11345  20789632.5314                   20789629.1764
        50.0004         33.5004
 19  3  5  0  1 15.0000000  0  8G01G19G11G13G28G30G18G17
   -108740.12147  -8853761.52343  22426591.4614                   22426591.8874
        42.2504         22.0004
 -10413071.57847 -13272772.63345  21959324.7814                   21959319.9224
        46.0004         30.2504
  -2164776.35946 -12469250.21143  22664319.4614                   22664316.3244
        39.0004         18.2504
   -690107.39847 -11565162.88344  22364301.6954                   22364299.5704
        45.0004         25.5004
  -2989445.46947 -14535582.71944  20843079.6884                   20843075.5204
        46.0004         29.5004
   1401807.18047  -2981497.67243  22764879.3204                   22764878.6644
        42.0004         21.0004
  -2607051.277 6                  23283855.906
        37.500
  -8716629.68048 -21580392.96545  20786077.6804                   20786074.7704
        50.0004         33.2504
 19  3  5  0  1 20.0000000  0  8G01G19G11G13G28G30G18G17
   -121247.46547  -8863507.51243  22424211.3204                   22424211.9264
        42.2504         22.0004
 -10441778.59447 -13295141.74644  21953861.1724                   21953857.0004
        45.7504         29.0004
  -2167100.07846 -12471060.91442  22663876.9454                   22663874.1174
        38.7504         17.7504
   -689434.53147 -11564638.59444  22364430.5234                   22364427.4614
        45.7504         26.2504
  -2995523.46947 -14540318.82844  20841922.6484                   20841918.7544
        45.7504         29.0004
   1406334.03146  -2977970.23043  22765740.3444                   22765740.0314
        40.2504         19.5004
  -2610210.336 6                  23283254.320
        37.250
  -8735297.85548 -21594939.59845  20782525.5394                   20782522.5664
        50.0004         33.2504
 19  3  5  0  1 25.0000000  0  8G01G19G11G13G28G30G18G17
   -133738.28847  -8873240.61443  22421835.2034                   22421835.2774
        42.5004         21.7504
 -10470477.63347 -13317504.62544  21948400.6724                   21948395.9414
        45.2504         29.7504
  -2169410.55546 -12472861.26642  22663437.5314                   22663434.5234
        39.5004         16.7504
   -688751.60947 -11564106.44144  22364560.5394                   22364557.2624
        45.5004         26.2504
  -3001596.02347 -14545050.68744  20840766.9844                   20840763.2544
        45.5004         29.0004
   1410866.03946  -2974438.81643  22766602.6884                   22766602.9344
        40.2504         19.2504
  -2613354.957 6                  23282656.039
        37.000
  -8753954.34448 -21609477.11745  20778975.2424                   20778972.6564
        50.0004         33.7504
 19  3  5  0  1 30.0000000  0  8G01G19G11G13G28G30G18G17
   -146212.44546  -8882960.72743  22419460.4844                   22419461.5704
        41.7504         21.7504
 -10499168.41847 -13339861.06244  21942940.4384                   21942936.0514
        45.5004         29.5004
  -2171707.58246 -12474651.17242  22663000.0784                   22662997.4384
        39.7504         17.7504
   -688058.43447 -11563566.32044  22364692.1724                   22364689.8054
        45.5004         26.5004
  -3007662.86747 -14549778.09444  20839612.7194                   20839608.5474
        46.0004         29.5004
   1415403.42646  -2970903.20743  22767466.4844                   22767466.1954
        41.2504         20.5004
  -2616484.797 6                  23282059.078
        36.750
  -8772598.94148 -21624005.36345  20775427.0784                   20775424.1484
        50.0004         33.5004
 19  3  5  0  1 35.0000000  0  8G01G19G11G13G28G30G18G17
   -158669.64547  -8892667.64843  22417090.3444                   22417090.8164
        42.5004         21.7504
 -10527850.72347 -13362210.90645  21937482.7734                   21937478.1844
        45.2504         30.5004
  -2173990.95746 -12476430.42642  22662565.2194                   22662563.0084
        38.7504         17.2504
   -687354.79747 -11563018.02344  22364825.9534                   22364824.0164
        45.5004         27.2504
  -3013723.83647 -14554500.93045  20838459.3834                   20838455.3714
        46.0004         30.0004
   1419946.30946  -2967363.28143  22768330.9384                   22768330.4454
        40.7504         21.0004
  -2619599.641 6                  23281466.578
        37.000
  -8791231.40648 -21638524.17645  20771881.3674                   20771878.7894
        50.0004         33.5004
 19  3  5  0  1 40.0000000  0  8G01G19G11G13G28G30G18G17
   -171110.19947  -8902361.58643  22414723.0084                   22414723.4144
        42.2504         21.5004
 -10556524.80947 -13384554.36745  21932025.9694                   21932021.7034
        46.5004         30.5004
  -2176260.91446 -12478199.21142  22662133.6254                   22662130.8634
        39.0004         16.7504
   -686640.92647 -11562461.78544  22364962.0554                   22364959.6524
        44.7504         25.5004
  -3019779.16447 -14559219.35944  20837307.1484                   20837303.2274
        45.7504         29.2504
   1424494.45747  -2963819.30943  22769196.4144                   22769196.4024
        42.5004         21.2504
  -2622699.871 6                  23280876.484
        36.750
  -8809851.99648 -21653033.73845  20768337.9694                   20768335.0084
        50.0004         33.5004
 19  3  5  0  1 45.0000000  0  8G01G19G11G13G28G30G18G17
   -183534.20347  -8912042.63743  22412358.5634                   22412359.2584
        42.5004         22.0004
 -10585190.77747 -13406891.47345  21926571.2974                   21926566.9064
        45.0004         30.5004
  -2178517.63346 -12479957.69142  22661704.3524                   22661701.5704
        39.0004         15.5004
   -685917.00047 -11561897.68744  22365099.7424                   22365096.9694
        45.7504         25.2504
  -3025829.00047 -14563933.52044  20836155.6884                   20836152.1414
        46.2504         29.2504
   1429047.76647  -2960271.29343  22770062.7504                   22770062.7544
        42.5004         22.5004
  -2625785.637 5                  23280289.836
        35.500
  -8828460.88348 -21667534.14545  20764797.0234                   20764793.9224
        50.0004         33.2504
 19  3  5  0  1 50.0000000  0  8G01G19G11G13G28G30G18G17
   -195941.62147  -8921710.73043  22409997.6174                   22409998.0664
        42.0004         22.0004
 -10613848.59447 -13429222.23444  21921117.5004                   21921112.9144
        46.0004         29.7504
  -2180761.07446 -12481705.84442  22661277.1334                   22661274.7704
        39.0004         16.7504
   -685183.00447 -11561325.74244  22365239.5314                   22365236.5124
        45.5004         25.5004
  -3031873.25447 -14568643.33244  20835005.7894                   20835001.4694
        46.0004         29.5004
   1433606.22346  -2956719.21943  22770930.1484                   22770929.9414
        41.0004         21.5004
  -2628856.867 6                  23279705.398
        36.000
  -8847057.97348 -21682025.38345  20761258.0314                   20761255.0354
        50.0004         33.5004
 19  3  5  0  1 55.0000000  0  8G01G19G11G13G28G30G18G17
   -208332.86747  -8931366.25043  22407639.2894                   22407640.4104
        42.0004         22.2504
 -10642498.64147 -13451546.93045  21915665.9224                   21915661.2074
        45.7504         30.0004
  -2182991.63346 -12483443.92242  22660852.2664                   22660850.5124
        39.0004         17.2504
   -684439.32047 -11560746.24244  22365381.2424                   22365378.0274
        46.2504         27.0004
  -3037912.39847 -14573349.16444  20833856.2894                   20833852.2274
        46.2504         28.7504
   1438169.47746  -2953163.43743  22771798.4144                   22771798.5234
        41.0004         20.5004
  -2631913.898 6                  23279123.930
        37.000
  -8865643.64848 -21696507.73445  20757721.3754                   20757718.1914
        50.2504         33.2504
 19  3  5  0  2  0.0000000  0  8G01G19G11G13G28G30G18G17
   -220707.14547  -8941008.55543  22405285.1024                   22405285.5744
        42.2504         22.0004
 -10671140.11347 -13473864.97745  21910215.5634                   21910211.0704
        45.7504         30.2504
  -2185208.50046 -12485171.37142  22660431.5704                   22660428.3284
        38.5004         16.7504
   -683685.20747 -11560158.62944  22365524.3984                   22365521.9884
        45.5004         25.5004
  -3043945.61347 -14578050.35944  20832708.2734                   20832704.4184
        45.7504         28.2504
   1442738.21546  -2949603.41443  22772667.4694                   22772667.5554
        40.5004         19.2504
  -2634956.070 6                  23278545.438
        37.000
  -8884217.15648 -21710980.59045  20754186.7504                   20754183.8754
        49.7504         33.5004
 19  3  5  0  2  5.0000000  0  8G01G19G11G13G28G30G18G17
   -233064.57447  -8950637.71143  22402933.1724                   22402934.1844
        42.0004         22.5004
 -10699773.10247 -13496176.37945  21904766.8284                   21904762.3014
        45.5004         30.2504
  -2187411.87946 -12486888.27042  22660011.9774                   22660008.9344
        39.0004         17.7504
   -682920.73447 -11559562.91444  22365670.0164                   22365666.5824
        45.5004         26.0004
  -3049972.99247 -14582747.02745  20831561.4774                   20831557.5784
        46.0004         30.0004
   1447312.49646  -2946039.03543  22773538.7894                   22773538.2194
        41.5004         18.2504
  -2637983.312 6                  23277969.633
        37.500
  -8902778.54748 -21725444.00845  20750654.9304                   20750651.6684
        50.2504         33.0004
 19  3  5  0  2 10.0000000  0  8G01G19G11G13G28G30G18G17
   -245405.53146  -8960254.04343  22400585.0634                   22400585.3794
        41.5004         22.0004
 -10728397.98047 -13518481.47745  21899319.5554                   21899315.0634
        45.2504         30.0004
  -2189602.05946 -12488594.90242  22659594.5394                   22659592.1804
        38.7504         17.2504
   -682146.10247 -11558959.32044  22365817.4694                   22365814.7774
        45.5004         26.5004
  -3055994.91847 -14587439.42644  20830415.3134                   20830411.7464
        45.7504         29.2504
   1451891.51647  -2942470.99643  22774409.5474                   22774409.9614
        43.0004         20.7504
  -2640996.133 6                  23277395.977
        37.000
  -8921328.10248 -21739898.21145  20747124.6484                   20747121.5274
        50.0004         33.2504
 19  3  5  0  2 15.0000000  0  8G01G19G11G13G28G30G18G17
   -257730.14546  -8969857.62943  22398239.6644                   22398240.1334
        41.5004         21.2504
 -10757014.98447 -13540780.45744  21893874.0004                   21893869.5784
        45.5004         29.5004
  -2191779.30146 -12490291.48442  22659181.5554                   22659177.5124
        38.7504         17.7504
   -681361.78947 -11558348.18744  22365966.8364                   22365963.7424
        45.5004         26.5004
  -3062011.57847 -14592127.72744  20829270.7424                   20829266.6254
        45.7504         29.5004
   1456475.35947  -2938899.16443  22775282.4304                   22775281.4574
        42.0004         22.5004
  -2643994.559 5                  23276824.609
        35.500
  -8939866.25048 -21754343.51645  20743597.2814                   20743594.0634
        49.5004         33.0004
 19  3  5  0  2 20.0000000  0  8G01G19G11G13G28G30G18G17
   -270037.89147  -8979448.09443  22395897.7504                   22395897.9844
        42.0004         21.5004
 -10785623.48447 -13563072.78544  21888429.7584                   21888425.7624
        44.5004         29.0004
  -2193943.09046 -12491977.48042  22658768.6884                   22658765.6644
        39.5004         16.7504
   -680567.28947 -11557729.08644  22366117.8444                   22366114.5314
        45.5004         25.7504
  -3068022.44947 -14596811.52044  20828127.0394                   20828122.8984
        46.0004         29.5004
   1461064.80147  -2935323.00443  22776155.3754                   22776155.0824
        42.7504         22.5004
  -2646978.359 6                  23276256.820
        37.000
  -8958392.27048 -21768779.37545  20740071.8444                   20740068.7304
        49.5004         33.0004
 19  3  5  0  2 25.0000000  0  8G01G19G11G13G28G30G18G17
   -282329.85546  -8989026.21543  22393558.7894                   22393559.2114
        40.7504         21.0004
 -10814226.80947 -13585361.10244  21882987.4304                   21882982.5824
        45.0004         29.7504
  -2196092.02146 -12493652.08642  22658360.3204                   22658357.1214
        38.5004         17.2504
   -679761.79747 -11557101.46144  22366271.2114                   22366267.9024
        45.5004         27.5004
  -3074027.91047 -14601491.13345  20826984.3984                   20826980.1214
        46.2504         31.0004
   1465651.19545  -2931749.12543  22777028.3754                   22777028.4924
        35.7504         21.5004
  -2649943.91046  -9957887.08253  23275693.0234                   23275690.8444
        36.2504         18.5004
  -8976908.55148 -21783207.64845  20736548.6954                   20736545.6254
        49.7504         33.2504
 19  3  5  0  2 30.0000000  0  8G01G19G11G13G28G30G18G17
   -294605.49646  -8998591.70343  22391222.2274                   22391222.7854
        41.0004         21.2504
 -10842822.19547 -13607643.19544  21877545.6644                   21877540.8634
        45.5004         29.5004
  -2198227.42646 -12495315.98842  22657953.5234                   22657950.2304
        39.2504         16.7504
   -678945.38747 -11556465.25444  22366426.5164                   22366423.4454
        45.5004         27.0004
  -3080027.87147 -14606166.40244  20825841.8834                   20825838.5044
        45.2504         29.7504
   1470240.82046  -2928172.85543  22777902.3984                   22777901.4804
        37.5004         19.7504
  -2652893.80546  -9960185.78142  23275131.2974                   23275130.0004
        37.0004         16.7504
  -8995413.39848 -21797627.00845  20733027.0554                   20733024.3714
        49.5004         32.2504
 19  3  5  0  2 35.0000000  0  8G01G19G11G13G28G30G18G17
   -306860.68747  -9008141.18043  22388890.5474                   22388891.4344
        42.0004         21.7504
 -10871402.88747 -13629913.89145  21872106.9844                   21872103.0984
        45.5004         31.2504
  -2200347.36346 -12496967.90642  22657550.2584                   22657547.1914
        39.0004         16.7504
   -678115.31647 -11555818.50044  22366583.7974                   22366582.0554
        45.5004         27.2504
  -3086018.57847 -14610834.50445  20824702.1094                   20824698.7704
        45.7504         31.0004
   1474844.90946  -2924585.28343  22778777.7664                   22778777.3874
        39.5004         19.0004
  -2655828.71546  -9962472.64142  23274572.9304                   23274571.6764
        36.5004         15.5004
  -9013900.88348 -21812032.85545  20729508.9144                   20729506.6094
        50.0004         34.2504
 19  3  5  0  2 40.0000000  0  8G01G19G11G13G28G30G18G17
   -319098.54346  -9017677.15643  22386561.1484                   22386562.6484
        41.5004         22.7504
 -10899969.91847 -13652173.88344  21866670.3754                   21866666.3954
        45.0004         28.2504
  -2202451.53546 -12498607.52042  22657149.6024                   22657146.7464
        39.5004         16.2504
   -677265.27747 -11555156.11344  22366746.3594                   22366743.7814
        45.2504         25.0004
  -3092000.50447 -14615495.73044  20823563.7114                   20823560.3594
        45.0004         29.7504
   1479451.61746  -2920995.61342  22779654.2584                   22779654.5514
        37.5004         17.7504
  -2658744.57046  -9964744.68742  23274018.4694                   23274017.0314
        37.5004         15.5004
  -9032372.24648 -21826426.11345  20725994.0944                   20725991.1604
        49.5004         33.0004
 19  3  5  0  2 45.0000000  0  8G01G19G11G13G28G30G18G17
   -331311.30146  -9027193.58643  22384237.5234                   22384238.8324
        41.5004         22.5004
 -10928520.47747 -13674421.07445  21861237.9064                   21861233.3284
        45.7504         30.5004
  -2204533.99646 -12500230.21942  22656753.4694                   22656750.9064
        38.2504         16.2504
   -676397.09447 -11554479.61344  22366911.0394                   22366908.7624
        45.5004         26.0004
  -3097968.48047 -14620146.10245  20822428.6564                   20822424.9304
        45.7504         30.7504
   1484071.61746  -2917395.58243  22780533.6174                   22780533.9264
        39.7504         18.2504
  -2661637.27746  -9966998.82842  23273468.4844                   23273466.3284
        39.0004         15.5004
  -9050823.52048 -21840803.72345  20722482.9304                   20722479.9454
        50.0004         34.0004
 19  3  5  0  2 50.0000000  0  8G01G19G11G13G28G30G18G17
   -343504.85546  -9036695.06243  22381918.2584                   22381917.9804
        41.5004         22.0004
 -10957061.18447 -13696660.59044  21855807.0394                   21855802.7274
        45.5004         29.5004
  -2206600.98846 -12501840.87542  22656360.0394                   22656357.3444
        38.2504         16.7504
   -675518.10547 -11553794.69144  22367078.6094                   22367076.1684
        45.7504         26.0004
  -3103929.02347 -14624790.68444  20821293.6334                   20821290.4774
        45.5004         29.5004
   1488699.73846  -2913789.27743  22781414.6174                   22781414.3164
        38.0004         18.5004
  -2664513.58646  -9969240.02042  23272920.3674                   23272919.8594
        36.0004         13.7504
  -9069261.33248 -21855170.85545  20718974.4844                   20718971.9454
        49.7504         34.0004
 19  3  5  0  2 55.0000000  0  8G01G19G11G13G28G30G18G17
   -355683.83647  -9046185.20743  22379600.7344                   22379599.8244
        45.0004         22.7504
 -10985591.79747 -13718892.23444  21850379.0084                   21850372.9804
        43.0004         27.0004
  -2208656.75846 -12503442.78542  22655969.8754                   22655965.6604
        41.7504         17.7504
   -674626.52047 -11553099.99243  22367249.4844                   22367246.0204
        42.5004         22.0004
  -3109884.23847 -14629431.12945  20820162.0554                   20820157.4734
        46.5004         31.5004
   1493331.85546  -2910179.83642  22782296.6174                   22782295.6764
        40.0004         16.2504
  -2667377.28146  -9971471.55942  23272376.1724                   23272374.7814
        39.7504         15.5004
  -9087686.04748 -21869527.79745  20715469.1254                   20715466.0354
        48.5004         33.2504
 19  3  5  0  3  0.0000000  0  8G01G19G11G13G28G30G18G17
   -367839.08246  -9055656.83643  22377287.1564                   22377287.8444
        39.5004         23.0004
 -11014109.72746 -13741114.00444  21844951.3204                   21844948.5634
        39.5004         28.7504
                                  22655583.3364                   22655580.1604
        35.7504         17.7504
   -673721.03946 -11552394.38143  22367422.0554                   22367418.0234
        40.7504         23.5004
  -3115828.11746 -14634062.73845  20819030.7734                   20819027.5984
        41.2504         31.0004
                                  22783179.9694                   22783179.9614
        35.0004         17.2504
                                  23271835.6564                   23271833.8874
        34.0004         14.7504
  -9106094.14547 -21883871.77345  20711966.2504                   20711963.3714
        44.7504         33.0004
 19  3  5  0  3  5.0000000  0  8G01G19G11G13G28G30G18G17
   -379984.11316                  22374975.844
        40.500
                                  21839525.0394                   21839521.6054
        45.5004         31.5004
  -2212718.50856 -12506607.76252  22655196.5394                   22655194.5904
        37.5004         16.7504
   -672808.80557 -11551683.54754  22367594.8984                   22367592.5204
        46.5004         28.0004
  -3121770.71957 -14638693.29755  20817898.8524                   20817895.8204
        44.7504         30.0004
                                  22784063.555
        40.750
                                  23271296.547
        36.750
  -9124494.50458 -21898209.67255  20708464.1094                   20708461.3754
        49.7504         34.5004
 19  3  5  0  3 10.0000000  0  8G01G19G11G13G28G30G18G17
   -392115.19346  -9071545.71753  22372667.0944                   22372665.8364
        40.7504         22.0004
 -11071132.64147 -13785547.43745  21834099.2504                   21834096.2704
        45.7504         31.2504
  -2214736.15646 -12508180.03142  22654812.7424                   22654810.4144
        38.2504         15.5004
   -671890.82047 -11550968.24244  22367769.0474                   22367767.3634
        46.0004         26.2504
  -3127712.22347 -14643323.07044  20816768.1724                   20816764.8914
        45.2504         28.7504
   1507262.57846  -2903810.55953  22784946.7274                   22784945.2504
        41.2504         23.2504
  -2675873.582 5                  23270758.625
        35.500
  -9142887.46148 -21912541.86745  20704963.7114                   20704961.7034
        50.2504         34.2504
 19  3  5  0  3 15.0000000  0  8G01G19G11G13G28G30G18G17
   -404230.16447  -9080985.92243  22370362.0084                   22370361.1024
        42.0004         21.0004
 -11099632.78847 -13807755.29844  21828675.9224                   21828672.0434
        44.5004         29.2504
  -2216741.50846 -12509742.59042  22654430.3524                   22654428.9774
        39.0004         16.2504
   -670962.29947 -11550244.69444  22367946.3444                   22367943.3204
        46.0004         26.0004
  -3133649.02347 -14647949.10544  20815638.3364                   20815635.1024
        45.2504         28.0004
   1511912.52046  -2900187.16843  22785831.3674                   22785830.8244
        41.0004         22.5004
  -2678681.371 5                  23270224.805
        35.500
  -9161268.53148 -21926864.76245  20701465.7974                   20701462.7424
        50.0004         33.0004
 19  3  5  0  3 20.0000000  0  8G01G19G11G13G28G30G18G17
   -416319.65246  -9090406.29743  22368061.2734                   22368060.7194
        40.0004         20.0004
 -11128113.26647 -13829947.88744  21823256.3674                   21823252.0124
        45.2504         29.5004
  -2218724.80146 -12511288.03142  22654053.3674                   22654051.5784
        37.0004         14.7504
   -670011.89847 -11549504.16844  22368125.8364                   22368124.2504
        45.7504         24.5004
  -3139569.69947 -14652562.64144  20814511.2504                   20814507.8094
        44.5004         27.5004
   1516576.20047  -2896553.19144  22786718.6954                   22786718.6054
        42.0004         24.7504
  -2681465.941 5                  23269694.922
        33.500
  -9179626.28548 -21941169.50445  20697972.6254                   20697969.4304
        50.0004         32.5004
 19  3  5  0  3 25.0000000  0  8G01G19G11G13G28G30G18G17
   -428386.30947  -9099808.89843  22365765.1334                   22365764.6564
        42.5004         19.5004
 -11156580.16447 -13852129.88344  21817838.6954                   21817834.8054
        44.5004         29.2504
  -2220688.43446 -12512818.04342  22653680.3204                   22653678.0944
        39.0004         15.5004
   -669046.09047 -11548751.59044  22368310.1954                   22368307.3444
        45.5004         25.5004
  -3145479.36747 -14657167.57044  20813387.3054                   20813382.8444
        45.7504         28.0004
   1521250.43447  -2892910.93044  22787608.3984                   22787607.9264
        43.5004         27.5004
  -2684229.094 5                  23269168.945
        35.750
  -9197967.09048 -21955461.03545  20694482.3674                   20694479.1174
        50.2504         33.0004
 19  3  5  0  3 30.0000000  0  8G01G19G11G13G28G30G18G17
   -440431.49646  -9109194.74643  22363472.9224                   22363473.3094
        40.2504         20.7504
 -11185035.04347 -13874302.51245  21812424.4534                   21812420.3634
        44.7504         30.0004
  -2222635.10946 -12514334.99642  22653309.5634                   22653307.3484
        38.5004         15.5004
   -668068.82447 -11547990.06244  22368497.5704                   22368493.8954
        47.0004         27.2504
  -3151379.61347 -14661765.15245  20812264.3204                   20812260.5784
        45.0004         30.0004
   1525936.44147  -2889259.53144  22788499.8674                   22788499.6174
        42.7504         27.5004
  -2686974.988 6                  23268646.242
        36.500
  -9216292.28148 -21969740.39845  20690995.2734                   20690992.6334
        50.0004         33.7504
 19  3  5  0  3 35.0000000  0  8G01G19G11G13G28G30G18G17
   -452459.51646  -9118567.23843  22361184.2734                   22361185.0084
        40.2504         20.7504
 -11213480.93047 -13896468.13745  21807011.1254                   21807006.9494
        45.5004         30.5004
  -2224567.47346 -12515840.74642  22652941.5394                   22652939.7384
        37.5004         16.2504
   -667079.90647 -11547219.48044  22368685.3754                   22368682.0744
        47.7504         28.0004
  -3157273.33647 -14666357.68444  20811142.6644                   20811139.0904
        44.7504         28.2504
   1530626.19947  -2885605.15244  22789392.3054                   22789392.2504
        42.2504         26.7504
  -2689704.574 5                  23268127.461
        34.250
  -9234604.84048 -21984009.92245  20687510.3444                   20687507.4384
        50.0004         33.0004
 19  3  5  0  3 40.0000000  0  8G01G19G11G13G28G30G18G17
   -464470.20346  -9127926.20343  22358898.4774                   22358899.1524
        40.0004         21.0004
 -11241916.53547 -13918625.73845  21801600.6564                   21801596.0434
        45.5004         30.5004
  -2226486.31646 -12517335.98042  22652576.2194                   22652574.7344
        38.0004         16.7504
   -666079.57447 -11546440.03944  22368874.9224                   22368872.1604
        46.5004         27.0004
  -3163160.55147 -14670945.12544  20810022.5784                   20810019.3014
        45.0004         29.7504
   1535322.71147  -2881945.57044  22790286.4534                   22790286.1294
        42.5004         26.2504
  -2692419.645 5                  23267610.836
        35.750
  -9252903.91448 -21998268.95745  20684028.2584                   20684025.8554
        50.0004         34.7504
 19  3  5  0  3 45.0000000  0  8G01G19G11G13G28G30G18G17
   -476457.22346  -9137266.71143  22356617.2424                   22356617.8714
        39.5004         20.2504
 -11270340.50047 -13940774.28545  21796191.4774                   21796187.3914
        45.7504         32.0004
  -2228386.21546 -12518816.37942  22652214.7894                   22652213.1454
        37.0004         16.7504
   -665069.02347 -11545652.59044  22369067.4844                   22369064.5474
        47.2504         29.2504
  -3169037.10547 -14675524.26244  20808903.9774                   20808900.7464
        44.7504         29.2504
   1540032.68046  -2878275.45743  22791182.8134                   22791183.1454
        41.5004         22.2504
  -2695115.449 5                  23267097.617
        34.250
  -9271187.09848 -22012515.57845  20680548.9224                   20680546.3134
        50.5004         34.5004
 19  3  5  0  3 50.0000000  0  8G01G19G11G13G28G30G18G17
   -488427.11346  -9146593.94943  22354339.7974                   22354340.5314
        39.5004         19.7504
 -11298754.75447 -13962915.26245  21790784.8754                   21790780.3404
        46.0004         33.0004
  -2230271.98846 -12520285.87942  22651856.2734                   22651854.5354
        37.2504         15.5004
   -664046.39147 -11544855.72345  22369261.5314                   22369259.4024
        46.5004         30.2504
  -3174906.93047 -14680098.15245  20807787.3204                   20807784.0314
        44.7504         30.7504
   1544747.08646  -2874601.90243  22792079.2114                   22792079.9024
        39.5004         22.7504
  -2697795.605 5                  23266587.406
        34.500
  -9289457.09048 -22026751.95346  20677072.3134                   20677069.3054
        50.2504         36.7504
 19  3  5  0  3 55.0000000  0  8G01G19G11G13G28G30G18G17
   1075042.73447  -7928305.77044  22651863.1804                   22651856.8594
        44.7504         26.0004
  -9751731.28148 -12757442.45345  22085178.8674                   22085166.7624
        49.2504         33.0004
   -656723.10247 -11294143.87942  22951298.5554                   22951289.5514
        42.5004         16.7504
    912410.97348 -10316447.46944  22669257.2114                   22669246.7774
        48.2504         28.2504
  -1605348.39548 -13457065.56245  21106469.9224                   21106458.4694
        48.7504         33.7504
   3124886.23046  -1643324.67643  23092774.0394                   23092769.2344
        41.0004         21.5004
  -1125039.030 6                  23565878.148
        39.000
  -7732288.78948 -20813374.09446  20973397.9774                   20973385.1334
        53.0004         37.2504
 19  3  5  0  4  0.0000000  0  8G01G19G11G13G28G30G18G17
   1063113.00046  -7937601.66443  22649587.3834                   22649588.1334
        39.0004         22.2504
  -9780120.84047 -12779564.19546  22079770.9144                   22079766.0984
        46.7504         36.2504
   -658575.60946 -11295587.38342  22950940.1174                   22950937.8444
        36.5004         16.2504
    913461.59447 -10315628.77345  22669450.8364                   22669449.1134
        46.2504         31.5004
  -1611200.27347 -13461625.46945  21105350.7194                   21105347.1994
        44.0004         32.2504
   3129617.35246  -1639638.13343  23093670.2584                   23093670.3204
        36.5004         20.7504
  -1127682.980 5                  23565369.961
        35.000
  -7750527.75448 -20827586.24646  20969920.7344                   20969917.5664
        49.2504         37.7504
 19  3  5  0  4  5.0000000  0  8G01G19G11G13G28G30G18G17
   1051198.50446  -7946885.72343  22647320.6484                   22647321.4414
        39.5004         21.5004
  -9808502.33647 -12801679.63746  22074369.8984                   22074365.7034
        45.7504         36.0004
   -660416.09446 -11297021.58242  22950589.7504                   22950587.4694
        37.7504         14.7504
    914522.52747 -10314802.08245  22669653.4304                   22669650.8134
        46.7504         31.7504
  -1617047.70347 -13466181.91045  21104238.3284                   21104234.5204
        44.5004         33.2504
   3134351.53545  -1635949.10943  23094571.1564                   23094571.5514
        34.2504         19.7504
  -1130313.180 5                  23564869.508
        35.000
  -7768755.56648 -20841789.76246  20966451.9614                   20966449.0084
        49.5004         38.2504
 19  3  5  0  4 10.0000000  0  8G01G19G11G13G28G30G18G17
   1039305.00846  -7956153.35943  22645058.0164                   22645058.4534
        41.5004         21.2504
  -9836871.16847 -12823785.21946  22068971.7424                   22068967.7974
        45.7504         36.0004
   -662239.11746 -11298442.07042  22950242.6094                   22950240.6294
        38.5004         15.5004
    915597.50047 -10313964.44145  22669857.9144                   22669855.6214
        46.0004         31.5004
  -1622885.15647 -13470730.56645  21103127.4844                   21103123.4734
        45.5004         33.2504
   3139094.59045  -1632253.28543  23095473.8444                   23095473.9804
        33.2504         18.5004
  -1132924.629 6                  23564372.227
        36.000
  -7786967.09448 -20855980.54346  20962986.9614                   20962983.8484
        50.0004         38.7504
 19  3  5  0  4 15.0000000  0  8G01G19G11G13G28G30G18G17
   1027432.30546  -7965404.84044  22642799.1174                   22642799.0984
        41.5004         24.2504
  -9865225.49647 -12845879.53945  22063576.1254                   22063571.6604
        45.5004         32.2504
   -664045.47746 -11299849.67243  22949899.7664                   22949897.3244
        38.5004         19.2504
    916687.56647 -10313115.10944  22670065.7584                   22670061.8484
        46.5004         27.7504
  -1628712.70347 -13475271.56245  21102018.2114                   21102013.8014
        45.0004         34.0004
   3143849.14114                  23096379.383
        28.250
  -1135518.52356  -8747045.87153  23563880.8524                   23563872.1454
        36.0004         20.7504
  -7805161.38748 -20870157.96946  20959524.0944                   20959520.5664
        49.2504         37.0004
 19  3  5  0  4 20.0000000  0  8G01G19G11G13G28G30G18G17
   1015579.27746  -7974640.97743  22640542.4774                   22640543.4924
        37.7504         21.5004
  -9893570.99947 -12867966.88746  22058182.1174                   22058178.0084
        47.0004         36.0004
   -665834.89545 -11301243.98842  22949558.0864                   22949556.0904
        34.0004         16.2504
    917788.78947 -10312256.94345  22670274.3754                   22670272.7274
        46.0004         31.7504
  -1634532.36047 -13479806.30845  21100911.1954                   21100907.0394
        43.5004         32.0004
                                  23097285.008
        28.000
  -1138093.30945  -8749052.19943  23563389.0474                   23563383.2664
        33.0004         19.0004
  -7823342.77248 -20884325.22246  20956064.5474                   20956061.4924
        49.5004         38.0004
 19  3  5  0  4 25.0000000  0  7G01G19G11G13G28G18G17
   1003735.54347  -7983869.81243  22638288.8524                   22638289.5274
        42.5004         21.2504
  -9921911.90647 -12890050.69945  22052789.1484                   22052784.7504
        44.5004         34.2504
   -667618.76746 -11302634.02242  22949219.3054                   22949216.5784
        40.5004         17.2504
    918896.32047 -10311393.94544  22670484.9534                   22670482.9184
        43.2504         29.5004
  -1640353.23847 -13484342.05945  21099803.6724                   21099799.6374
        45.2504         34.0004
  -1140661.30145  -8751053.22742  23562900.3364                   23562894.9344
        35.2504         16.7504
  -7841517.44548 -20898487.32446  20952606.1094                   20952603.1214
        49.7504         38.5004
 19  3  5  0  4 30.0000000  0  7G01G19G11G13G28G18G17
    991915.60956  -7993080.13753  22636039.1644                   22636039.8794
        38.5004         22.0004
  -9950238.59447 -12912123.43045  22047398.4844                   22047394.2074
        45.5004         32.2504
   -669382.74656 -11304008.52053  22948882.9144                   22948880.1954
        36.0004         19.5004
    920018.54747 -10310519.48044  22670699.5394                   22670696.7384
        46.0004         29.0004
  -1646161.24647 -13488867.76645  21098697.1254                   21098693.8404
        43.5004         31.7504
  -1143208.44545  -8753037.95342  23562414.1334                   23562411.2154
        35.5004         17.7504
  -7859673.57847 -20912634.92245  20949150.8674                   20949148.2934
        47.7504         34.7504
 19  3  5  0  4 35.0000000  0  7G01G19G11G13G28G18G17
    980111.90646  -8002277.80544  22633791.6484                   22633794.8244
        37.2504         26.2504
  -9978554.72346 -12934187.90245  22042009.2814                   22042007.5234
        39.0004         32.2504
   -671133.43745 -11305372.64843  22948548.9224                   22948547.7544
        35.5004         19.5004
    921154.14546 -10309634.56644  22670912.9064                   22670914.2544
        37.5004         27.0004
  -1651963.37146 -13493388.88345  21097592.1804                   21097591.4224
        41.0004         33.7504
  -1145740.25445  -8755010.80542  23561930.6954                   23561930.4614
        34.5004         17.7504
  -7877816.54747 -20926772.30146  20945697.3444                   20945696.9304
        44.7504         37.2504
 19  3  5  0  4 40.0000000  0  7G01G19G11G13G28G18G17
    968323.04346  -8011463.93743  22631549.7974                   22631551.3324
        39.0004         22.0004
 -10006868.02347 -12956250.24646  22036622.6094                   22036618.3284
        46.0004         36.0004
   -672873.30156 -11306728.46952  22948218.5004                   22948216.7854
        37.5004         17.7504
    922292.50847 -10308747.53145  22671132.6564                   22671130.1604
        46.2504         32.5004
  -1657763.13747 -13497908.19945  21096490.1414                   21096487.1994
        44.5004         33.5004
  -1148260.32846  -8756974.54343  23561454.5004                   23561451.9574
        36.7504         18.5004
  -7895952.24248 -20940904.01246  20942247.7034                   20942244.8524
        50.0004         39.2504
 19  3  5  0  4 45.0000000  0  7G01G19G11G13G28G18G17
    956546.66846  -8020640.35543  22629308.0704                   22629310.4344
        38.0004         22.2504
 -10035173.98447 -12978306.84845  22031235.0164                   22031232.6724
        43.0004         33.2504
   -674604.46156 -11308077.37553  22947888.0634                   22947887.2894
        37.0004         18.5004
    923439.59447 -10307853.73044  22671349.9224                   22671349.0164
        43.5004         29.2504
  -1663560.77347 -13502425.85945  21095385.3524                   21095384.3674
        42.5004         32.2504
  -1150770.43755  -8758930.44553  23560976.1174                   23560975.3164
        34.5004         18.5004
  -7914078.21948 -20955028.17246  20938797.1724                   20938797.3054
        48.0004         37.5004
 19  3  5  0  4 50.0000000  0  7G01G19G11G13G28G18G17
    944789.96646  -8029801.43543  22627072.4384                   22627073.8204
        38.7504         21.5004
 -10063469.96647 -13000355.68045  22025852.5944                   22025848.2304
        47.5004         35.5004
   -676319.52746 -11309413.83242  22947563.5704                   22947561.0984
        37.0004         17.7504
    924597.60947 -10306951.37545  22671571.6884                   22671569.0514
        47.0004         31.7504
  -1669350.33247 -13506937.20745  21094285.6334                   21094283.3874
        44.0004         32.2504
  -1153263.11346  -8760872.82842  23560502.5394                   23560501.6294
        36.0004         17.7504
  -7932190.32848 -20969141.51646  20935351.6334                   20935349.7424
        49.7504         38.0004
 19  3  5  0  4 55.0000000  0  7G01G19G11G13G28G18G17
    933052.73046  -8038947.32043  22624838.5944                   22624839.8594
        38.7504         23.5004
 -10091756.84847 -13022397.39845  22020468.8444                   22020465.0474
        45.7504         35.2504
   -678019.58246 -11310738.54342  22947239.7894                   22947237.5434
        37.0004         17.7504
    925764.04747 -10306042.43745  22671793.2344                   22671790.6134
        45.5004         30.5004
  -1675132.63347 -13511442.90245  21093185.2274                   21093181.8404
        44.0004         34.0004
  -1155740.31645  -8762803.13743  23560030.9844                   23560030.1524
        35.5004         18.2504
  -7950289.44148 -20983244.71546  20931907.5394                   20931905.3404
        49.0004         38.0004
 19  3  5  0  5  0.0000000  0  7G01G19G11G13G28G18G17
    921330.60646  -8048081.48544  22622611.3594                   22622609.4264
        41.5004         24.2504
 -10120033.90047 -13044431.47645  22015092.3364                   22015083.6484
        47.0004         34.5004
   -679707.55146 -11312053.88343  22946921.8204                   22946916.1414
        39.2504         18.2504
    926942.92648 -10305123.91445  22672021.8524                   22672015.9534
        48.2504         30.7504
  -1680909.57347 -13515944.43945  21092089.7194                   21092082.9224
        46.0004         33.5004
  -1158203.46945  -8764722.44542  23559565.0084                   23559561.8134
        35.5004         16.7504
  -7968375.94248 -20997338.12446  20928469.7664                   20928463.8094
        51.2504         38.5004
 19  3  5  0  5  5.0000000  0  7G01G19G11G13G28G18G17
    909633.00446  -8057196.47343  22620382.8284                   22620383.0474
        41.2504         22.5004
 -10148296.10247 -13066453.95745  22009710.2034                   22009705.4024
        46.2504         35.5004
   -681375.30146 -11313353.43443  22946601.3284                   22946598.8674
        38.0004         18.2504
    928136.32847 -10304193.98845  22672244.7894                   22672242.0124
        47.0004         31.5004
  -1686674.27047 -13520436.39845  21090988.9454                   21090985.5354
        45.0004         34.5004
  -1160645.67645  -8766625.48442  23559097.9614                   23559096.8634
        35.5004         16.2504
  -7986444.14548 -21011417.23446  20925028.3674                   20925024.9454
        50.0004         39.0004
 19  3  5  0  5 10.0000000  0  7G01G19G11G13G28G18G17
    897950.26246  -8066299.94943  22618159.6254                   22618160.3834
        39.7504         22.2504
 -10176551.65647 -13088471.27745  22004332.9144                   22004329.0314
        45.7504         34.7504
   -683032.29346 -11314644.57443  22946285.6334                   22946283.5314
        36.5004         18.2504
    929336.79347 -10303258.58245  22672473.3204                   22672471.1054
        47.2504         31.5004
  -1692435.84447 -13524925.94145  21089892.4064                   21089889.6684
        44.7504         33.5004
  -1163075.89545  -8768519.16042  23558635.8754                   23558635.0474
        34.7504         16.2504
  -8004502.66848 -21025488.81646  20921591.6724                   20921589.1524
        50.0004         38.5004
 19  3  5  0  5 15.0000000  0  7G01G19G11G13G28G18G17
    886283.24246  -8075391.10943  22615937.7344                   22615940.0434
        41.2504         22.2504
 -10204797.92647 -13110481.34445  21998957.6564                   21998953.7074
        45.5004         34.5004
   -684676.84846 -11315926.07043  22945973.2664                   22945970.4104
        39.7504         19.2504
    930548.52747 -10302314.37144  22672703.2974                   22672701.1414
        44.7504         28.5004
  -1698191.91847 -13529411.19145  21088797.1094                   21088793.7624
        45.5004         35.0004
  -1165492.21946  -8770401.98442  23558175.4924                   23558175.1024
        37.0004         16.2504
  -8022548.70348 -21039550.66046  20918157.0864                   20918154.6914
        50.0004         39.0004
 19  3  5  0  5 20.0000000  0  7G01G19G11G13G28G18G17
    874635.85946  -8084467.02343  22613724.6024                   22613723.4024
        40.0004         22.7504
 -10233033.65247 -13132483.27745  21993586.3524                   21993580.3954
        47.0004         35.0004
   -686305.87946 -11317195.50843  22945665.3524                   22945660.9534
        38.2504         19.2504
    931770.77747 -10301362.01245  22672938.2584                   22672934.3714
        47.5004         31.5004
  -1703940.03547 -13533890.30945  21087705.5084                   21087699.9534
        45.7504         33.5004
  -1167892.07446  -8772272.11342  23557720.2034                   23557718.5824
        37.0004         17.2504
  -8040580.71948 -21053601.63346  20914728.3204                   20914724.0904
        50.7504         38.0004
 19  3  5  0  5 25.0000000  0  7G01G19G11G13G28G18G17
    862998.43047  -8093535.13343  22611509.8204                   22611508.9304
        42.7504         22.5004
 -10261268.50847 -13154484.40245  21988213.0314                   21988207.6254
        46.5004         34.5004
   -687928.55546 -11318459.88342  22945355.6644                   22945351.4884
        40.0004         17.2504
    932995.04347 -10300408.00044  22673170.3054                   22673166.0634
        46.2504         29.0004
  -1709689.74647 -13538370.56245  21086610.7584                   21086605.6844
        46.5004         35.0004
  -1170284.09446  -8774135.93742  23557265.2894                   23557263.8324
        38.2504         16.7504
  -8058608.28148 -21067649.05146  20911297.1724                   20911292.1374
        51.2504         38.7504
 19  3  5  0  5 30.0000000  0  7G01G19G11G13G28G18G17
    851378.01647  -8102590.02043  22609297.8364                   22609297.5904
        42.0004         22.5004
 -10289495.51247 -13176479.49245  21982842.1954                   21982836.2814
        47.0004         34.7504
   -689538.77046 -11319714.60242  22945050.4844                   22945045.3244
        38.5004         17.2504
    934226.24247 -10299448.65245  22673405.3594                   22673400.0514
        46.5004         30.2504
  -1715433.93047 -13542846.56245  21085517.6484                   21085512.6914
        46.2504         33.5004
  -1172663.25846  -8775989.86742  23556812.7664                   23556810.9654
        36.2504         16.2504
  -8076624.23448 -21081687.46546  20907869.3674                   20907864.6684
        51.5004         39.0004
 19  3  5  0  5 35.0000000  0  7G01G19G11G13G28G18G17
    839772.09046  -8111633.60943  22607089.5704                   22607088.3954
        41.0004         22.7504
 -10317713.56647 -13198467.58245  21977471.8204                   21977466.3404
        47.5004         35.0004
   -691137.83646 -11320960.64143  22944745.5234                   22944740.8634
        38.7504         18.2504
    935468.68447 -10298480.54745  22673641.2344                   22673637.2274
        47.2504         30.7504
  -1721173.88347 -13547319.27045  21084425.5634                   21084420.7034
        45.7504         33.5004
  -1175029.43445  -8777833.68742  23556362.1024                   23556360.6484
        34.7504         16.7504
  -8094628.50848 -21095716.77746  20904442.8204                   20904438.6644
        51.5004         39.0004
 19  3  5  0  5 40.0000000  0  7G01G19G11G13G28G18G17
    828180.64546  -8120665.84443  22604881.7194                   22604883.0354
        40.5004         22.0004
 -10345924.35947 -13220449.97745  21972102.2504                   21972097.7934
        45.0004         33.5004
   -692726.09046 -11322198.21542  22944442.1564                   22944438.6914
        38.2504         16.2504
    936719.42647 -10297505.86744  22673877.1884                   22673874.7464
        45.5004         29.5004
  -1726910.23847 -13551789.11745  21083331.4774                   21083328.3914
        44.2504         33.5004
  -1177383.44946  -8779667.88342  23555911.9064                   23555912.3634
        36.0004         16.2504
  -8112622.48848 -21109738.00846  20901016.4224                   20901013.9844
        49.2504         37.2504
 19  3  5  0  5 45.0000000  0  7G01G19G11G13G28G18G17
    816598.91846  -8129690.58243  22602678.2034                   22602678.7074
        40.2504         22.0004
 -10374132.14847 -13242430.05646  21966734.7664                   21966729.8554
        47.5004         37.0004
   -694307.70746 -11323430.60242  22944141.0164                   22944137.7114
        38.5004         16.7504
    937975.75347 -10296526.92945  22674115.9144                   22674113.9884
        45.2504         30.7504
  -1732647.84047 -13556259.96145  21082239.9844                   21082236.4494
        45.7504         33.2504
  -1179728.65645  -8781495.37142  23555467.0314                   23555466.5594
        35.0004         16.2504
  -8130610.83248 -21123754.89546  20897593.5164                   20897591.0314
        50.2504         39.0004
 19  3  5  0  5 50.0000000  0  7G01G19G11G13G28G18G17
    805035.28147  -8138701.18043  22600488.0314                   22600477.3484
        45.0004         21.5004
 -10402330.14148 -13264402.51645  21961379.8204                   21961363.3244
        50.7504         31.7504
   -695875.30546 -11324652.16842  22943852.6564                   22943839.1724
        40.0004         16.7504
    939241.92648 -10295540.29744  22674370.0784                   22674354.3984
        50.2504         26.2504
  -1738378.37148 -13560725.30944  21081160.4694                   21081145.6954
        48.5004         28.5004
  -1182058.98046  -8783311.11742  23555031.7424                   23555023.1024
        37.7504         15.5004
  -8148585.86749 -21137761.41845  20894183.9064                   20894169.5204
        54.0004         35.0004
 19  3  5  0  5 55.0000000  0  7G01G19G11G13G28G18G17
    793491.90647  -8147696.02743  22598288.7274                   22598280.9804
        45.2504         21.5004
 -10430515.10248 -13286364.80945  21956013.2974                   21956000.0864
        50.0004         31.0004
