     2.11           OBSERVATION DATA    G (GPS)             RINEX VERSION / TYPE
teqc  2019Feb25     Martin Truffer      20190308 01:04:54UTCPGM / RUN BY / DATE
Linux 2.6.32-573.12.1.x86_64|x86_64|gcc|Linux 64|=+         COMMENT
BIT 2 OF LLI FLAGS DATA COLLECTED UNDER A/S CONDITION       COMMENT
51890642                                                    MARKER NAME
5189                                                        MARKER NUMBER
-Unknown-           -Unknown-                               OBSERVER / AGENCY
0220315189          TRIMBLE 5700        2.30                REC # / TYPE / VERS
-Unknown-           TRM41249.00     NONE                    ANT # / TYPE
 -1794775.6749 -3484167.9967  5017740.5671                  APPROX POSITION XYZ
        0.0530        0.0000        0.0000                  ANTENNA: DELTA H/E/N
     1     1                                                WAVELENGTH FACT L1/2
     7    L1    L2    C1    P1    P2    S1    S2            # / TYPES OF OBSERV
    18                                                      LEAP SECONDS
 SNR is mapped to RINEX snr flag value [0-9]                COMMENT
  L1 & L2: min(max(int(snr_dBHz/6), 0), 9)                  COMMENT
  2019     3     5    19     7   55.0000000     GPS         TIME OF FIRST OBS
                                                            END OF HEADER
 19  3  5 19  7 55.0000000  0  6G07G09G16G23G26G27
   -138585.92257    -59664.97755  21384185.2894                   21384180.6764
        46.5004         31.0004
   -100108.69157    -35161.03156  20122644.9614                   20122641.9574
        47.0004         37.0004
    -31577.35957    -14946.08655  21378992.3134                   21378987.3794
        46.5004         33.7504
    -31537.77357    -15305.86755  21147611.3054                   21147605.3244
        46.7504         32.2504
     18472.60557      7713.45354  23616879.5634                   23616878.1454
        42.7504         29.0004
   -152095.50857    -88551.55555  23315729.6484                   23315727.7894
        42.5004         30.0004
 19  3  5 19  8  0.0000000  0  6G07G09G16G23G26G27
   -162202.65247    -78067.62545  21379691.5084                   21379686.3634
        47.2504         30.5004
   -114044.91447    -46020.43746  20119992.8594                   20119990.2424
        47.0004         37.2504
    -35868.34847    -18289.72345  21378176.0554                   21378170.6564
        46.5004         33.7504
    -36138.72347    -18891.05545  21146735.6724                   21146729.1804
        46.5004         31.5004
     20763.12947      9498.26644  23617315.2974                   23617314.1094
        42.5004         28.2504
   -178892.91047   -109432.65644  23310630.3984                   23310628.6254
        42.5004         29.5004
 19  3  5 19  8  5.0000000  0  6G07G09G16G23G26G27
   -185801.69147    -96456.51645  21375200.5084                   21375196.1174
        46.2504         30.2504
   -127956.69547    -56860.78145  20117345.3834                   20117342.9414
        45.7504         34.0004
    -40134.10547    -21613.68445  21377363.7274                   21377358.8364
        46.5004         34.0004
    -40717.73047    -22459.08245  21145865.1414                   21145858.0004
        47.2504         31.5004
     23070.39147     11296.13344  23617754.1804                   23617753.2304
        43.0004         28.0004
   -205668.87947   -130297.02744  23305535.0394                   23305533.7504
        42.0004         29.7504
 19  3  5 19  8 10.0000000  0  6G07G09G16G23G26G27
   -209375.78547   -114825.93444  21370714.0314                   21370709.8524
        46.2504         27.7504
   -141836.80947    -67676.45745  20114704.1024                   20114701.2624
        45.5004         33.5004
    -44367.48847    -24912.42645  21376558.7734                   21376553.4384
        46.5004         33.7504
    -45267.62547    -26004.43445  21144999.1644                   21144991.9224
        47.0004         31.5004
     25401.60247     13112.66444  23618197.5864                   23618197.0904
        42.2504         27.0004
   -232416.19146   -151139.09444  23300444.8674                   23300443.5594
        41.5004         28.7504
 19  3  5 19  8 15.0000000  0  6G07G09G16G23G26G27
   -232918.80947   -133171.15245  21366234.0164                   21366229.7074
        47.0004         30.0004
   -155679.15647    -78462.68045  20112069.7034                   20112067.8094
        45.0004         32.7504
    -48562.37947    -28181.16445  21375760.3204                   21375755.1564
        47.2504         34.7504
    -49782.19947    -29522.31645  21144139.3524                   21144133.1024
        46.5004         32.0004
     27762.85947     14952.57844  23618647.0084                   23618646.2074
        42.5004         28.2504
   -259128.73046   -171954.05544  23295361.6254                   23295360.2774
        41.2504         27.7504
 19  3  5 19  8 20.0000000  0  6G07G09G16G23G26G27
   -256426.64547   -151488.90244  21361761.3674                   21361756.1884
        45.2504         24.5004
   -169479.55947    -89216.27046  20109443.7894                   20109441.2544
        47.2504         36.7504
    -52714.62547    -31416.69145  21374970.0084                   21374964.5594
        46.7504         34.0004
    -54257.39147    -33009.49645  21143288.1884                   21143281.6484
        46.7504         31.7504
     30158.26247     16819.12544  23619103.8444                   23619102.0084
        43.0004         28.0004
   -285802.35246   -192738.68044  23290285.5784                   23290283.7854
        40.7504         26.7504
 19  3  5 19  8 25.0000000  0  6G07G09G16G23G26G27
   -279896.68747   -169777.26645  21357294.9694                   21357289.8754
        47.0004         30.7504
   -183235.50047    -99935.18446  20106826.0004                   20106823.3984
        47.0004         36.7504
    -56821.64547    -34616.96545  21374188.2274                   21374183.3714
        46.7504         34.0004
    -58690.64147    -36463.97745  21142444.5234                   21142437.5824
        47.0004         32.0004
     32590.39547     18714.28944  23619565.5474                   23619564.6954
        43.0004         28.5004
   -312434.44146   -213490.94144  23285218.2974                   23285216.2074
        41.2504         26.5004
 19  3  5 19  8 30.0000000  0  6G07G09G16G23G26G27
   -303325.69147   -188033.62545  21352836.2504                   21352831.3484
        47.0004         31.0004
   -196943.67247   -110616.87946  20104217.6174                   20104214.6564
        47.0004         36.7504
    -60880.21947    -37779.48445  21373416.4454                   21373410.9144
        46.7504         33.5004
    -63078.67647    -39883.23045  21141609.5314                   21141602.7734
        47.0004         31.7504
     35062.55547     20640.64144  23620036.0084                   23620034.8014
        42.7504         27.7504
   -339021.73446   -234208.30944  23280158.7974                   23280157.1764
        41.2504         27.2504
 19  3  5 19  8 35.0000000  0  6G07G09G16G23G26G27
   -326711.17247   -206256.09445  21348386.5084                   21348381.4224
        47.7504         31.0004
   -210601.60947   -121259.43046  20101618.4064                   20101615.7854
        46.5004         36.2504
    -64887.87147    -40902.34045  21372653.7344                   21372648.1414
        46.7504         34.2504
    -67418.98447    -43265.29345  21140783.7424                   21140777.1884
        46.7504         32.0004
     37577.15647     22600.06644  23620515.2114                   23620513.5124
        43.0004         28.0004
   -365561.73846   -254888.83644  23275108.2584                   23275106.4304
        41.5004         26.7504
 19  3  5 19  8 40.0000000  0  6G07G09G16G23G26G27
   -350051.44547   -224443.30545  21343944.7504                   21343940.0904
        47.0004         30.7504
   -224207.60247   -131861.50046  20099029.5474                   20099026.4454
        47.0004         36.7504
    -68842.93447    -43984.20345  21371901.0704                   21371896.0084
        46.7504         34.0004
    -71709.92247    -46608.88345  21139967.0004                   21139959.8754
        46.7504         31.7504
     40135.91847     24593.89844  23621001.8914                   23621000.3594
        43.0004         27.5004
   -392052.69147   -275531.14544  23270067.1024                   23270065.7504
        42.0004         27.0004
 19  3  5 19  8 45.0000000  0  6G07G09G16G23G26G27
   -373345.30546   -242594.32443  21339512.2974                   21339507.6294
        37.5004         22.5004
   -237760.52347   -142422.21945  20096450.4774                   20096447.8054
        46.2504         35.0004
    -72744.24247    -47024.18445  21371158.6804                   21371153.2814
        46.7504         34.0004
    -75950.28947    -49913.07445  21139159.5164                   21139153.1414
        46.2504         31.5004
     42739.90647     26622.96544  23621496.8914                   23621495.9614
        43.0004         27.2504
   -418493.50047   -296134.38744  23265035.6094                   23265034.0084
        42.5004         28.0004
 19  3  5 19  8 50.0000000  0  6G07G09G16G23G26G27
   -396592.14546   -260708.77743  21335088.6564                   21335083.5634
        37.7504         20.5004
   -251259.60947   -152940.98445  20093881.4844                   20093878.9804
        45.5004         33.7504
    -76591.06247    -50021.71545  21370426.7034                   21370421.5084
        47.0004         34.0004
    -80139.43447    -53177.34845  21138362.4534                   21138356.0164
        46.5004         32.0004
     45389.93847     28687.93044  23622001.1024                   23622000.4804
        43.2504         27.5004
   -444883.41047   -316697.96144  23260013.6254                   23260012.0314
        42.7504         29.0004
 19  3  5 19  8 55.0000000  0  6G07G09G16G23G26G27
   -419791.19946   -278785.93043  21330673.4534                   21330669.1844
        38.0004         18.5004
   -264704.24247   -163417.33245  20091323.3674                   20091320.4384
        45.5004         33.2504
    -80382.84847    -52976.35245  21369704.9384                   21369699.8554
        46.7504         33.7504
    -84276.69147    -56401.20345  21137575.1334                   21137568.6884
        46.5004         32.0004
     48086.53947     30789.16844  23622513.7664                   23622513.6254
        43.0004         27.5004
   -471221.75847   -337221.34844  23255001.9924                   23255000.3134
        42.2504         29.2504
 19  3  5 19  9  0.0000000  0  6G07G09G16G23G26G27
   -442941.89546   -296825.43742  21326268.4534                   21326263.4924
        38.0004         17.2504
   -278093.83247   -173850.78145  20088775.4534                   20088772.3874
        45.7504         33.7504
    -84119.05147    -55887.68045  21368993.9534                   21368988.9694
        46.7504         33.7504
    -88361.49647    -59584.16445  21136797.4924                   21136791.4454
        46.0004         32.0004
     50830.32847     32927.18044  23623036.3754                   23623035.6024
        43.0004         28.0004
   -497507.97746   -357704.11344  23250000.0394                   23249998.0274
        41.5004         28.2504
 19  3  5 19  9  5.0000000  0  6G07G09G16G23G26G27
   -466043.62547   -314826.82443  21321872.0474                   21321867.2504
        43.5004         21.7504
   -291427.72747   -184240.84046  20086238.0474                   20086235.1724
        47.7504         37.5004
    -87798.96547    -58755.14545  21368293.6954                   21368288.3524
        46.5004         34.0004
    -92393.22347    -62725.75845  21136030.8444                   21136024.0394
        46.7504         31.7504
     53621.94147     35102.46944  23623568.0394                   23623566.7234
        42.5004         27.0004
   -523741.38346   -378145.72744  23245008.1094                   23245006.2504
        41.2504         29.2504
 19  3  5 19  9 10.0000000  0  6G07G09G16G23G26G27
   -489095.51646   -332789.32843  21317485.0474                   21317481.0124
        41.5004         23.7504
   -304704.94547   -194586.73446  20083711.4304                   20083708.7154
        47.7504         38.0004
    -91421.62147    -61577.98845  21367604.5784                   21367599.4384
        46.5004         34.0004
    -96370.80947    -65825.16845  21135273.8054                   21135267.9494
        46.5004         31.7504
     56462.34047     37315.74644  23624108.5704                   23624107.6024
        42.5004         28.2504
   -549920.96946   -398545.38344  23240025.8754                   23240024.4104
        41.7504         29.0004
 19  3  5 19  9 15.0000000  0  6G07G09G16G23G26G27
   -512097.93747   -350713.27744  21313108.0474                   21313103.7624
        43.5004         26.7504
   -317925.95747   -204888.81246  20081195.5474                   20081192.6374
        47.5004         37.7504
    -94987.51647    -64356.60545  21366925.8984                   21366920.6214
        46.5004         33.0004
   -100294.77747    -68882.83245  21134527.5784                   21134521.1054
        46.5004         31.5004
     59351.05547     39566.70344  23624658.2584                   23624657.0164
        43.0004         28.5004
   -576047.21947   -418903.47744  23235054.1024                   23235052.7934
        42.0004         28.5004
 19  3  5 19  9 20.0000000  0  6G07G09G16G23G26G27
   -535050.76246   -368598.58643  21308740.7274                   21308735.6374
        38.7504         22.5004
   -331090.82047   -215147.15646  20078690.5554                   20078687.5234
        47.0004         37.2504
    -98496.73847    -67091.07045  21366257.8754                   21366252.9024
        46.2504         33.7504
   -104165.18747    -71898.73845  21133790.8754                   21133784.0354
        46.0004         31.5004
     62288.04347     41855.23044  23625216.6484                   23625215.7114
        42.5004         28.0004
   -602120.14147   -439220.03544  23230092.5004                   23230090.7584
        42.0004         28.5004
 19  3  5 19  9 25.0000000  0  6G07G09G16G23G26G27
   -557954.29347   -386445.51643  21304381.9304                   21304377.3484
        46.2504         22.7504
   -344199.41047   -225361.63346  20076195.7814                   20076193.0744
        47.2504         37.0004
   -101949.18747    -69781.28545  21365601.3444                   21365595.9804
        46.2504         33.5004
   -107981.92247    -74872.82045  21133064.9844                   21133057.9774
        46.7504         32.0004
     65273.32847     44181.45744  23625785.1484                   23625783.9574
        42.5004         27.5004
   -628139.60547   -459494.94944  23225141.2734                   23225139.8714
        42.2504         28.2504
 19  3  5 19  9 30.0000000  0  6G07G09G16G23G26G27
   -580807.75047   -404253.40645  21300033.1564                   21300028.5864
        47.5004         31.0004
   -357251.31647   -235531.94546  20073712.0704                   20073709.2664
        46.7504         36.7504
   -105344.44147    -72426.94945  21364954.8054                   21364949.4734
        46.5004         33.7504
   -111744.58647    -77804.76245  21132348.3674                   21132342.0664
        46.5004         31.7504
     68307.35547     46545.59044  23626363.2194                   23626361.3054
        42.5004         26.5004
   -654105.25047   -479727.93044  23220200.1564                   23220198.6914
        42.0004         27.5004
 19  3  5 19  9 35.0000000  0  6G07G09G16G23G26G27
   -603611.74247   -422022.74645  21295693.7734                   21295688.5434
        47.2504         30.2504
   -370247.05947   -245658.50446  20071239.3594                   20071236.4804
        46.5004         36.7504
   -108683.01647    -75028.43445  21364319.8364                   21364314.2114
        46.7504         34.0004
   -115453.66447    -80694.94945  21131643.1094                   21131636.2584
        46.5004         31.7504
     71389.62547     48947.33644  23626948.5004                   23626948.1884
        42.5004         28.0004
   -680017.48447   -499919.30144  23215269.6724                   23215266.8794
        42.5004         28.0004
 19  3  5 19  9 40.0000000  0  6G07G09G16G23G26G27
   -626366.43447   -439753.68445  21291364.1024                   21291358.5394
        47.0004         30.2504
   -383186.78947   -255741.41846  20068776.8594                   20068774.1724
        46.7504         36.7504
   -111965.05947    -77585.84445  21363695.3594                   21363689.7774
        46.5004         33.5004
   -119109.36347    -83543.55945  21130947.1954                   21130940.2774
        46.7504         31.7504
     74519.91847     51386.56344  23627544.4144                   23627543.6804
        42.2504         27.7504
   -705876.52347   -520069.19944  23210348.5084                   23210346.8204
        42.2504         29.0004
 19  3  5 19  9 45.0000000  0  6G07G09G16G23G26G27
   -649071.49647   -457445.94545  21287042.9534                   21287037.9344
        47.0004         30.5004
   -396070.13347   -265780.37946  20066325.0944                   20066322.1564
        47.0004         36.7504
   -115190.30547    -80099.05145  21363081.3204                   21363076.1174
        45.5004         33.5004
   -122711.37147    -86350.32445  21130261.2894                   21130254.6914
        46.5004         31.7504
     77698.59447     53863.43844  23628149.6564                   23628148.7114
        42.0004         28.5004
   -731681.98446   -540177.33644  23205438.1254                   23205436.3284
        41.7504         28.5004
 19  3  5 19  9 50.0000000  0  6G07G09G16G23G26G27
   -671726.97347   -475099.56645  21282731.7504                   21282727.3244
        46.7504         30.2504
   -408897.18047   -275775.48446  20063884.0704                   20063881.3324
        46.7504         36.7504
   -118358.75447    -82567.96145  21362477.9774                   21362473.0634
        46.0004         33.7504
   -126259.70747    -89115.27745  21129586.3914                   21129579.7034
        46.2504         31.2504
     80925.57047     56377.98044  23628763.5164                   23628762.8794
        42.0004         26.7504
   -757433.94146   -560243.75844  23200537.2344                   23200536.2894
        41.7504         29.2504
 19  3  5 19  9 55.0000000  0  6G07G09G16G23G26G27
   -694334.37947   -492715.71145  21278429.9774                   21278425.0704
        46.7504         30.7504
   -421669.44147   -285727.89546  20061453.5164                   20061451.0824
        46.5004         36.5004
   -121471.96147    -84993.83245  21361885.9454                   21361880.7154
        46.2504         33.2504
   -129755.89147    -91839.57045  21128920.8674                   21128914.5164
        46.2504         31.0004
     84199.31347     58928.95744  23629386.3364                   23629385.5864
        43.0004         27.5004
   -783133.80147   -580269.62144  23195647.2584                   23195645.4844
        42.5004         29.0004
 19  3  5 19 10  0.0000000  0  6G07G09G16G23G26G27
   -716893.30547   -510294.09844  21274137.0234                   21274132.1484
        46.7504         29.7504
   -434386.50447   -295637.30546  20059033.9384                   20059031.0634
        46.2504         36.2504
   -124529.52047    -87376.35245  21361303.6334                   21361298.7624
        46.2504         33.5004
   -133199.53547    -94522.93745  21128265.7664                   21128258.9964
        46.2504         30.7504
     87520.23847     61516.67644  23630018.5084                   23630017.8714
        42.5004         27.2504
   -808781.23847   -600254.65244  23190766.7894                   23190765.0124
        42.5004         29.0004
 19  3  5 19 10  5.0000000  0  6G07G09G16G23G26G27
   -739404.54747   -527835.33244  21269853.1724                   21269848.4264
        46.5004         29.5004
   -447049.19947   -305504.35246  20056624.3444                   20056621.7424
        46.5004         36.5004
   -127532.26647    -89716.17645  21360732.6724                   21360727.4384
        46.0004         33.2504
   -136591.43747    -97165.99245  21127619.9384                   21127613.6994
        46.0004         31.5004
     90887.49647     64140.49644  23630659.4774                   23630658.2664
        42.2504         27.2504
   -834377.06646   -620199.47344  23185895.8754                   23185893.9804
        41.7504         27.7504
 19  3  5 19 10 10.0000000  0  6G07G09G16G23G26G27
   -761868.85547   -545339.98845  21265578.7194                   21265573.4494
        47.0004         30.7504
   -459658.27347   -315329.58646  20054224.6884                   20054221.8364
        46.5004         36.5004
   -130480.97747    -92013.87145  21360171.4304                   21360166.5904
        46.0004         33.5004
   -139932.38747    -99769.32045  21126984.7424                   21126977.9614
        46.2504         31.0004
     94300.37547     66799.85244  23631308.7894                   23631307.6454
        42.7504         27.5004
   -859921.96546   -640104.57444  23181034.5704                   23181033.2274
        41.5004         27.7504
 19  3  5 19 10 15.0000000  0  6G07G09G16G23G26G27
   -784286.43047   -562808.22345  21261312.3524                   21261308.0554
        46.7504         31.0004
   -472213.85947   -325113.17246  20051835.5084                   20051832.9264
        46.5004         37.0004
   -133375.81247    -94269.59845  21359620.6094                   21359615.5204
        46.0004         33.5004
   -143222.52047   -102333.07445  21126358.5164                   21126351.8834
        46.2504         31.5004
     97758.60547     69494.57844  23631966.6254                   23631966.0204
        42.5004         27.0004
   -885416.12147   -659970.14844  23176183.3834                   23176182.0704
        42.2504         28.7504
 19  3  5 19 10 20.0000000  0  6G07G09G16G23G26G27
   -806657.48847   -580240.22745  21257055.5864                   21257050.6914
        46.5004         31.0004
   -484716.29347   -334855.32446  20049456.1484                   20049453.6764
        46.5004         36.7504
   -136217.09847    -96483.57845  21359080.0704                   21359075.1564
        46.0004         33.5004
   -146462.14547   -104857.45745  21125741.9224                   21125734.9734
        46.2504         31.2504
    101261.92647     72224.44144  23632633.6564                   23632632.7704
        42.5004         27.2504
   -910859.80546   -679796.39544  23171341.0944                   23171340.0824
        41.7504         28.5004
 19  3  5 19 10 25.0000000  0  6G07G09G16G23G26G27
   -828982.40247   -597636.25845  21252807.4774                   21252802.4964
        46.7504         31.0004
   -497165.84047   -344556.27746  20047087.0864                   20047084.3324
        46.5004         36.7504
   -139005.17647    -98656.10945  21358549.4064                   21358544.3754
        46.0004         33.5004
   -149651.58247   -107342.74245  21125134.9224                   21125128.2504
        46.2504         31.7504
    104810.04347     74989.20344  23633308.9614                   23633307.7114
        42.5004         28.0004
   -936253.32046   -699583.53944  23166509.3914                   23166507.8094
        41.7504         29.2504
 19  3  5 19 10 30.0000000  0  6G07G09G16G23G26G27
   -851261.20747   -614996.36345  21248567.5634                   21248562.6054
        46.5004         30.7504
   -509562.56647   -354216.06246  20044728.1644                   20044725.2974
        46.2504         36.5004
   -141740.03147   -100787.17645  21358028.7664                   21358023.9144
        46.0004         33.0004
   -152790.87947   -109788.94945  21124537.8284                   21124530.9734
        46.2504         31.2504
    108402.85947     77788.78544  23633992.8984                   23633991.7464
        42.7504         27.2504
   -961596.67647   -719331.60244  23161686.8914                   23161685.0704
        42.0004         28.7504
 19  3  5 19 10 35.0000000  0  6G07G09G16G23G26G27
   -873495.26647   -632321.60545  21244336.7734                   21244332.1294
        46.5004         30.5004
   -521907.80147   -363835.73046  20042378.7734                   20042376.3324
        46.0004         36.7504
   -144423.09447   -102877.87545  21357518.3754                   21357513.5944
        45.7504         33.5004
   -155881.41847   -112197.16045  21123949.0314                   21123942.6564
        45.7504         31.2504
    112039.01646     80622.12944  23634684.5084                   23634683.6484
        41.7504         27.2504
   -986891.23846   -739041.64844  23156872.7584                   23156871.5664
        41.2504         26.7504
 19  3  5 19 10 40.0000000  0  6G07G09G16G23G26G27
   -895684.47347   -649611.89845  21240114.3754                   21240109.2934
        46.5004         30.5004
   -534201.47747   -373415.21746  20040039.3524                   20040037.0664
        46.2504         36.5004
   -147054.26647   -104928.13345  21357017.8674                   21357012.4104
        45.7504         32.5004
   -158923.08247   -114567.29745  21123370.6174                   21123364.0554
        46.0004         31.0004
    115718.62547     83489.39544  23635384.3754                   23635383.6054
        42.5004         27.7504
  -1012136.91446   -758713.60944  23152069.1334                   23152067.2934
        41.0004         27.2504
 19  3  5 19 10 45.0000000  0  6G07G09G16G23G26G27
   -917829.16847   -666867.50045  21235899.9614                   21235895.5394
        46.5004         30.5004
   -546443.95747   -382954.81646  20037709.9224                   20037707.5554
        46.2504         36.5004
   -149633.89847   -106938.24645  21356526.7974                   21356521.8594
        45.7504         33.0004
   -161916.23847   -116899.63345  21122800.7664                   21122794.3244
        45.7504         31.0004
    119441.29747     86390.14544  23636093.4384                   23636092.4344
        42.2504         26.7504
  -1037333.97746   -778347.69144  23147274.3594                   23147272.7114
        41.5004         28.5004
 19  3  5 19 10 50.0000000  0  6G07G09G16G23G26G27
   -939929.55147   -684088.58245  21231694.3754                   21231689.6254
        46.2504         30.2504
   -558635.39147   -392454.63746  20035389.6254                   20035387.1954
        46.2504         36.5004
   -152162.21147   -108908.36345  21356045.8914                   21356040.4494
        45.7504         32.7504
   -164861.06647   -119194.30945  21122240.5634                   21122234.0594
        45.7504         31.5004
    123206.60947     89324.14844  23636809.6334                   23636808.7814
        42.2504         28.0004
  -1062482.62546   -797944.02744  23142489.0314                   23142487.0864
        41.5004         29.2504
 19  3  5 19 10 55.0000000  0  6G07G09G16G23G26G27
   -961986.42247   -701275.75845  21227497.2894                   21227492.6484
        46.5004         30.5004
   -570776.63747   -401915.34846  20033079.4534                   20033076.7814
        46.2504         36.5004
   -154640.08247   -110839.17645  21355574.0554                   21355569.2194
        45.7504         33.0004
   -167758.42647   -121451.99645  21121689.3204                   21121683.3094
        46.0004         31.0004
    127014.14847     92291.05944  23637534.2894                   23637533.0784
        42.5004         28.0004
  -1087583.72746   -817503.30944  23137712.0314                   23137710.2504
        41.7504         28.7504
 19  3  5 19 11  0.0000000  0  6G07G09G16G23G26G27
   -983999.95747   -718429.16045  21223308.2734                   21223303.3134
        46.5004         30.0004
   -582867.81247   -411337.04346  20030778.5474                   20030776.0434
        46.2504         36.0004
   -157067.60947   -112730.75445  21355112.2504                   21355106.9304
        45.7504         32.7504
   -170608.45347   -123672.80145  21121147.1724                   21121140.5554
        46.0004         31.0004
    130863.56347     95290.59844  23638267.3134                   23638265.5354
        42.2504         27.2504
  -1112637.39846   -837025.64544  23132944.4924                   23132942.6954
        41.2504         28.0004
 19  3  5 19 11  5.0000000  0  6G07G09G16G23G26G27
  -1005970.85547   -735549.33245  21219127.4144                   21219122.7304
        46.5004         30.7504
   -594909.65647   -420720.30946  20028487.0234                   20028484.5354
        46.2504         36.7504
   -159445.53147   -114583.68745  21354659.7194                   21354654.5124
        45.7504         32.7504
   -173411.90647   -125857.31245  21120613.4614                   21120607.0004
        46.0004         31.0004
    134754.12947     98322.19944  23639007.0004                   23639006.0824
        42.5004         27.0004
  -1137644.28546   -856511.55544  23128186.3054                   23128183.5984
        41.7504         26.5004
 19  3  5 19 11 10.0000000  0  6G07G09G16G23G26G27
  -1027899.37547   -752636.49245  21214954.2194                   21214949.7854
        46.7504         31.2504
   -606902.42247   -430065.32046  20026204.9144                   20026202.3054
        46.2504         36.7504
   -161774.12147   -116398.17245  21354216.6564                   21354211.7974
        45.5004         33.0004
   -176168.95747   -128005.66845  21120088.9774                   21120082.3954
        46.0004         31.0004
    138685.54347    101385.64144  23639754.7194                   23639754.0944
        42.5004         27.2504
  -1162604.68746   -875961.22344  23123436.1724                   23123434.4804
        41.5004         28.2504
 19  3  5 19 11 15.0000000  0  6G07G09G16G23G26G27
  -1049785.90647   -769690.92645  21210789.5784                   21210784.6214
        46.5004         30.5004
   -618846.44147   -439372.34446  20023932.2734                   20023929.8134
        46.2504         36.5004
   -164053.76247   -118174.51645  21353782.9384                   21353777.9264
        45.7504         32.5004
   -178880.07447   -130118.23045  21119573.3984                   21119566.0274
        46.0004         30.7504
    142657.44947    104480.62144  23640510.9844                   23640510.3364
        42.2504         26.7504
  -1187518.97746   -895374.93444  23118695.1724                   23118693.3094
        41.5004         28.2504
 19  3  5 19 11 20.0000000  0  6G07G09G16G23G26G27
  -1071630.72747   -786712.85945  21206632.7114                   21206627.8984
        46.5004         30.7504
   -630742.10947   -448641.70746  20021668.6644                   20021665.8914
        46.2504         36.2504
   -166284.78547   -119912.98845  21353358.1564                   21353353.3364
        45.7504         32.7504
   -181545.51647   -132195.20345  21119066.0394                   21119059.3674
        46.0004         31.0004
    146669.48047    107606.87144  23641274.1414                   23641273.7464
        42.2504         27.2504
  -1212387.39546   -914752.89844  23113962.8594                   23113960.7734
        41.5004         28.2504
 19  3  5 19 11 25.0000000  0  6G07G09G16G23G26G27
  -1093434.15647   -803702.55145  21202483.9534                   21202479.0474
        46.7504         30.5004
   -642589.63747   -457873.54746  20019413.8524                   20019411.0904
        46.2504         36.2504
   -168467.46947   -121613.78545  21352942.9064                   21352938.1724
        45.7504         32.7504
   -184165.60547   -134236.82845  21118567.3834                   21118560.7034
        45.7504         31.0004
    150721.35547    110764.16844  23642045.6174                   23642044.5744
        42.5004         26.5004
  -1237210.27046   -934095.40244  23109239.0634                   23109236.8984
        41.5004         27.7504
 19  3  5 19 11 30.0000000  0  6G07G09G16G23G26G27
  -1115196.70747   -820660.37945  21198342.7034                   21198337.9104
        46.7504         30.7504
   -654389.57847   -467068.30946  20017168.6414                   20017166.3754
        46.2504         36.5004
   -170602.36747   -123277.34045  21352536.4304                   21352531.5704
        45.7504         33.0004
   -186740.85947   -136243.53545  21118077.2344                   21118071.0704
        46.0004         31.0004
    154812.54747    113952.10544  23642824.1564                   23642823.1724
        42.5004         26.7504
  -1261988.09846   -953402.80544  23104524.0784                   23104522.1174
        41.5004         28.5004
 19  3  5 19 11 35.0000000  0  6G07G09G16G23G26G27
  -1136919.09847   -837586.92645  21194208.6804                   21194203.8794
        46.5004         30.7504
   -666142.68747   -476226.57446  20014932.6174                   20014929.3054
        46.2504         36.5004
   -172690.24247   -124904.26645  21352139.2814                   21352134.2734
        45.7504         33.0004
   -189272.05147   -138215.89145  21117595.3284                   21117588.6564
        45.7504         31.2504
    158942.32047    117170.11344  23643609.7504                   23643608.9844
        42.5004         26.2504
  -1286721.59446   -972675.66044  23099817.8204                   23099815.8134
        41.5004         27.7504
 19  3  5 19 11 40.0000000  0  6G07G09G16G23G26G27
  -1158601.26647   -854482.11745  21190083.0474                   21190078.1604
        46.5004         31.0004
   -677848.86347   -485348.26646  20012704.3054                   20012701.7544
        46.0004         36.0004
   -174731.05547   -126494.51245  21351751.3364                   21351745.8954
        45.5004         32.5004
   -191759.07847   -140153.83645  21117121.4694                   21117115.6024
        45.5004         31.0004
    163110.68847    120418.18044  23644403.0864                   23644402.2934
        42.0004         26.2504
  -1311410.69146   -991913.91444  23095119.3674                   23095117.1604
        41.5004         28.0004
 19  3  5 19 11 45.0000000  0  6G07G09G16G23G26G27
  -1180244.10547   -871346.66845  21185964.3674                   21185959.3054
        46.7504         31.0004
   -689509.06247   -494434.14546  20010485.4844                   20010483.1484
        46.0004         36.2504
   -176725.73047   -128048.80545  21351371.3984                   21351366.1804
        45.7504         33.2504
   -194202.91847   -142058.12945  21116656.9144                   21116651.0124
        45.7504         31.0004
    167316.73447    123695.60944  23645203.5784                   23645202.7584
        42.2504         27.0004
  -1336056.31646  -1011118.29344  23090429.4774                   23090427.1374
        41.5004         28.2504
 19  3  5 19 11 50.0000000  0  6G07G09G16G23G26G27
  -1201847.94947   -888180.82445  21181853.7274                   21181848.5474
        46.5004         30.7504
   -701123.53547   -503484.37946  20008275.0084                   20008272.7114
        46.2504         36.5004
   -178674.60947   -129567.41445  21351000.5784                   21350995.4264
        45.5004         32.5004
   -196603.82047   -143928.96545  21116200.0944                   21116193.7854
        45.5004         30.2504
    171560.14847    127002.16444  23646010.8834                   23646010.0234
        42.2504         26.7504
  -1360658.72346  -1030288.98044  23085747.6564                   23085746.0784
        41.5004         28.5004
 19  3  5 19 11 55.0000000  0  6G07G09G16G23G26G27
  -1223413.08247   -904984.82845  21177749.3914                   21177744.3984
        46.2504         30.7504
   -712692.62947   -512499.25846  20006073.7424                   20006070.8874
        45.7504         36.2504
   -180577.96147   -131050.55145  21350638.5554                   21350633.5234
        45.7504         32.7504
   -198962.12947   -145766.61745  21115750.8594                   21115744.7934
        45.5004         30.7504
    175840.62547    130337.59844  23646824.7504                   23646824.7074
        42.0004         26.7504
  -1385218.20346  -1049426.24244  23081073.7584                   23081072.3914
        41.7504         27.5004
 19  3  5 19 12  0.0000000  0  6G07G09G16G23G26G27
  -1244940.05147   -921759.09045  21173652.7974                   21173648.6804
        46.5004         30.5004
   -724216.85547   -521479.18446  20003881.1884                   20003877.9264
        46.0004         36.5004
   -182436.31647   -132498.61745  21350284.6954                   21350279.6724
        45.5004         32.5004
   -201278.34447   -147571.46145  21115310.5234                   21115304.1884
        45.5004         31.2504
    180157.60947    133701.47344  23647646.6564                   23647646.3754
        42.2504         27.0004
  -1409735.31246  -1068530.49244  23076408.4774                   23076406.2114
        41.5004         27.7504
 19  3  5 19 12  5.0000000  0  6G07G09G16G23G26G27
  -1266428.90247   -938503.65645  21169563.7974                   21169558.9734
        46.2504         30.5004
   -735696.28147   -530424.19146  20001696.4304                   20001693.8244
        46.0004         36.5004
   -184249.80947   -133911.73045  21349939.5784                   21349934.4774
        45.7504         32.5004
   -203552.52747   -149343.56245  21114877.8444                   21114871.5354
        45.5004         31.0004
    184511.04347    137093.75444  23648475.1414                   23648474.4104
        42.2504         26.5004
  -1434210.03946  -1087601.69544  23071750.9064                   23071749.3794
        41.2504         27.5004
 19  3  5 19 12 10.0000000  0  6G07G09G16G23G26G27
  -1287879.90247   -955218.71545  21165481.4614                   21165477.2384
        46.5004         30.5004
   -747131.13347   -539334.46146  19999520.2194                   19999518.1334
        46.0004         36.2504
   -186018.62547   -135290.03545  21349603.0084                   21349597.7894
        45.5004         32.7504
   -205785.01247   -151083.16445  21114453.3284                   21114446.9614
        45.7504         31.2504
    188900.61347    140514.19544  23649310.7504                   23649309.9774
        42.5004         27.0004
  -1458642.67646  -1106640.08644  23067101.4454                   23067100.0124
        41.5004         28.2504
 19  3  5 19 12 15.0000000  0  6G07G09G16G23G26G27
  -1309293.88747   -971904.93745  21161406.5164                   21161402.0824
        46.5004         30.5004
   -758522.25447   -548210.66446  19997352.8524                   19997350.5204
        46.0004         36.0004
   -187743.61347   -136634.18745  21349275.0554                   21349269.6684
        45.5004         32.5004
   -207976.57447   -152790.87545  21114036.0784                   21114029.8674
        45.7504         31.0004
    193325.55147    143962.19144  23650153.2814                   23650152.0594
        42.7504         27.0004
  -1483034.00847  -1125646.34044  23062459.8674                   23062458.5434
        42.0004         28.5004
 19  3  5 19 12 20.0000000  0  6G07G09G16G23G26G27
  -1330670.55547   -988562.07045  21157339.1484                   21157334.7894
        46.5004         31.0004
   -769869.35547   -557052.56646  19995193.3674                   19995191.3054
        46.0004         36.5004
   -189424.58247   -137944.03945  21348954.6334                   21348949.9224
        45.7504         32.5004
   -210126.95347   -154466.50445  21113626.8594                   21113620.7424
        45.7504         31.0004
    197786.08247    147437.91844  23651001.8674                   23651000.8484
        42.2504         27.0004
  -1507383.74246  -1144620.16044  23057826.3834                   23057824.7114
        41.0004         27.0004
 19  3  5 19 12 25.0000000  0  6G07G09G16G23G26G27
  -1352010.80147  -1005190.83645  21153278.2504                   21153273.2194
        46.7504         31.0004
   -781173.35947   -565860.87946  19993042.4454                   19993039.9924
        46.2504         36.5004
   -191062.41047   -139220.27045  21348643.3754                   21348637.9734
        45.7504         32.7504
   -212237.01647   -156110.69945  21113225.2424                   21113219.1884
        45.7504         31.0004
    202281.29747    150940.68844  23651856.4614                   23651855.8954
        42.5004         27.2504
  -1531692.78946  -1163562.24644  23053200.8444                   23053199.0434
        41.2504         28.5004
 19  3  5 19 12 30.0000000  0  6G07G09G16G23G26G27
  -1373314.82047  -1021791.37145  21149224.1254                   21149219.7274
        46.5004         30.5004
   -792434.42647   -574635.74246  19990899.1094                   19990897.1914
        46.0004         36.5004
   -192657.28947   -140463.04345  21348339.8674                   21348334.9384
        45.7504         33.0004
   -214306.99247   -157723.68445  21112831.3284                   21112825.2234
        45.7504         31.2504
    206810.98047    154470.30544  23652719.1414                   23652718.1454
        42.0004         26.5004
  -1555961.30946  -1182472.77744  23048582.8054                   23048580.8914
        41.7504         28.5004
 19  3  5 19 12 35.0000000  0  6G07G09G16G23G26G27
  -1394582.96147  -1038363.96145  21145176.6254                   21145172.1294
        46.0004         30.5004
   -803652.75447   -583377.28946  19988764.4924                   19988762.0664
        45.5004         36.0004
   -194209.50447   -141672.56245  21348044.1564                   21348039.3404
        46.0004         33.5004
   -216336.71547   -159305.28945  21112445.0084                   21112438.7814
        45.5004         31.2504
    211374.69146    158026.44544  23653586.6724                   23653586.5554
        41.7504         26.7504
  -1580189.13747  -1201351.62544  23043971.8204                   23043970.2814
        42.5004         29.5004
 19  3  5 19 12 40.0000000  0  6G07G09G16G23G26G27
  -1415815.88347  -1054909.08645  21141136.2734                   21141131.7034
        46.0004         30.2504
   -814829.38747   -592086.36346  19986637.5864                   19986635.2384
        45.5004         36.0004
   -195719.89847   -142849.49245  21347756.6724                   21347751.9024
        46.0004         33.7504
   -218327.94547   -160856.90245  21112066.3204                   21112059.8754
        45.7504         31.5004
    215971.92247    161608.69144  23654462.2424                   23654461.7934
        42.0004         26.5004
  -1604377.98046  -1220200.05144  23039368.7664                   23039367.5634
        41.5004         29.0004
 19  3  5 19 12 45.0000000  0  6G07G09G16G23G26G27
  -1437013.84847  -1071426.98445  21137102.6094                   21137097.6684
        46.2504         30.5004
   -825964.32447   -600762.93046  19984518.6804                   19984516.1024
        45.5004         36.5004
   -197188.64147   -143993.97745  21347477.7034                   21347472.5944
        46.0004         34.0004
   -220280.36747   -162378.27345  21111694.7504                   21111688.4844
        45.7504         31.5004
    220602.34447    165216.80544  23655343.4224                   23655342.6214
        42.2504         26.7504
  -1628527.47347  -1239017.83644  23034773.4924                   23034771.7664
        42.5004         29.2504
 19  3  5 19 12 50.0000000  0  6G07G09G16G23G26G27
  -1458176.46547  -1087917.33245  21133075.2894                   21133070.7384
        46.2504         30.7504
   -837057.27347   -609406.79346  19982407.8914                   19982405.5514
        45.7504         36.5004
   -198615.40647   -145105.73445  21347205.9694                   21347200.8204
        46.0004         33.7504
   -222193.66047   -163869.15245  21111330.6804                   21111324.1334
        45.5004         31.2504
    225266.28947    168851.04344  23656230.6414                   23656230.1764
        42.2504         26.7504
  -1652637.34447  -1257804.75844  23030185.4694                   23030183.8164
        42.5004         29.2504
 19  3  5 19 12 55.0000000  0  6G07G09G16G23G26G27
  -1479303.79747  -1104380.19545  21129054.6804                   21129050.2774
        46.2504         30.5004
   -848108.24647   -618017.93746  19980304.7974                   19980302.3204
        45.5004         36.0004
   -200000.29347   -146184.88345  21346942.3594                   21346937.6564
        46.0004         34.0004
   -224067.84447   -165329.55545  21110973.8364                   21110967.7544
        45.7504         31.2504
    229963.68847    172511.35544  23657124.2504                   23657124.2544
        42.5004         26.5004
  -1676707.59847  -1276560.78144  23025605.0394                   23025603.3714
        42.2504         29.5004
 19  3  5 19 13  0.0000000  0  6G07G09G16G23G26G27
  -1500396.21947  -1120815.84445  21125041.3284                   21125036.4344
        46.2504         30.7504
   -859117.64547   -626596.69145  19978209.8444                   19978207.1174
        45.5004         35.7504
   -201343.61747   -147231.62545  21346686.9844                   21346681.7624
        45.7504         33.5004
   -225903.27747   -166759.77045  21110624.9384                   21110618.3164
        45.5004         31.2504
    234694.15647    176197.43844  23658024.2034                   23658024.6484
        42.0004         27.2504
  -1700738.54747  -1295286.18444  23021031.9384                   23021030.5044
        42.2504         29.2504
 19  3  5 19 13  5.0000000  0  6G07G09G16G23G26G27
  -1521454.14847  -1137224.59045  21121033.9534                   21121029.3134
        46.2504         30.7504
   -870085.80547   -635143.31245  19976122.6564                   19976120.1724
        45.5004         35.7504
   -202645.81247   -148246.33245  21346439.3524                   21346434.0944
        46.0004         34.0004
   -227700.42247   -168160.14545  21110282.7194                   21110276.4964
        45.5004         31.2504
    239457.30147    179908.97344  23658930.9534                   23658930.6374
        42.2504         26.7504
  -1724730.65247  -1313981.33244  23016466.4694                   23016464.7584
        42.2504         29.5004
 19  3  5 19 13 10.0000000  0  6G07G09G16G23G26G27
  -1542477.80547  -1153606.66845  21117033.5394                   21117028.6644
        46.5004         30.5004
   -881013.03947   -643658.03545  19974043.4534                   19974040.8754
        45.5004         35.7504
   -203907.12547   -149229.17645  21346198.9924                   21346194.2974
        45.7504         33.2504
   -229459.45747   -169530.82445  21109947.9144                   21109941.6094
        45.5004         31.0004
    244252.84046    183645.75444  23659843.3984                   23659843.4884
        41.7504         26.5004
  -1748684.07847  -1332646.33644  23011908.3364                   23011906.6764
        42.5004         29.2504
 19  3  5 19 13 15.0000000  0  6G07G09G16G23G26G27
  -1563467.52347  -1169962.29345  21113039.3204                   21113034.4064
        46.2504         30.0004
   -891899.67647   -652141.14146  19971971.6564                   19971969.0274
        45.5004         36.0004
   -205127.93447   -150180.45745  21345966.3444                   21345961.6214
        45.7504         33.7504
   -231180.78547   -170872.12145  21109620.0234                   21109614.2934
        45.2504         31.7504
    249080.42647    187407.49644  23660762.1414                   23660761.9064
        42.5004         26.7504
  -1772599.19547  -1351281.50445  23007357.5234                   23007355.8984
        42.2504         30.0004
 19  3  5 19 13 20.0000000  0  6G07G09G16G23G26G27
  -1584423.70347  -1186291.78545  21109051.3524                   21109046.3634
        46.5004         30.7504
   -902746.05947   -660592.86346  19969907.7344                   19969905.1564
        45.5004         36.0004
   -206308.65647   -151100.50445  21345741.9304                   21345737.0864
        45.5004         33.2504
   -232864.79747   -172184.34845  21109299.9694                   21109293.7734
        45.5004         31.0004
    253939.65247    191193.90644  23661687.1884                   23661686.4184
        42.2504         26.2504
  -1796476.39547  -1369887.09044  23002813.7584                   23002812.0554
        42.5004         29.2504
 19  3  5 19 13 25.0000000  0  6G07G09G16G23G26G27
  -1605346.85947  -1202595.53945  21105069.8984                   21105065.1334
        46.5004         30.5004
   -913552.73447   -669013.65246  19967851.2974                   19967848.7114
        45.5004         36.0004
   -207449.76247   -151989.68045  21345524.9064                   21345519.5984
        45.7504         33.7504
   -234511.94947   -173467.84045  21108985.9614                   21108980.0234
        45.2504         31.0004
    258830.01247    195004.57444  23662617.8914                   23662616.8364
        42.5004         26.5004
  -1820316.13347  -1388463.51244  22998277.5474                   22998275.5554
        42.5004         29.5004
 19  3  5 19 13 30.0000000  0  6G07G09G16G23G26G27
  -1626237.19947  -1218873.73045  21101094.6724                   21101089.6024
        46.5004         30.7504
   -924319.94147   -677403.68446  19965802.5084                   19965800.0314
        45.5004         36.0004
   -208551.55147   -152848.21545  21345315.2974                   21345310.2464
        46.0004         33.5004
   -236122.55947   -174722.87545  21108680.4694                   21108673.5554
        45.5004         30.7504
    263751.25447    198839.30544  23663553.8674                   23663553.6134
        42.0004         27.5004
  -1844118.63347  -1407010.91044  22993748.1484                   22993746.2034
        42.5004         29.0004
 19  3  5 19 13 35.0000000  0  6G07G09G16G23G26G27
  -1647094.80547  -1235126.41445  21097125.5474                   21097120.6914
        46.5004         30.5004
   -935047.69547   -685762.97346  19963760.5084                   19963758.4574
        45.7504         36.0004
   -209614.06247   -153676.14845  21345112.6954                   21345107.8834
        46.0004         34.0004
   -237696.66447   -175949.44945  21108380.3674                   21108373.8054
        45.2504         30.7504
    268703.33647    202698.06644  23664496.9614                   23664496.1374
        42.2504         26.7504
  -1867883.92647  -1425529.32444  22989225.4144                   22989223.7464
        42.5004         29.0004
 19  3  5 19 13 40.0000000  0  6G07G09G16G23G26G27
  -1667920.29347  -1251354.06645  21093162.4844                   21093157.5704
        46.2504         30.5004
   -945736.67647   -694092.05146  19961726.9694                   19961724.3444
        45.5004         36.0004
   -210637.97347   -154474.00845  21344917.7974                   21344912.8874
        45.7504         33.5004
   -239234.90647   -177148.07845  21108087.8284                   21108081.5084
        45.5004         31.2504
    273685.60247    206580.32844  23665444.5704                   23665444.1134
        42.2504         27.2504
  -1891612.70747  -1444019.27744  22984710.1094                   22984707.6214
        42.5004         29.5004
 19  3  5 19 13 45.0000000  0  6G07G09G16G23G26G27
  -1688713.98047  -1267556.93445  21089205.4384                   21089200.9924
        46.5004         30.5004
   -956387.21147   -702391.16445  19959699.8674                   19959697.6054
        45.5004         35.7504
   -211623.61347   -155242.04345  21344730.8754                   21344725.7114
        45.7504         33.5004
   -240737.60947   -178319.03145  21107801.3284                   21107795.6484
        45.5004         31.2504
    278697.59446    210485.78144  23666398.3444                   23666397.6954
        41.5004         27.0004
  -1915305.27747  -1462481.02044  22980201.5474                   22980199.6174
        42.2504         29.5004
 19  3  5 19 13 50.0000000  0  6G07G09G16G23G26G27
  -1709476.00047  -1283735.13745  21085254.4454                   21085250.1054
        46.5004         30.5004
   -966999.41047   -710660.42246  19957680.3984                   19957678.1604
        45.7504         36.5004
   -212571.10547   -155980.35545  21344549.9774                   21344545.4104
        45.7504         33.5004
   -242204.91047   -179462.37545  21107521.8204                   21107516.2734
        45.5004         31.0004
    283739.31347    214414.38744  23667357.9304                   23667357.1054
        42.0004         26.2504
  -1938961.68447  -1480914.57444  22975699.6024                   22975697.7664
        42.2504         29.0004
 19  3  5 19 13 55.0000000  0  6G07G09G16G23G26G27
  -1730206.61747  -1299888.86745  21081309.7814                   21081305.1804
        46.5004         30.5004
   -977573.51647   -718899.98446  19955668.2734                   19955665.6094
        45.7504         36.0004
   -213480.71547   -156689.14545  21344377.0474                   21344372.1174
        45.7504         34.0004
   -243637.04347   -180578.33245  21107250.2974                   21107243.9804
        45.7504         31.0004
    288810.44546    218365.91844  23668322.6884                   23668322.1414
        41.5004         26.5004
  -1962582.20347  -1499320.18044  22971204.8284                   22971203.1884
        42.0004         29.7504
 19  3  5 19 14  0.0000000  0  6G07G09G16G23G26G27
  -1750906.31247  -1316018.49645  21077370.7664                   21077365.9184
        46.2504         30.2504
   -988110.05547   -727110.27045  19953663.3834                   19953661.0904
        45.7504         35.7504
   -214352.96547   -157368.82045  21344211.4774                   21344205.8674
        45.7504         33.5004
   -245034.55147   -181667.30145  21106984.4454                   21106977.8914
        45.7504         31.0004
    293910.46947    222339.94944  23669293.3754                   23669292.2114
        42.0004         26.5004
  -1986167.38747  -1517698.23044  22966716.5554                   22966714.6524
        42.2504         29.2504
 19  3  5 19 14  5.0000000  0  6G07G09G16G23G26G27
  -1771575.56647  -1332124.40645  21073437.6804                   21073432.8914
        46.2504         31.0004
   -998609.47347   -735291.63746  19951665.6094                   19951662.8834
        45.7504         36.2504
   -215188.30947   -158019.73845  21344052.0234                   21344047.6484
        45.7504         33.5004
   -246397.89147   -182729.64545  21106724.7974                   21106718.6374
        45.7504         31.7504
    299038.93447    226336.15644  23670269.5784                   23670268.4454
        42.0004         27.5004
  -2009717.56247  -1536049.02344  22962235.4454                   22962233.2664
        42.5004         29.2504
 19  3  5 19 14 10.0000000  0  6G07G09G16G23G26G27
  -1792214.29747  -1348206.53545  21069509.7664                   21069505.3674
        46.2504         30.5004
  -1009071.71547   -743444.03946  19949674.6484                   19949672.1454
        45.7504         36.0004
   -215986.75447   -158641.91045  21343900.2664                   21343895.3014
        45.7504         33.2504
   -247726.98847   -183765.31245  21106471.9924                   21106465.3594
        45.5004         30.5004
    304195.86347    230354.53544  23671250.7114                   23671249.9414
        42.0004         26.5004
  -2033232.72747  -1554372.51644  22957760.7194                   22957758.4384
        42.0004         29.5004
 19  3  5 19 14 15.0000000  0  6G07G09G16G23G26G27
   -237398.34447   -136661.64145  21365381.6724                   21365376.8484
        46.2504         30.5004
    555925.38747    476034.22346  20247483.6884                   20247481.2704
        45.7504         36.0004
   1358671.91447   1068364.84445  21643547.9384                   21643543.0634
        45.7504         34.0004
   1326398.42247   1042825.91445  21406017.5864                   21406011.0204
        45.5004         31.5004
   1884800.25846   1461994.32444  23972029.5634                   23972029.0664
        41.2504         27.0004
   -481288.13347   -345065.03944  23253085.5944                   23253083.9104
        42.2504         29.2504
 19  3  5 19 14 20.0000000  0  6G07G09G16G23G26G27
   -257976.54347   -152696.59845  21361465.8284                   21361460.9184
        46.2504         30.2504
    545537.02347    467939.39845  20245506.5864                   20245504.2934
        45.7504         35.7504
   1357946.88747   1067799.87945  21643410.0164                   21643404.6564
        45.7504         33.7504
   1325137.23447   1041843.17245  21405777.7344                   21405771.3984
        45.7504         31.0004
   1890013.60546   1466056.66444  23973021.7664                   23973020.9184
        41.2504         26.7504
   -504733.77747   -363334.36744  23248624.1024                   23248622.3754
        42.5004         28.5004
 19  3  5 19 14 25.0000000  0  6G07G09G16G23G26G27
   -278524.98447   -168708.36745  21357555.5394                   21357550.8984
        46.2504         30.7504
    535185.07047    459872.93846  20243536.9224                   20243534.4344
        45.7504         36.0004
   1357258.02047   1067263.09845  21643278.6334                   21643273.7034
        45.7504         33.5004
   1323909.52747   1040886.51245  21405544.2664                   21405537.9494
        45.2504         31.5004
   1895254.61346   1470140.56344  23974019.2734                   23974018.1484
        41.7504         26.5004
   -528145.07047   -381576.93444  23244169.0234                   23244167.4964
        43.0004         29.5004
 19  3  5 19 14 30.0000000  0  6G07G09G16G23G26G27
   -299043.67247   -184696.96145  21353650.8364                   21353646.0274
        46.2504         30.5004
    524869.49647    451834.82845  20241573.6884                   20241571.4384
        45.7504         35.7504
   1356605.18847   1066754.39845  21643154.6414                   21643149.5984
        45.7504         33.7504
   1322715.22347   1039955.88745  21405316.3754                   21405310.5824
        45.5004         31.0004
   1900523.24246   1474245.98844  23975021.4454                   23975021.2274
        41.2504         27.2504
   -551522.12947   -399792.81644  23239720.5004                   23239718.9064
        42.7504         28.5004
 19  3  5 19 14 35.0000000  0  6G07G09G16G23G26G27
   -319532.78547   -200662.50045  21349751.9614                   21349747.1884
        46.5004         30.5004
    514590.24247    443825.01646  20239617.7894                   20239615.3914
        45.7504         36.2504
   1355988.32847   1066273.72745  21643037.1414                   21643032.0234
        45.7504         33.5004
   1321554.25047   1039051.21545  21405096.1804                   21405089.7034
        45.5004         31.2504
   1905819.42646   1478372.87544  23976028.9924                   23976028.8754
        41.2504         26.0004
   -574864.98447   -417982.05944  23235278.7194                   23235276.7154
        42.7504         29.2504
 19  3  5 19 14 40.0000000  0  6G07G09G16G23G26G27
