     2.11           OBSERVATION DATA    G (GPS)             RINEX VERSION / TYPE
teqc  2019Feb25     Martin Truffer      20190308 01:05:01UTCPGM / RUN BY / DATE
Linux 2.6.32-573.12.1.x86_64|x86_64|gcc|Linux 64|=+         COMMENT
BIT 2 OF LLI FLAGS DATA COLLECTED UNDER A/S CONDITION       COMMENT
51890643                                                    MARKER NAME
5189                                                        MARKER NUMBER
-Unknown-           -Unknown-                               OBSERVER / AGENCY
0220315189          TRIMBLE 5700        2.30                REC # / TYPE / VERS
-Unknown-           TRM41249.00     NONE                    ANT # / TYPE
 -1795451.0999 -3484563.4254  5017299.5661                  APPROX POSITION XYZ
        0.0530        0.0000        0.0000                  ANTENNA: DELTA H/E/N
     1     1                                                WAVELENGTH FACT L1/2
     7    L1    L2    C1    P1    P2    S1    S2            # / TYPES OF OBSERV
    18                                                      LEAP SECONDS
 SNR is mapped to RINEX snr flag value [0-9]                COMMENT
  L1 & L2: min(max(int(snr_dBHz/6), 0), 9)                  COMMENT
  2019     3     5    22     2   10.0000000     GPS         TIME OF FIRST OBS
                                                            END OF HEADER
 19  3  5 22  2 10.0000000  0  3G07G30G08
    -16582.96956    -10041.41853  21327276.8594                   21327271.0474
        41.2504         21.7504
    -96062.37557    -63524.97756  20071249.5554                   20071244.4024
        46.7504         36.0004
     -5065.18016                  22285964.352
        38.250
 19  3  5 22  2 15.0000000  0  3G07G30G08
   1556783.03557   1215957.75054  21626677.8204                   21626674.2304
        44.0004         27.7504
   1468106.74258   1155308.35956  20368899.2114                   20368897.9024
        49.5004         39.0004
   1568303.83217                  22585366.391
        44.000
 19  3  5 22  2 20.0000000  0  3G07G30G08
   1554750.80547   1214374.29743  21626292.0164                   21626288.6994
        43.0004         22.7504
   1456876.55948   1146557.51646  20366762.2114                   20366761.9024
        50.0004         38.7504
   1566276.28547   1226391.18054  22584980.7734                   22584979.7194
        42.2504         28.0004
 19  3  5 22  2 25.0000000  0  3G07G30G08
   1552744.22346   1212810.71943  21625909.3674                   21625906.7974
        41.7504         22.7504
   1445674.93048   1137828.97746  20364631.2344                   20364629.0824
        49.2504         38.5004
   1564278.12546   1224834.16444  22584600.6804                   22584600.1684
        41.2504         26.2504
 19  3  5 22  2 30.0000000  0  3G07G30G08
   1550767.25447   1211270.22343  21625533.5314                   21625530.2274
        42.5004         22.0004
   1434505.71148   1129125.67646  20362505.4144                   20362504.2384
        48.0004         37.2504
   1562313.18846   1223303.03944  22584227.0164                   22584226.0864
        41.0004         26.0004
 19  3  5 22  2 35.0000000  0  3G07G30G08
   1548822.16047   1209754.54344  21625163.4774                   21625160.2384
        43.0004         25.2504
   1423371.22748   1120449.45746  20360386.9064                   20360385.4414
        49.7504         38.5004
   1560383.73447   1221799.57044  22583859.7664                   22583859.1214
        43.0004         27.2504
 19  3  5 22  2 40.0000000  0  3G07G30G08
   1546910.95347   1208265.29343  21624800.4924                   21624796.5904
        43.2504         22.0004
   1412273.53148   1111801.89846  20358274.8134                   20358273.2544
        50.2504         39.5004
   1558491.70347   1220325.24644  22583499.1334                   22583498.8204
        43.2504         27.0004
 19  3  5 22  2 45.0000000  0  7G07G11G13G27G28G30G08
   1545035.11746   1206803.60243  21624442.8134                   21624439.6024
        41.0004         22.5004
   1372829.84416                  23265393.445
        36.500
   1292085.03157   1040121.34855  21983377.6564                   21983374.7074
        44.2504         31.0004
   1612929.70755   1244543.41052  24893024.5004                   24893024.0664
        35.2504         17.2504
   1330670.98857   1066120.73455  20940131.5784                   20940128.2544
        46.0004         33.0004
   1401214.03948   1103184.11746  20356170.1884                   20356168.7544
        48.0004         38.5004
   1556638.67247   1218881.31644  22583146.6884                   22583146.4344
        42.5004         27.7504
 19  3  5 22  2 50.0000000  0  7G07G11G13G27G28G30G08
   1543196.35946   1205370.81343  21624092.3284                   21624089.4884
        41.0004         22.5004
   1347785.066 5                  23260628.133
        34.250
   1270002.94547   1022914.54345  21979175.1724                   21979172.1914
        45.0004         31.5004
   1617746.74245   1248296.85543  24893939.6564                   24893940.9184
        35.2504         18.5004
   1311651.50847   1051300.36745  20936512.9924                   20936507.9694
        46.0004         33.2504
   1390194.43047   1094597.43446  20354072.7734                   20354070.5474
        47.7504         37.5004
   1554826.37146   1217469.17244  22582801.2664                   22582801.1094
        41.7504         27.5004
 19  3  5 22  2 55.0000000  0  7G07G11G13G27G28G30G08
   1541395.18446   1203967.28143  21623750.2734                   21623746.4344
        41.5004         22.0004
   1322779.797 5                  23255869.508
        35.750
   1247963.61347   1005741.01645  21974981.8204                   21974977.5204
        44.7504         31.2504
   1622597.88745   1252076.95743  24894863.9534                   24894863.5744
        35.5004         18.5004
   1292670.15647   1036509.69545  20932900.6254                   20932896.3874
        45.7504         32.5004
   1379215.29347   1086042.24246  20351983.8204                   20351981.6334
        47.7504         37.2504
   1553055.23046   1216089.03944  22582465.1024                   22582464.1604
        41.2504         26.7504
 19  3  5 22  3  0.0000000  0  7G07G11G13G27G28G30G08
   1539632.58247   1202593.84043  21623414.4694                   21623411.0824
        44.2504         22.2504
   1297815.094 5                  23251117.695
        35.000
   1225967.98047    988601.57045  21970796.1804                   21970792.3054
        45.5004         31.5004
   1627484.08645   1255884.45743  24895792.3204                   24895794.0204
        34.2504         18.2504
   1273727.87547   1021749.51645  20929296.1804                   20929291.7154
        47.0004         32.5004
   1368277.55148   1077519.32846  20349902.1484                   20349900.6804
        49.2504         38.0004
   1551326.18447   1214741.72744  22582135.7974                   22582134.9184
        43.7504         29.2504
 19  3  5 22  3  5.0000000  0  7G07G11G13G27G28G30G08
   1537908.60247   1201250.48044  21623086.8754                   21623082.8094
        43.5004         24.5004
   1272890.754 5                  23246374.922
        34.250
   1204016.21147    971496.29345  21966618.4384                   21966615.1454
        45.0004         31.7504
   1632405.53145   1259719.34042  24896729.5314                   24896730.5004
        32.5004         17.2504
   1254824.79747   1007019.84045  20925698.9844                   20925694.1884
        47.0004         32.5004
   1357381.40248   1069028.82846  20347828.7974                   20347826.9494
        49.0004         37.2504
   1549639.39547   1213427.32444  22581815.0474                   22581813.8014
        43.2504         29.0004
 19  3  5 22  3 10.0000000  0  7G07G11G13G27G28G30G08
   1536223.99247   1199937.79744  21622766.4694                   21622762.3524
        43.2504         24.2504
   1248007.629 5                  23241641.266
        33.750
   1182108.94547    954425.69545  21962450.3054                   21962446.0864
        45.2504         32.0004
   1637362.848 5                  24897672.359
        31.750
   1235961.60947    992321.24645  20922109.4774                   20922104.7894
        47.5004         32.5004
   1346527.44948   1060571.21145  20345763.3364                   20345761.7504
        49.0004         35.7504
   1547995.42647   1212146.31644  22581501.5704                   22581500.7974
        43.0004         28.0004
 19  3  5 22  3 15.0000000  0  7G07G11G13G27G28G30G08
   1534578.63347   1198655.68043  21622453.4454                   21622448.9144
        42.7504         22.7504
   1223165.484 5                  23236912.398
        33.750
   1160246.09447    937389.74245  21958289.6954                   21958286.1684
        45.0004         31.2504
   1642355.848 5                  24898622.852
        33.000
   1217138.12947    977653.59045  20918526.9924                   20918522.7624
        46.0004         32.2504
   1335715.66048   1052146.41446  20343705.7734                   20343704.1844
        49.2504         37.7504
   1546394.32047   1210898.69944  22581196.8134                   22581196.5274
        42.0004         25.5004
 19  3  5 22  3 20.0000000  0  7G07G11G13G27G28G30G08
   1532972.96146   1197404.55143  21622147.4224                   21622143.3524
        41.5004         21.5004
   1198364.961 5                  23232193.820
        34.000
   1138428.15647    920388.76245  21954137.8284                   21954134.1254
        45.0004         33.0004
   1647384.99246   1263617.62153  24899581.2504                   24899578.5474
        36.0004         18.5004
   1198354.95347    963017.36745  20914953.2584                   20914948.3094
        45.5004         31.7504
   1324946.46548   1043754.85546  20341656.8134                   20341655.0984
        48.0004         38.2504
   1544836.60946   1209684.91044  22580900.5474                   22580899.6684
        41.7504         26.7504
 19  3  5 22  3 25.0000000  0  7G07G11G13G27G28G30G08
   1531406.78546   1196184.15243  21621848.6094                   21621845.3554
        40.2504         21.0004
   1173606.008 5                  23227481.945
        34.000
   1116654.90247    903422.57445  21949994.4144                   21949991.0634
        44.7504         32.2504
   1652450.16445   1267564.49243  24900543.6644                   24900542.5234
        35.0004         19.0004
   1179611.74247    948412.26645  20911386.8984                   20911382.1804
        45.7504         31.5004
   1314219.58247   1035396.24246  20339615.3284                   20339613.8484
        47.0004         37.7504
   1543321.87146   1208504.59444  22580612.7274                   22580611.4804
        40.7504         26.5004
 19  3  5 22  3 30.0000000  0  7G07G11G13G27G28G30G08
   1529880.06346   1194994.50043  21621559.5234                   21621555.0864
        40.5004         20.5004
   1148888.480 5                  23222778.117
        34.750
   1094926.34047    886491.22345  21945860.1254                   21945855.8594
        44.7504         31.0004
   1657551.24646   1271539.36342  24901515.4844                   24901513.2934
        36.0004         17.7504
   1160908.50847    933838.32045  20907827.6644                   20907822.8404
        45.2504         31.7504
   1303535.09447   1027070.66846  20337582.3284                   20337580.6524
        47.5004         37.5004
   1541850.09446   1207357.75044  22580332.6334                   22580331.3554
        40.7504         26.0004
 19  3  5 22  3 35.0000000  0  7G07G11G13G27G28G30G08
   1528393.19546   1193835.89143  21621275.8364                   21621271.9804
        41.0004         21.2504
   1124212.813 5                  23218082.383
        33.750
   1073242.93047    869595.06345  21941733.3834                   21941729.7704
        44.0004         30.0004
   1662688.76645   1275542.59043  24902492.4694                   24902491.3054
        35.5004         18.2504
   1142245.71947    919295.87145  20904275.5394                   20904271.3714
        45.2504         32.5004
   1292893.42247   1018778.46146  20335557.0084                   20335555.5394
        47.5004         36.5004
   1540421.85946   1206244.82844  22580060.7114                   22580059.6174
        41.5004         26.0004
 19  3  5 22  3 40.0000000  0  7G07G11G13G27G28G30G08
   1526946.10247   1192708.26243  21621000.1254                   21620997.3164
        42.5004         21.5004
   1099578.840 5                  23213395.484
        33.500
   1051604.43047    852733.88745  21937615.7814                   21937612.3244
        45.0004         31.0004
   1667862.30546   1279573.96542  24903476.6254                   24903476.0044
        36.0004         17.2504
   1123623.14847    904784.77345  20900731.8674                   20900728.1914
        47.0004         32.5004
   1282294.32448   1010519.41846  20333540.3754                   20333538.5904
        49.2504         37.0004
   1539036.71147   1205165.48844  22579796.9694                   22579796.0554
        42.5004         27.7504
 19  3  5 22  3 45.0000000  0  7G07G11G13G27G28G30G08
   1525538.33246   1191611.32443  21620732.5314                   21620728.7114
        41.7504         21.2504
   1074986.230 5                  23208714.867
        34.250
   1030010.55947    835907.52345  21933506.5634                   21933503.1174
        45.0004         30.7504
   1673071.69946   1283633.19142  24904468.8134                   24904467.5554
        36.0004         16.2504
   1105040.50047    890304.79745  20897195.6564                   20897191.7624
        46.5004         31.2504
   1271737.53148   1002293.35945  20331530.9304                   20331530.0904
        48.7504         35.5004
   1537694.41047   1204119.54344  22579541.5634                   22579541.1724
        42.0004         27.0004
 19  3  5 22  3 50.0000000  0  7G07G11G13G27G28G30G08
   1524169.57846   1190544.77743  21620471.6024                   21620468.3554
        41.0004         20.2504
   1050434.645 5                  23204042.500
        34.500
   1008460.93447    819115.61745  21929406.1024                   21929402.0904
        45.0004         30.2504
   1678316.49646   1287720.09042  24905466.4534                   24905465.5634
        36.5004         15.5004
   1086497.31647    875855.56645  20893667.2114                   20893662.7854
        46.2504         30.2504
   1261222.61747    994099.91045  20329530.0164                   20329528.9804
        47.7504         35.2504
   1536394.55947   1203106.66444  22579293.9924                   22579293.2664
        42.0004         26.2504
 19  3  5 22  3 55.0000000  0  7G07G11G13G27G28G30G08
   1522839.43846   1189508.28543  21620218.4924                   21620215.7194
        40.7504         20.2504
   1025923.664 5                  23199377.773
        33.500
    986955.17247    802357.88344  21925313.4774                   21925309.4734
        45.0004         29.7504
   1683596.27046   1291834.16842  24906470.2424                   24906470.2974
        36.0004         16.2504
   1067993.29347    861436.87144  20890145.7424                   20890142.0084
        45.7504         29.7504
   1250749.21148    985938.82845  20327537.2504                   20327536.1454
        48.0004         35.0004
   1535136.89146   1202126.67244  22579054.9774                   22579054.8244
        41.7504         25.2504
 19  3  5 22  4  0.0000000  0  7G07G11G13G27G28G30G08
   1521547.85546   1188501.87143  21619972.6644                   21619970.0904
        41.0004         20.0004
   1001453.344 5                  23194722.180
        33.250
    965493.32047    785634.36345  21921229.2034                   21921225.9144
        45.0004         30.5004
   1688911.09445   1295975.64542  24907482.1724                   24907482.0124
        35.2504         17.7504
   1049528.42647    847048.64845  20886632.4924                   20886628.6134
        45.7504         30.0004
   1240317.30947    977810.06645  20325551.7504                   20325550.7974
        47.7504         35.2504
   1533921.29747   1201179.44544  22578823.3914                   22578823.0314
        42.0004         26.2504
 19  3  5 22  4  5.0000000  0  7G07G11G13G27G28G30G08
   1520294.74646   1187525.39543  21619734.3914                   21619731.5394
        40.7504         19.7504
    977023.547 5                  23190072.391
        33.500
    944075.21947    768944.93445  21917153.8204                   21917150.2234
        45.2504         30.5004
   1694260.74245   1300144.12142  24908499.9924                   24908500.3634
        35.0004         17.2504
   1031102.56647    832690.84845  20883125.6094                   20883121.9264
        45.7504         30.2504
   1229926.81347    969713.57445  20323574.8284                   20323573.6724
        47.5004         35.2504
   1532747.62546   1200264.89144  22578600.1804                   22578599.6524
        41.7504         26.2504
 19  3  5 22  4 10.0000000  0  7G07G11G13G27G28G30G08
   1519079.87946   1186578.76643  21619502.7194                   21619500.2504
        40.2504         20.0004
    952634.109 5                  23185432.555
        33.000
    922700.68047    752289.44145  21913086.3984                   21913082.8634
        45.2504         31.0004
   1699645.00046   1304339.65642  24909525.2584                   24909525.0234
        36.2504         16.7504
   1012715.52347    818363.27345  20879626.6024                   20879623.1374
        46.0004         30.0004
   1219577.45748    961649.14145  20321605.2814                   20321604.5824
        48.2504         35.2504
   1531615.68046   1199382.85244  22578385.0784                   22578384.1024
        41.7504         27.0004
 19  3  5 22  4 15.0000000  0  7G07G11G13G27G28G30G08
   1517902.91846   1185661.60543  21619279.0554                   21619276.2934
        41.0004         19.7504
    928284.672 5                  23180797.773
        33.000
    901369.35547    735667.63345  21909027.0084                   21909023.4024
        45.2504         31.0004
   1705063.60545   1308561.91042  24910555.8444                   24910556.0864
        35.5004         16.2504
    994366.92247    804065.66445  20876135.5704                   20876131.4574
        45.5004         30.5004
   1209268.96148    953616.54345  20319643.6024                   20319642.5594
        48.0004         35.7504
   1530525.05547   1198533.00844  22578177.1334                   22578176.7774
        42.0004         26.2504
 19  3  5 22  4 20.0000000  0  7G07G11G13G27G28G30G08
   1516763.71546   1184773.93843  21619062.3594                   21619059.7234
        40.2504         19.0004
    903975.066 5                  23176170.383
        33.250
    880081.12547    719079.41045  21904976.0704                   21904972.3284
        44.7504         30.2504
   1710516.33245   1312810.79742  24911593.6094                   24911593.7114
        35.0004         16.7504
    976056.67247    789797.94145  20872650.9064                   20872647.3984
        45.5004         30.5004
   1199001.16847    945615.66845  20317689.7194                   20317688.6294
        47.7504         35.5004
   1529475.65246   1197715.28544  22577977.4224                   22577977.3204
        41.7504         25.7504
 19  3  5 22  4 25.0000000  0  7G07G11G13G27G28G30G08
   1515662.09046   1183915.50043  21618853.1484                   21618850.4144
        40.2504         18.5004
    879705.160 5                  23171554.656
        33.250
    858835.73447    702524.54345  21900932.7974                   21900929.3204
        44.7504         30.7504
   1716002.84845   1317085.99642  24912637.2504                   24912637.7304
        35.0004         15.5004
    957784.46147    775559.84845  20869174.6954                   20869170.1454
        45.5004         30.0004
   1188773.82447    937646.29745  20315743.6564                   20315742.6564
        47.5004         35.5004
   1528467.18046   1196929.44944  22577786.1174                   22577785.7034
        41.5004         26.2504
 19  3  5 22  4 30.0000000  0  7G07G11G13G27G28G30G08
   1514597.14846   1183085.68443  21618651.0004                   21618647.8204
        40.5004         20.0004
    855474.141 5                  23166942.297
        33.750
    837632.45747    686002.50445  21896898.2814                   21896894.6414
        44.7504         31.0004
   1721522.45745   1321387.01642  24913688.2974                   24913688.3364
        35.7504         16.7504
    939549.54747    761350.82045  20865703.5234                   20865700.3874
        45.7504         30.7504
   1178586.12548    929707.83245  20313804.9224                   20313804.1484
        48.0004         35.5004
   1527498.91846   1196174.95344  22577601.2424                   22577601.3014
        41.7504         26.0004
 19  3  5 22  4 35.0000000  0  7G07G11G13G27G28G30G08
   1513568.94946   1182284.48443  21618455.1414                   21618452.0904
        41.5004         19.0004
    831282.109 5                  23162339.078
        33.250
    816471.36747    669513.34445  21892871.2734                   21892867.7934
        45.0004         31.0004
   1727075.21545   1325713.85942  24914745.2734                   24914745.3914
        35.5004         16.7504
    921351.98047    747170.90245  20862241.1024                   20862237.1484
        45.5004         30.5004
   1168438.18447    921800.34445  20311874.1174                   20311873.2304
        47.7504         35.7504
   1526570.89546   1195451.81344  22577424.7814                   22577425.1484
        41.5004         26.7504
 19  3  5 22  4 40.0000000  0  7G07G11G13G27G28G30G08
   1512577.31346   1181511.78943  21618266.5394                   21618263.5164
        41.2504         18.5004
    807128.750 5                  23157743.281
        32.750
    795352.19147    653056.84045  21888852.4534                   21888848.8134
        45.0004         30.7504
   1732660.79745   1330066.23842  24915808.1024                   24915808.1054
        35.2504         16.7504
    903191.52047    733019.90645  20858785.5314                   20858781.2584
        45.7504         30.0004
   1158329.74247    913923.64545  20309950.4304                   20309949.4614
        47.5004         35.5004
   1525682.77346   1194759.76644  22577255.2274                   22577255.5554
        41.5004         24.5004
 19  3  5 22  4 45.0000000  0  7G07G11G13G27G28G30G08
   1511621.43446   1180766.94943  21618084.8204                   21618081.2974
        41.5004         19.0004
    783013.367 5                  23153154.008
        34.000
    774274.22747    636632.46544  21884841.3444                   21884837.8324
        44.5004         29.5004
   1738278.51645   1334443.64842  24916877.5314                   24916877.8794
        35.0004         16.7504
    885067.41047    718897.21545  20855336.2194                   20855332.1844
        45.2504         30.2504
   1148260.03147    906077.10945  20308034.0784                   20308033.0234
        47.0004         35.0004
   1524833.84446   1194098.27044  22577094.2034                   22577093.9064
        41.2504         24.5004
 19  3  5 22  4 50.0000000  0  7G07G11G13G27G28G30G08
   1510701.26246   1180049.90643  21617909.5084                   21617906.4304
        41.2504         20.0004
    758935.875 5                  23148572.438
        34.250
    753237.39547    620240.12545  21880838.3754                   21880834.6524
        44.7504         30.0004
   1743928.23045   1338846.10242  24917951.9304                   24917953.1024
        34.7504         15.5004
    866979.64547    704802.85945  20851894.4924                   20851890.3754
        45.5004         30.2504
   1138229.03947    898260.75845  20306125.4694                   20306124.3634
        47.2504         35.2504
   1524024.13346   1193467.31644  22576940.0394                   22576940.0274
        41.2504         26.5004
 19  3  5 22  4 55.0000000  0  7G07G11G13G27G28G30G08
   1509816.78946   1179360.70743  21617741.0004                   21617737.8714
        41.2504         19.2504
    734896.352 5                  23143998.000
        33.500
    732241.68447    603879.83245  21876842.7194                   21876839.2894
        45.0004         30.2504
   1749609.99645   1343273.39542  24919032.2974                   24919034.2424
        34.7504         13.7504
    848928.15647    690736.76244  20848459.9924                   20848455.4454
        46.0004         29.7504
   1128236.70747    890474.51245  20304223.8364                   20304222.8554
        47.0004         34.7504
   1523253.48846   1192866.81344  22576792.8754                   22576793.2664
        41.2504         25.5004
 19  3  5 22  5  0.0000000  0  7G07G11G13G27G28G30G08
   1508967.24646   1178698.72343  21617579.1724                   21617576.2814
        41.2504         19.2504
    710893.973 5                  23139430.430
        33.250
    711286.34847    587550.98844  21872855.2894                   21872851.7664
        44.7504         29.2504
   1755322.99645   1347725.10242  24920119.9304                   24920121.4844
        34.2504         15.5004
    830912.17247    676698.32445  20845031.3674                   20845027.0474
        45.7504         30.0004
   1118282.25847    882717.80545  20302329.4774                   20302328.4304
        47.5004         35.0004
   1522521.18846   1192296.18444  22576654.1174                   22576654.2584
        41.2504         26.0004
 19  3  5 22  5  5.0000000  0  7G07G11G13G27G28G30G08
   1508151.72346   1178063.25843  21617424.5554                   21617421.3954
        40.7504         19.5004
    686927.918 5                  23134869.734
        33.250
    690370.55547    571252.96944  21868875.4384                   21868871.5314
        44.5004         29.7504
   1761066.26645   1352200.32442  24921212.9384                   24921214.7774
        34.2504         16.2504
    812930.79347    662686.86345  20841609.5704                   20841605.3204
        45.5004         30.2504
   1108364.83247    874989.94145  20300442.4454                   20300441.4454
        47.0004         35.0004
   1521826.33646   1191754.73844  22576521.9454                   22576521.9734
        41.2504         26.5004
 19  3  5 22  5 10.0000000  0  7G07G11G13G27G28G30G08
   1507370.52746   1177454.50043  21617275.2974                   21617272.9454
        40.0004         19.0004
    662998.473 5                  23130315.781
        33.000
    669494.52347    554985.93445  21864902.6564                   21864898.9264
        44.5004         30.0004
   1766840.17245   1356699.50842  24922312.3284                   24922313.2344
        35.0004         16.7504
    794984.30147    648702.58245  20838194.2194                   20838190.6564
        45.7504         30.2504
   1098484.70747    867291.14545  20298562.2114                   20298561.1454
        47.5004         35.0004
   1521169.12546   1191242.62944  22576397.1024                   22576396.6454
        41.0004         26.5004
 19  3  5 22  5 15.0000000  0  7G07G11G13G27G28G30G08
   1506622.73046   1176871.84043  21617133.0314                   21617130.3484
        40.5004         19.2504
    639104.762 5                  23125769.086
        33.750
    648657.44547    538749.26245  21860937.8594                   21860934.1414
        44.7504         31.0004
   1772643.71145   1361221.72342  24923415.7424                   24923417.3634
        34.2504         16.2504
    777071.82447    634744.82045  20834785.4534                   20834781.9534
        45.5004         30.0004
   1088641.04747    859620.75845  20296689.0234                   20296687.8954
        47.5004         35.0004
   1520548.68446   1190759.16044  22576278.9534                   22576278.9774
        41.0004         26.0004
 19  3  5 22  5 20.0000000  0  7G07G11G13G27G28G30G08
   1505908.07046   1176314.95343  21616997.1024                   21616994.1564
        41.2504         19.2504
    615246.523 5                  23121229.297
        33.750
    627859.03547    522542.69945  21856979.7894                   21856976.0394
        45.0004         31.2504
   1778476.69545   1365766.86742  24924525.6884                   24924527.7894
        35.0004         16.2504
    759193.14147    620813.36345  20831383.2034                   20831379.4454
        46.0004         30.5004
   1078833.51248    851978.51645  20294823.0784                   20294821.6954
        48.0004         35.2504
   1519964.75446   1190304.12544  22576167.6724                   22576167.7854
        41.0004         25.5004
 19  3  5 22  5 25.0000000  0  7G07G11G13G27G28G30G08
   1505226.74647   1175784.00443  21616867.5084                   21616864.2734
        43.2504         20.0004
    591423.926 5                  23116695.813
        30.750
    607099.45347    506366.39144  21853029.2894                   21853025.5784
        45.5004         29.0004
   1784339.28145   1370335.16042  24925641.8834                   24925643.7624
        33.0004         16.2504
    741348.36747    606908.35545  20827987.4924                   20827983.6564
        46.5004         31.0004
   1069062.30148    844364.59845  20292963.1644                   20292962.0554
        49.5004         34.7504
   1519417.53147   1189877.72744  22576063.6094                   22576063.4414
        43.0004         27.0004
 19  3  5 22  5 30.0000000  0  7G07G11G13G27G28G30G08
   1504578.41847   1175278.84443  21616744.3364                   21616741.0664
        42.5004         20.5004
    567636.699 5                  23112168.078
        32.750
    586378.35247    490220.09044  21849086.1254                   21849082.7504
        45.0004         29.5004
   1790231.00845   1374926.03142  24926763.3524                   24926764.8014
        35.5004         15.5004
    723537.17647    593029.50445  20824598.3674                   20824594.1094
        47.2504         30.5004
   1059327.04348    836778.67645  20291111.0164                   20291109.8244
        49.2504         34.5004
   1518906.57447   1189479.58244  22575965.9064                   22575966.0634
        43.0004         26.7504
 19  3  5 22  5 35.0000000  0  7G07G11G13G27G28G30G08
   1503962.81647   1174799.14143  21616627.0634                   21616623.5004
        44.0004         20.5004
    543884.566 5                  23107648.430
        31.000
    565695.52347    474103.59844  21845150.2504                   21845146.3164
        46.5004         29.5004
   1796151.69545   1379539.58642  24927890.3284                   24927891.4964
        34.2504         15.5004
    705759.33648    579176.64545  20821214.7894                   20821211.2424
        48.2504         31.5004
   1049627.56648    829220.64545  20289265.1414                   20289263.5004
        50.0004         34.5004
   1518431.82047   1189109.63744  22575876.2194                   22575875.6884
        43.2504         27.0004
 19  3  5 22  5 40.0000000  0  7G07G11G13G27G28G30G08
   1503379.53147   1174344.63743  21616516.1484                   21616512.4184
        42.5004         19.7504
    520167.117 5                  23103136.195
        32.250
    545050.51647    458016.58645  21841221.9694                   21841218.3204
        44.5004         30.2504
   1802100.93045   1384175.39842  24929021.1024                   24929024.1454
        34.2504         14.7504
    688014.38747    565349.41445  20817838.5944                   20817834.1254
        47.5004         31.0004
   1039963.36748    821690.09045  20287426.0164                   20287425.0944
        48.2504         34.7504
   1517992.69147   1188767.45744  22575792.8364                   22575792.0984
        42.0004         26.7504
 19  3  5 22  5 45.0000000  0  7G07G11G13G27G28G30G08
   1502827.63347   1173914.60543  21616410.7274                   21616407.3754
        42.2504         19.2504
    496483.414 5                  23098628.031
        31.750
    524442.50847    441958.40245  21837300.4384                   21837296.8954
        44.5004         30.0004
   1808077.75045   1388832.61342  24930160.0704                   24930161.5084
        34.7504         14.7504
    670301.49247    551547.15245  20814467.4384                   20814463.6914
        46.5004         30.2504
   1030333.61748    814186.39545  20285593.5084                   20285592.5744
        48.5004         35.0004
   1517588.24247   1188452.29344  22575715.5554                   22575715.1024
        42.0004         27.0004
 19  3  5 22  5 50.0000000  0  7G07G11G13G27G28G30G08
   1502307.29347   1173509.11743  21616312.2504                   21616308.3874
        42.2504         19.7504
    472833.734 5                  23094129.664
        33.250
    503871.64847    425929.16445  21833385.5164                   21833382.4414
        45.0004         30.2504
   1814082.38745   1393511.55942  24931302.5164                   24931304.2304
        35.0004         14.7504
    652620.81347    537769.99645  20811103.0634                   20811099.4774
        46.5004         30.5004
   1020738.46948    806709.65245  20283767.3284                   20283766.0984
        48.0004         35.0004
   1517218.66447   1188164.30544  22575645.2734                   22575644.8834
        42.0004         26.7504
 19  3  5 22  5 55.0000000  0  7G07G11G13G27G28G30G08
   1501818.19546   1173127.98043  21616218.8134                   21616215.4184
        41.5004         19.5004
    449217.707 5                  23089634.859
        32.750
    483337.57447    409928.57444  21829478.4224                   21829474.7114
        44.5004         29.7504
   1820114.37545   1398211.73842  24932449.7974                   24932451.8524
        34.5004         16.7504
    634971.98447    524017.66845  20807745.1174                   20807740.9454
        46.7504         30.7504
   1011177.55947    799259.58645  20281948.4534                   20281947.2034
        47.5004         35.2504
   1516883.62946   1187903.24244  22575581.8524                   22575581.2074
        41.5004         27.2504
 19  3  5 22  6  0.0000000  0  7G07G11G13G27G28G30G08
   1501359.93047   1172770.89543  21616131.4844                   21616128.5474
        43.7504         19.0004
    425635.008 5                  23085147.672
        31.500
    462839.97747    393956.43045  21825577.1094                   21825574.0274
        46.2504         30.5004
   1826173.50445   1402933.25842  24933602.9924                   24933604.9144
        33.5004         16.2504
    617354.64547    510289.86745  20804392.4064                   20804388.5084
        47.5004         31.2504
   1001650.55148    791835.95345  20280135.4454                   20280134.3674
        48.5004         34.5004
   1516582.85947   1187668.86744  22575524.3444                   22575524.0314
        42.7504         27.0004
 19  3  5 22  6  5.0000000  0  7G07G11G13G27G28G30G08
   1500932.40647   1172437.74843  21616050.8834                   21616047.0394
        43.2504         19.2504
    402085.543 5                  23080664.906
        31.500
    442378.71547    378012.59045  21821684.1254                   21821680.6764
        45.5004         31.0004
   1832259.48445   1407675.52342  24934761.7584                   24934762.9144
        34.5004         16.2504
    599768.67647    496586.52745  20801045.6804                   20801041.9924
        47.0004         31.5004
    992157.35248    784438.65245  20278329.2114                   20278327.6334
        48.2504         35.5004
   1516316.14147   1187461.03944  22575473.7664                   22575473.0204
        42.5004         26.0004
 19  3  5 22  6 10.0000000  0  7G07G11G13G27G28G30G08
   1500534.69547   1172127.85943  21615974.5634                   21615971.1374
        44.5004         19.5004
    378568.484 5                  23076191.586
        34.000
    421952.83247    362096.30944  21817797.1414                   21817793.8244
        44.5004         28.5004
   1838371.34845   1412438.10242  24935923.3054                   24935925.8324
        30.5004         16.2504
    582213.03947    482906.82845  20797705.6884                   20797701.2624
        46.5004         30.7504
    982696.87948    777066.84045  20276528.4384                   20276527.3714
        48.7504         35.0004
   1516082.37547   1187278.90243  22575429.1414                   22575428.4144
        43.0004         22.7504
 19  3  5 22  6 15.0000000  0  7G07G11G13G27G28G30G08
   1500166.03547   1171840.59043  21615904.8834                   21615900.7344
        44.5004         19.2504
    355082.930 5                  23071722.016
        35.000
    401561.71147    346207.15244  21813916.5314                   21813913.1724
        45.2504         29.5004
   1844508.461 5                  24937090.773
        33.000
    564687.19147    469250.31345  20794369.6174                   20794365.8754
        47.0004         30.2504
    973268.59448    769720.14145  20274734.1954                   20274733.2344
        49.2504         35.0004
   1515881.04347   1187121.98444  22575390.5234                   22575390.0164
        42.2504         27.7504
 19  3  5 22  6 20.0000000  0  7G07G11G13G27G28G30G08
   1499825.92247   1171575.59043  21615839.9224                   21615836.6524
        44.5004         19.5004
    331628.309 5                  23067258.031
        34.500
    381204.80547    330344.64545  21810042.7194                   21810039.6484
        47.2504         30.2504
   1850670.336 6                  24938264.398
        37.000
    547190.50848    455616.55544  20791040.8284                   20791036.5904
        48.7504         28.7504
    963871.91448    762398.05145  20272946.0004                   20272945.2304
        50.0004         35.5004
   1515711.49646   1186989.89144  22575358.6334                   22575358.2734
        40.7504         24.0004
 19  3  5 22  6 25.0000000  0  7G07G11G13G27G28G30G08
   1499514.13747   1171332.60943  21615780.0234                   21615777.0864
        42.2504         19.2504
                                  23062799.484
        26.250
    360881.94147    314508.62544  21806175.4224                   21806172.1174
        44.7504         29.5004
   1856856.672 5                  24939441.734
        35.000
    529722.84847    442005.36345  20787716.1884                   20787712.0314
        46.2504         30.2504
    954506.69547    755100.48445  20271163.8284                   20271162.6454
        47.5004         34.5004
   1515573.61346   1186882.46544  22575331.8754                   22575332.0354
        41.5004         25.5004
 19  3  5 22  6 30.0000000  0  6G07G13G27G28G30G08
   1499230.66847   1171111.73043  21615726.2814                   21615722.8204
        43.7504         19.2504
    340593.03147    298699.08245  21802314.7664                   21802311.4534
        46.0004         31.0004
   1863067.438 5                  24940623.094
        32.500
    512284.12148    428416.75445  20784398.5234                   20784393.4304
        48.2504         30.5004
    945172.78948    747827.29345  20269387.8444                   20269386.5394
        49.2504         35.7504
   1515467.20347   1186799.52044  22575312.0474                   22575311.6914
        42.5004         26.7504
 19  3  5 22  6 35.0000000  0  6G07G13G27G28G30G08
   1498974.68047   1170912.25843  21615677.4454                   21615674.1644
        43.2504         19.2504
    320337.22347    282915.35945  21798460.2664                   21798456.7854
        46.0004         30.5004
   1869301.840 5                  24941809.578
        32.750
    494873.52347    414850.06644  20781084.5314                   20781080.4024
        46.5004         29.7504
    935869.47348    740577.96545  20267617.6484                   20267616.3554
        48.2504         35.0004
   1515391.54747   1186740.58644  22575297.6724                   22575297.3714
        42.2504         25.5004
 19  3  5 22  6 40.0000000  0  6G07G13G27G28G30G08
   1498746.63747   1170734.52743  21615634.7114                   21615631.2774
        43.0004         21.2504
    300114.96547    267157.75845  21794611.9224                   21794608.3284
        45.2504         30.2504
   1875560.176 5                  24943000.242
        34.500
    477491.50447    401305.62545  20777777.1024                   20777773.1764
        46.7504         30.0004
    926597.10548    733352.73445  20265853.2734                   20265851.9884
        48.5004         35.2504
   1515347.09447   1186705.93444  22575289.4534                   22575288.8054
        42.2504         25.0004
 19  3  5 22  6 45.0000000  0  6G07G13G27G28G30G08
   1498545.78947   1170578.02743  21615595.8444                   21615592.7344
        42.5004         19.7504
    279925.69147    251425.84445  21790770.0234                   21790766.9344
        45.0004         30.0004
   1881841.891 5                  24944195.297
        31.500
    460137.35547    387782.91445  20774474.2344                   20774470.7074
        46.7504         31.2504
    917355.02347    726151.13745  20264094.1414                   20264093.6414
        47.5004         34.5004
   1515333.15647   1186695.06644  22575285.7894                   22575286.0904
        42.2504         28.0004
 19  3  5 22  6 50.0000000  0  6G07G13G27G28G30G08
   1498371.74646   1170442.44543  21615562.7894                   21615559.5044
        41.7504         19.7504
    259768.87947    235719.25044  21786934.2584                   21786930.9574
        44.7504         29.5004
   1888146.371 5                  24945395.367
        33.250
    442810.63347    374281.57444  20771177.3524                   20771173.2934
        46.0004         29.2504
    908142.78147    718972.74645  20262340.9774                   20262340.0164
        47.0004         34.0004
   1515349.16046   1186707.55543  22575289.6174                   22575289.1914
        41.0004         23.2504
 19  3  5 22  6 55.0000000  0  6G07G13G27G28G30G08
   1498224.35247   1170327.56342  21615535.1174                   21615532.0594
        42.5004         17.2504
    239644.52347    220037.98043  21783104.6414                   21783101.0944
        45.2504         22.5004
   1894473.703 5                  24946598.391
        34.500
    425511.25447    360801.58243  20767885.1254                   20767881.5554
        46.2504         22.7504
    898960.28547    711817.59844  20260593.9844                   20260593.1094
        47.5004         27.0004
   1515395.12147   1186743.36343  22575297.9224                   22575298.0274
        42.0004         20.7504
 19  3  5 22  7  0.0000000  0  6G07G13G27G28G30G08
   1498103.332 7                  21615512.102
        43.250
    219552.31647    204381.71543  21779281.5474                   21779277.8204
        45.7504         22.0004
   1900823.422 5                  24947808.484
        35.000
    408238.91847    347342.60544  20764599.1724                   20764594.4304
        47.0004         25.0004
    889807.28948    704685.38744  20258851.9694                   20258851.0984
        48.0004         27.7504
   1515470.64547   1186802.23043  22575313.1484                   22575311.9654
        42.5004         19.5004
 19  3  5 22  7  5.0000000  0  6G07G13G27G28G30G08
   1498008.418 7                  21615493.984
        42.250
    199492.08647    188750.35543  21775463.8984                   21775460.5004
        45.0004         22.7504
   1907195.434 5                  24949019.477
        30.250
    390993.49647    333904.63344  20761316.7814                   20761313.2344
        46.2504         24.5004
    880683.57047    697575.98844  20257115.9224                   20257114.9774
        47.2504         27.5004
   1515575.65246   1186884.04343  22575332.5864                   22575332.2664
        41.5004         19.5004
 19  3  5 22  7 10.0000000  0  7G07G11G13G27G28G30G08
   1497939.684 7                  21615480.680
        42.000
   1548545.00414                  23022942.195
        28.000
    179463.63747    173143.77043  21771652.5474                   21771648.7854
        46.0004         22.0004
   1913589.539 6                  24950238.375
        36.750
    373774.74647    320487.43444  20758040.0314                   20758036.0784
        47.0004         25.2504
    871588.93447    690489.26644  20255385.2344                   20255384.0204
        47.5004         25.5004
   1515709.83646   1186988.59843  22575358.1564                   22575358.0004
        41.5004         19.0004
 19  3  5 22  7 15.0000000  0  7G07G11G13G27G28G30G08
   1497896.42217                  21615472.859
        43.000
   1525412.95315                  23018539.742
        31.500
    159466.59047    157561.66043  21767847.5864                   21767843.6954
        46.7504         21.7504
   1920005.238 5                  24951458.344
        35.500
    356582.28547    307090.69144  20754769.6414                   20754764.9694
        47.5004         25.5004
    862523.03148    683424.93044  20253660.3284                   20253658.7504
        49.7504         27.5004
   1515872.73447   1187115.54743  22575389.4534                   22575388.9574
        42.7504         19.0004
 19  3  5 22  7 20.0000000  0  7G07G11G13G27G28G30G08
   1497878.969 6                  21615469.898
        38.250
   1502312.871 5                  23014146.055
        31.250
    139501.20747    142004.21143  21764048.4774                   21764044.2664
        45.0004         22.5004
   1926442.758 6                  24952682.727
        36.500
    339416.42647    293714.70744  20751501.9924                   20751498.4064
        46.2504         26.2504
    853486.09447    676383.14544  20251940.7584                   20251939.3874
        46.5004         26.2504
   1516064.57846   1187265.02743  22575425.7974                   22575425.2464
        39.7504         18.2504
 19  3  5 22  7 25.0000000  0  6G07G13G27G28G30G08
   1497886.637 6                  21615471.258
        41.000
    119566.70747    126470.80944  21760255.2504                   21760251.5824
        47.0004         26.7504
   1932901.500 6                  24953913.086
        38.750
    322276.31347    280358.75444  20748240.6804                   20748238.4494
        46.5004         29.7504
    844477.29748    669363.31345  20250226.6954                   20250226.5784
        48.2504         31.0004
   1516284.74646   1187436.64843  22575468.0474                   22575467.5594
        41.0004         20.0004
 19  3  5 22  7 30.0000000  0  6G07G13G27G28G30G08
   1497919.930 6                  21615477.117
        37.500
     99663.49647    110961.85544  21756466.8524                   21756464.6884
        45.0004         26.2504
   1939381.723 5                  24955145.883
        35.000
    305162.27347    267023.16444  20744983.8594                   20744980.9804
        44.7504         28.0004
    835497.03147    662365.73044  20248517.2114                   20248517.3634
        45.5004         28.2504
   1516533.64546   1187630.55943  22575514.1414                   22575514.9104
        40.2504         20.7504
 19  3  5 22  7 35.0000000  0  6G07G13G27G28G30G08
   1497977.691 6                  21615488.141
        40.250
     79790.80547     95476.63743  21752685.5164                   21752682.3444
        43.5004         22.0004
                                  24956382.039
        33.750
    288073.63347    253707.33244  20741731.9844                   20741728.5164
        44.0004         25.2504
    826544.64547    655389.81344  20246813.5234                   20246812.9384
        44.2504         25.2504
   1516810.199 6                  22575567.453
        36.500
 19  3  5 22  7 40.0000000  0  6G07G13G27G28G30G08
   1498055.97317                  21615503.719
        45.500
     59947.71547     80014.47343  21748909.6334                   21748906.4884
        44.5004         22.7504
   1952403.129 6                  24957622.805
        37.500
    271009.49247    240410.60544  20738485.1644                   20738481.1094
        44.5004         25.7504
    817619.16847    648434.90244  20245115.1954                   20245114.2194
        46.2504         28.7504
   1517113.78946   1187803.66053  22575625.4144                   22575623.6644
        37.7504         21.7504
 19  3  5 22  7 45.0000000  0  6G07G13G27G28G30G08
   1498162.02347   1170328.32853  21615523.6724                   21615524.4734
        42.0004         21.0004
     40135.00047     64575.98043  21745139.5554                   21745135.8134
        44.0004         22.7504
   1958944.180 6                  24958868.703
        37.000
    253970.43047    227133.41044  20735242.0554                   20735238.2154
        44.7504         26.0004
    808721.26647    641501.47344  20243421.9694                   20243421.3674
        45.0004         28.2504
   1517444.95746   1188061.67243  22575688.0084                   22575686.9534
        40.5004         20.0004
 19  3  5 22  7 50.0000000  0  7G07G11G13G27G28G30G08
   1498292.59447   1170430.07443  21615548.5474                   21615548.4064
        44.5004         19.7504
   1554319.20716                  22987877.656
        40.500
     20352.69947     49161.21943  21741374.5474                   21741371.4104
        43.7504         22.5004
   1965505.703 6                  24960116.617
        37.250
    236956.64547    213875.91444  20732004.6724                   20732001.1484
        45.7504         25.5004
    799851.05147    634589.62144  20241734.0234                   20241732.9384
        45.5004         27.7504
   1517803.77346   1188341.29743  22575756.2034                   22575755.6884
        39.0004         19.2504
 19  3  5 22  7 55.0000000  0  7G07G11G13G27G28G30G08
   1498447.63347   1170550.88343  21615577.4064                   21615576.6214
        43.2504         21.5004
   1531410.836 6                  22983519.344
        40.500
       600.73447     33770.07443  21737616.5084                   21737612.5204
        44.0004         22.0004
   1972087.715 6                  24961369.469
        37.500
    219968.00847    200638.01244  20728771.8674                   20728767.8834
        45.0004         25.5004
    791008.40247    627699.24244  20240051.1484                   20240050.0474
        45.5004         28.2504
   1518190.15646   1188642.35943  22575830.0704                   22575828.9614
        39.5004         18.2504
 19  3  5 22  8  0.0000000  0  7G07G11G13G27G28G30G08
   1498627.01647   1170690.65643  21615611.8984                   21615610.1294
        43.2504         22.0004
   1508529.551 6                  22979164.875
        41.000
    -19121.08647     18402.41843  21733863.3674                   21733859.6994
        44.2504         22.5004
   1978689.898 6                  24962626.000
        36.250
    203004.37547    187419.60244  20725543.6024                   20725539.7814
        45.5004         25.5004
    782193.14547    620830.20744  20238373.8364                   20238372.8634
        46.0004         28.0004
   1518603.95746   1188964.78943  22575908.3284                   22575907.9844
        38.7504         18.5004
 19  3  5 22  8  5.0000000  0  7G07G11G13G27G28G30G08
   1498830.54347   1170849.24643  21615650.6804                   21615648.1484
        43.5004         22.5004
   1485675.363 6                  22974816.547
        41.000
    -38812.75447      3058.25043  21730116.3054                   21730112.5204
        44.5004         22.5004
   1985312.316 6                  24963886.430
        36.750
    186065.68847    174220.62143  20722320.6644                   20722316.5704
        45.2504         23.7504
    773405.30947    613982.54744  20236701.8444                   20236700.7974
        45.5004         28.5004
   1519045.12546   1189308.56343  22575992.6564                   22575992.0354
        39.2504         18.5004
 19  3  5 22  8 10.0000000  0  7G07G11G13G27G28G30G08
   1499058.27047   1171026.71143  21615694.5394                   21615691.4064
        43.0004         22.5004
   1462848.262 6                  22970472.680
        41.000
    -58474.34047    -12262.46543  21726374.8284                   21726370.7934
        43.7504         22.5004
   1991954.848 6                  24965149.945
        36.000
    169151.87547    161041.04344  20719101.8054                   20719098.0474
        45.5004         26.5004
    764644.78147    607156.15244  20235034.6804                   20235033.4064
        45.5004         28.7504
   1519513.60946   1189673.59843  22576081.4304                   22576081.4144
        38.7504         19.0004
 19  3  5 22  8 15.0000000  0  7G07G11G13G27G28G30G08
   1499309.89147   1171222.76643  21615742.2584                   21615738.7664
        43.0004         22.7504
   1440047.988 6                  22966133.859
        41.250
    -78106.05947    -27559.89143  21722638.6564                   21722635.1174
        43.7504         22.5004
   1998617.238 5                  24966417.516
        35.750
    152262.71147    147880.65244  20715887.7194                   20715884.0864
        45.0004         27.0004
    755911.35947    600350.89544  20233372.3054                   20233371.6954
        45.5004         28.7504
   1520009.12146   1190059.73043  22576176.1564                   22576175.7854
        39.5004         18.2504
 19  3  5 22  8 20.0000000  0  7G07G11G13G27G28G30G08
   1499585.02747   1171437.15243  21615794.9534                   21615791.2304
        43.2504         22.0004
   1417274.109 6                  22961800.031
        40.500
    -97708.30547    -42834.38343  21718908.9614                   21718905.3874
        43.7504         22.5004
   2005299.035 6                  24967688.836
        36.500
    135397.77047    134739.13744  20712679.3284                   20712674.7074
        46.0004         26.2504
    747204.60247    593566.39844  20231715.8204                   20231714.8594
        46.0004         29.0004
   1520531.19146   1190466.53142  22576275.4844                   22576275.1374
        39.0004         17.7504
 19  3  5 22  8 25.0000000  0  7G07G11G13G27G28G30G08
   1499883.74647   1171669.90643  21615851.3054                   21615847.8634
        43.5004         22.7504
   1394526.758 6                  22957471.156
        41.500
   -117280.97347    -58085.80143  21715183.9534                   21715180.4414
        43.7504         22.5004
   2012000.383 6                  24968964.742
        36.500
    118557.14547    121616.56344  20709473.8984                   20709470.1024
        45.7504         26.5004
    738524.61747    586802.77344  20230064.1884                   20230062.9144
        46.0004         28.2504
   1521079.94146   1190894.13342  22576379.5474                   22576379.7734
        38.7504         17.2504
 19  3  5 22  8 30.0000000  0  7G07G11G13G27G28G30G08
   1500205.68447   1171920.77043  21615912.5634                   21615909.0044
        43.5004         22.7504
   1371805.637 6                  22953147.203
        40.500
   -136824.45347    -73314.48843  21711465.0164                   21711461.8284
        43.7504         22.0004
   2018720.871 6                  24970243.820
        37.000
    101740.46947    108512.67644  20706274.3444                   20706269.9924
        45.7504         26.7504
    729871.00447    580059.70744  20228417.5394                   20228415.9734
        45.7504         29.5004
   1521654.98446   1191342.21542  22576489.8134                   22576488.9184
        39.5004         16.7504
 19  3  5 22  8 35.0000000  0  7G07G11G13G27G28G30G08
   1500550.98447   1172189.83643  21615978.2814                   21615974.8954
        42.5004         21.7504
   1349110.895 6                  22948829.023
        39.750
   -156338.52347    -88520.25443  21707751.5634                   21707747.9494
        43.7504         23.5004
   2025460.605 6                  24971526.188
        36.000
     84947.92247     95427.56344  20703078.1334                   20703074.6724
        45.7504         26.2504
    721244.00447    573337.37944  20226776.2114                   20226774.5514
        46.0004         28.2504
   1522256.58646   1191811.02042  22576604.0314                   22576603.3204
        39.0004         16.7504
 19  3  5 22  8 40.0000000  0  7G07G11G13G27G28G30G08
   1500919.05947   1172476.64143  21616048.2344                   21616044.3244
        42.5004         21.0004
   1326441.898 6                  22944514.461
        40.000
   -175823.80147   -103703.57443  21704043.0864                   21704040.2774
        43.5004         22.5004
   2032219.004 6                  24972811.625
        37.250
     68178.89147     82360.80144  20699887.6174                   20699883.7344
        46.0004         27.2504
    712642.93447    566635.23844  20225139.1804                   20225137.5594
        45.7504         29.0004
   1522883.93446   1192299.85242  22576723.1564                   22576722.8164
        39.0004         17.7504
 19  3  5 22  8 45.0000000  0  7G07G11G13G27G28G30G08
   1501309.30547   1172780.72343  21616122.8054                   21616119.0984
        43.7504         22.0004
   1303798.039 6                  22940206.383
        39.000
   -195279.79747   -118864.12943  21700340.3914                   21700338.0164
        43.0004         22.2504
   2038996.691 5                  24974100.656
        32.500
     51433.19547     69312.17644  20696700.3984                   20696696.8164
        46.0004         27.7504
    704067.57047    559953.10544  20223506.9384                   20223506.2154
        46.0004         29.2504
   1523537.45346   1192809.05142  22576847.1174                   22576847.4104
        39.5004         17.2504
 19  3  5 22  8 50.0000000  0  7G07G11G13G27G28G30G08
   1501722.50847   1173102.71143  21616201.2194                   21616197.9414
        44.2504         22.5004
   1281180.145 6                  22935901.781
        40.500
   -214707.98047   -134002.94143  21696644.1804                   21696640.9064
        43.2504         22.5004
   2045791.973 5                  24975393.406
        30.500
     34710.73047     56281.69944  20693518.6954                   20693515.3094
        46.2504         28.0004
    695517.96147    553291.07444  20221879.7274                   20221879.5634
        46.5004         29.0004
   1524216.03146   1193337.83242  22576976.8594                   22576976.4924
        39.2504         17.2504
 19  3  5 22  8 55.0000000  0  7G07G11G13G27G28G30G08
   1502157.82847   1173441.93043  21616283.5474                   21616281.2464
        43.7504         22.5004
   1258587.336 6                  22931602.133
        40.250
   -234107.96147   -149119.81244  21692952.4844                   21692949.3164
        43.0004         24.2504
   2052605.160 5                  24976689.422
        32.250
     18011.14147     43269.03544  20690340.7734                   20690337.4774
        45.7504         27.7504
    686993.64547    546648.75444  20220257.7114                   20220257.4414
        46.0004         29.0004
   1524919.71946   1193886.15642  22577110.3444                   22577110.1094
        39.5004         16.7504
 19  3  5 22  9  0.0000000  0  7G07G11G13G27G28G30G08
