     2.11           OBSERVATION DATA    G (GPS)             RINEX VERSION / TYPE
teqc  2019Feb25     Martin Truffer      20190308 01:06:09UTCPGM / RUN BY / DATE
Linux 2.6.32-573.12.1.x86_64|x86_64|gcc|Linux 64|=+         COMMENT
BIT 2 OF LLI FLAGS DATA COLLECTED UNDER A/S CONDITION       COMMENT
51890662                                                    MARKER NAME
5189                                                        MARKER NUMBER
-Unknown-           -Unknown-                               OBSERVER / AGENCY
0220315189          TRIMBLE 5700        2.30                REC # / TYPE / VERS
-Unknown-           TRM41249.00     NONE                    ANT # / TYPE
 -1793672.6608 -3483923.1032  5018166.9765                  APPROX POSITION XYZ
        0.0530        0.0000        0.0000                  ANTENNA: DELTA H/E/N
     1     1                                                WAVELENGTH FACT L1/2
     7    L1    L2    C1    P1    P2    S1    S2            # / TYPES OF OBSERV
    18                                                      LEAP SECONDS
 SNR is mapped to RINEX snr flag value [0-9]                COMMENT
  L1 & L2: min(max(int(snr_dBHz/6), 0), 9)                  COMMENT
  2019     3     7    18     1   50.0000000     GPS         TIME OF FIRST OBS
                                                            END OF HEADER
 19  3  7 18  1 50.0000000  0  5G07G09G16G23G26
   -229284.60957   -114233.52054  22814772.5944                   22814770.2274
        45.7504         29.7504
   -183078.46957    -91424.90656  20579570.8204                   20579569.6294
        47.7504         38.0004
   -128666.80957    -55156.56253  20730280.8444                   20730277.0434
        42.0004         23.2504
    -97086.27058    -49221.23456  20319071.9774                   20319066.2154
        48.7504         37.0004
    -26117.94157    -11063.27354  21748572.6644                   21748572.8874
        43.5004         26.0004
 19  3  7 18  1 55.0000000  0  5G07G09G16G23G26
   -255281.29747   -134490.66044  22809825.2584                   22809823.4774
        44.7504         29.0004
   -203740.68448   -107525.33246  20575639.8674                   20575637.9184
        48.0004         38.0004
   -143239.37147    -66511.80943  20727507.9384                   20727504.1844
        43.0004         22.5004
   -108127.93048    -57825.13746  20316970.2034                   20316965.0274
        48.5004         37.0004
    -29140.42247    -13418.44944  21747997.7584                   21747997.5164
        42.7504         26.2504
 19  3  7 18  2  0.0000000  0  5G07G09G16G23G26
   -281260.07047   -154733.84444  22804882.7894                   22804879.5864
        46.0004         28.0004
   -224379.78547   -123607.73846  20571711.9534                   20571710.3164
        47.7504         37.0004
   -157780.38346    -77842.45743  20724740.6484                   20724736.7854
        41.5004         23.2504
   -119144.86748    -66409.75046  20314874.2114                   20314868.5434
        48.0004         36.2504
    -32135.67246    -15752.42243  21747427.8204                   21747427.6334
        41.0004         23.7504
 19  3  7 18  2  5.0000000  0  5G07G09G16G23G26
   -307216.46147   -174959.60244  22799944.3134                   22799940.4414
        47.5004         29.2504
   -244991.27048   -139668.66846  20567790.3054                   20567788.4344
        48.2504         37.7504
   -172285.48847    -89145.19944  20721980.5394                   20721976.6914
        44.7504         29.0004
   -130132.60948    -74971.63345  20312783.4844                   20312777.8054
        48.2504         35.5004
    -35099.12146    -18061.63343  21746862.9454                   21746864.0124
        41.0004         22.5004
 19  3  7 18  2 10.0000000  0  5G07G09G16G23G26
   -333147.34047   -195165.43744  22795009.5234                   22795005.7934
        46.7504         28.7504
   -265571.97347   -155705.57046  20563873.0554                   20563871.2894
        47.7504         37.7504
   -186751.35947   -100417.29344  20719227.5234                   20719223.7664
        45.2504         29.2504
   -141087.95348    -83508.27046  20310698.4144                   20310692.5164
        48.5004         36.2504
    -38027.97346    -20343.82844  21746305.0864                   21746306.3364
        40.5004         24.0004
 19  3  7 18  2 15.0000000  0  5G07G09G16G23G26
   -359050.31247   -215349.61344  22790079.8674                   22790076.1954
        45.0004         26.5004
   -286119.53947   -171716.66046  20559962.5164                   20559961.7034
        47.2504         38.0004
   -201175.69147   -111657.02344  20716482.5784                   20716479.1414
        44.7504         29.5004
   -152008.61748    -92017.86746  20308620.3204                   20308614.7424
        48.0004         36.5004
    -40919.71946    -22597.14143  21745755.7034                   21745755.9494
        40.7504         23.2504
 19  3  7 18  2 20.0000000  0  5G07G09G16G23G26
   -384923.56647   -235510.55544  22785155.9774                   22785153.4774
        45.5004         29.0004
   -306632.15648   -187700.51246  20556059.8834                   20556058.3014
        48.2504         37.7504
   -215556.68447   -122863.01244  20713746.3524                   20713742.1994
        43.5004         27.2504
   -162892.77047   -100499.03545  20306549.4384                   20306543.7074
        47.5004         35.2504
    -43772.53946    -24820.10543  21745211.9614                   21745213.1214
        40.7504         22.5004
 19  3  7 18  2 25.0000000  0  5G07G09G16G23G26
   -410765.52747   -255647.14144  22780239.4064                   22780235.5044
        46.7504         27.5004
   -327108.27748   -203655.93046  20552163.6644                   20552161.4614
        48.0004         37.5004
   -229892.82847   -134034.01244  20711018.4144                   20711013.8794
        46.0004         28.0004
   -173738.81648   -108950.50445  20304485.5234                   20304479.4064
        48.7504         35.2504
    -46584.98846    -27011.64843  21744676.5314                   21744678.2274
        41.5004         22.0004
 19  3  7 18  2 30.0000000  0  5G07G09G16G23G26
   -436575.55947   -275758.86744  22775327.5864                   22775324.1954
        46.5004         28.5004
   -347547.24648   -219582.41446  20548274.2734                   20548272.5314
        48.0004         37.0004
   -244183.39847   -145169.53144  20708299.0004                   20708295.0234
        43.2504         26.0004
   -184546.15248   -117371.81646  20302428.3134                   20302422.9454
        48.5004         36.2504
    -49356.43046    -29171.18443  21744150.1484                   21744150.9494
        41.5004         22.7504
 19  3  7 18  2 35.0000000  0  5G07G09G16G23G26
   -462352.77347   -295845.01244  22770420.8364                   22770419.0004
        44.0004         28.7504
   -367948.12548   -235479.20746  20544391.9844                   20544390.1914
        48.0004         37.7504
   -258427.54347   -156268.87544  20705588.1484                   20705583.9924
        42.5004         25.2504
   -195313.86347   -125762.24646  20300379.5234                   20300373.6454
        47.7504         36.5004
    -52085.70747    -31297.92644  21743630.8204                   21743631.5124
        42.0004         24.2504
 19  3  7 18  2 40.0000000  0  5G07G09G16G23G26
   -488096.32047   -315904.88744  22765522.7194                   22765519.7934
        46.0004         26.7504
   -388310.10547   -251345.68046  20540516.8364                   20540515.5354
        47.5004         37.5004
   -272624.46147   -167331.39544  20702886.4774                   20702882.7384
        43.7504         26.5004
   -206041.16447   -134121.17245  20298338.5004                   20298332.8524
        47.5004         35.7504
    -54772.21546    -33391.29344  21743119.7664                   21743119.6954
        41.7504         24.5004
 19  3  7 18  2 45.0000000  0  5G07G09G16G23G26
   -513806.25447   -335938.59844  22760630.5004                   22760627.4454
        46.5004         28.2504
   -408633.14147   -267181.82446  20536649.5314                   20536648.0984
        47.7504         37.5004
   -286774.05547   -178357.02344  20700193.7424                   20700190.3094
        43.2504         24.5004
   -216727.96948   -142448.55946  20296304.7664                   20296299.1094
        48.0004         36.5004
    -57415.91447    -35451.31244  21742616.7664                   21742616.8914
        42.0004         25.0004
 19  3  7 18  2 50.0000000  0  5G07G09G16G23G26
   -539481.85947   -355945.55944  22755743.5554                   22755741.3524
        44.5004         27.7504
   -428916.65247   -282987.11746  20532789.2504                   20532788.2234
        47.5004         37.0004
   -300875.83647   -189345.44544  20697510.6334                   20697506.5634
        44.5004         27.0004
   -227373.67648   -150743.88745  20294278.9774                   20294273.1374
        48.0004         34.2504
    -60016.22346    -37477.51244  21742122.7344                   21742122.2344
        41.5004         24.5004
 19  3  7 18  2 55.0000000  0  5G07G09G16G23G26
   -565123.37547   -375925.95344  22750864.5704                   22750862.0274
        45.5004         28.0004
   -449160.83647   -298761.82846  20528936.1954                   20528936.0434
        46.5004         37.0004
   -314929.87547   -200296.63744  20694836.3444                   20694832.0594
        43.0004         26.5004
   -237978.47348   -159007.37545  20292261.1094                   20292254.9884
        48.0004         34.2504
    -62573.27747    -39470.03144  21741636.0084                   21741635.6764
        43.0004         24.0004
 19  3  7 18  3  0.0000000  0  5G07G09G16G23G26
   -590730.90247   -395879.88344  22745991.7194                   22745989.4654
        45.7504         28.0004
   -469365.73847   -314505.93046  20525091.7194                   20525091.2734
        47.0004         37.2504
   -328936.33647   -211210.76244  20692170.4534                   20692167.0274
        42.2504         25.5004
   -248542.46547   -167239.08246  20290250.7814                   20290245.1054
        47.5004         36.2504
    -65087.28546    -41429.00844  21741157.0474                   21741157.3134
        41.5004         24.7504
 19  3  7 18  3  5.0000000  0  5G07G09G16G23G26
   -616304.24247   -415807.11744  22741125.6954                   22741122.9924
        46.2504         28.7504
   -489531.17247   -330219.23046  20521254.3444                   20521254.1334
        47.2504         37.2504
   -342895.01647   -222087.67244  20689514.2974                   20689510.6334
        44.5004         28.7504
   -259065.48448   -175438.81645  20288248.0004                   20288242.3914
        48.2504         35.0004
    -67558.02747    -43354.22344  21740687.2814                   21740686.9924
        42.7504         25.2504
 19  3  7 18  3 10.0000000  0  5G07G09G16G23G26
   -641843.81247   -435708.09444  22736265.7424                   22736262.2774
        46.5004         28.5004
   -509657.57847   -345902.14846  20517425.1884                   20517424.1174
        47.5004         37.0004
   -356806.36747   -232927.68744  20686867.6954                   20686863.5204
        44.5004         27.5004
   -269547.94148   -183606.96945  20286253.4064                   20286248.0904
        48.2504         35.2504
    -69985.91047    -45246.10544  21740225.7114                   21740225.2584
        42.7504         25.0004
 19  3  7 18  3 15.0000000  0  5G07G09G16G23G26
   -667349.49247   -455582.66044  22731411.6724                   22731409.1484
        46.0004         29.0004
   -529744.80147   -361554.52746  20513601.9304                   20513601.3954
        47.7504         37.0004
   -370670.17247   -243730.65644  20684229.1094                   20684225.3134
        44.7504         27.7504
   -279989.73448   -191743.44145  20284266.3914                   20284260.9774
        48.0004         35.0004
    -72370.85247    -47104.50044  21739771.2584                   21739771.2544
        43.2504         26.0004
 19  3  7 18  3 20.0000000  0  5G07G09G16G23G26
   -692821.61747   -475431.04744  22726565.8364                   22726562.2624
        47.5004         28.2504
   -549793.17248   -377176.63346  20509787.8674                   20509786.5904
        48.0004         37.5004
   -384486.82847   -254496.88744  20681599.9924                   20681596.2034
        44.7504         27.7504
   -290391.12547   -199848.43045  20282287.1174                   20282281.5864
        47.7504         35.2504
    -74713.13747    -48929.67244  21739325.3364                   21739325.4344
        43.5004         25.2504
 19  3  7 18  3 25.0000000  0  5G07G09G16G23G26
   -718260.35547   -495253.41444  22721725.2894                   22721721.5084
        47.0004         26.5004
   -569802.87948   -392768.59846  20505980.2424                   20505978.4844
        48.0004         36.0004
   -398256.51647   -265226.48844  20678979.6174                   20678975.8484
        43.7504         25.7504
   -300752.36747   -207922.10945  20280315.6724                   20280309.9064
        47.5004         33.5004
    -77013.00447    -50721.77044  21738887.4614                   21738888.1644
        43.2504         26.0004
 19  3  7 18  3 30.0000000  0  5G07G09G16G23G26
   -743665.86347   -515049.91044  22716891.1564                   22716886.8634
        47.2504         26.5004
   -589774.07448   -408330.57045  20502179.7344                   20502178.3094
        48.0004         35.5004
   -411979.40647   -275919.66044  20676368.3914                   20676364.4144
        44.5004         25.2504
   -311073.58247   -215964.62145  20278351.3914                   20278345.5554
        47.7504         33.5004
    -79270.66047    -52480.97344  21738457.6094                   21738458.7194
        43.5004         25.0004
 19  3  7 18  3 35.0000000  0  5G07G09G16G23G26
    806386.82847    692783.34844  23011855.3054                   23011851.7704
        46.0004         26.2504
    965717.14148    803740.50446  20798179.7974                   20798178.3754
        48.0004         36.0004
   1149767.19547    941025.73844  20973558.6954                   20973554.9774
        43.7504         25.2504
   1254067.21547   1003625.61345  20576187.6414                   20576182.2194
        47.5004         33.2504
   1493934.28947   1173392.99644  22037829.2424                   22037829.8754
        43.7504         25.5004
 19  3  7 18  3 40.0000000  0  5G07G09G16G23G26
    781047.23848    673038.24244  23007034.1724                   23007030.4924
        48.0004         29.5004
    945822.47747    788238.16846  20794394.5704                   20794392.6684
        47.5004         36.2504
   1136137.43447    930405.15244  20970965.4144                   20970961.5004
        43.2504         26.2504
   1243825.54347    995645.09845  20574238.8364                   20574233.0394
        47.5004         34.7504
   1491760.66447   1171699.27743  22037415.0554                   22037415.8244
        42.5004         23.7504
 19  3  7 18  3 45.0000000  0  5G07G09G16G23G26
    755740.43447    653318.64144  23002217.6804                   23002214.0664
        47.5004         28.7504
    925965.87147    772765.48046  20790614.9694                   20790613.8324
        47.0004         36.5004
   1122554.03947    919820.68044  20968380.4144                   20968376.5824
        43.2504         25.7504
   1233623.39847    987695.35545  20572297.6644                   20572291.6134
        47.7504         34.5004
   1489628.68447   1170037.96143  22037010.0234                   22037010.2624
        42.5004         23.5004
 19  3  7 18  3 50.0000000  0  5G07G09G16G23G26
    730465.64147    633624.02344  22997408.1804                   22997404.2584
        47.2504         29.2504
    906146.63747    757321.93046  20786844.8834                   20786842.3094
        47.7504         36.5004
   1109016.27347    909271.77744  20965804.2584                   20965800.3554
        43.5004         26.0004
   1223460.10247    979775.91045  20570363.6564                   20570357.7154
        47.5004         34.5004
   1487537.77347   1168408.69543  22036611.7194                   22036612.1604
        42.5004         23.5004
 19  3  7 18  3 55.0000000  0  5G07G09G16G23G26
    705222.57047    613954.06644  22992602.4924                   22992600.7154
        44.5004         27.7504
    886364.40247    741907.18046  20783079.4924                   20783078.3204
        47.5004         36.7504
   1095523.78147    898758.13744  20963236.4614                   20963232.3674
        43.0004         25.5004
   1213335.26248    971886.41045  20568436.5234                   20568431.1914
        48.0004         35.0004
   1485487.50047   1166811.07843  22036222.0704                   22036222.3014
        42.7504         23.7504
 19  3  7 18  4  0.0000000  0  5G07G09G16G23G26
    680010.81347    594308.53944  22987804.9454                   22987803.0634
        46.0004         29.2504
    866618.76647    726520.98446  20779322.3204                   20779320.6374
        47.7504         37.0004
   1082076.19147    888279.49244  20960677.7194                   20960673.5864
        43.2504         25.7504
   1203248.51247    964026.59445  20566517.1724                   20566511.6134
        47.7504         34.5004
   1483477.48047   1165244.82844  22035838.9144                   22035839.5474
        42.0004         24.0004
 19  3  7 18  4  5.0000000  0  5G07G09G16G23G26
    654830.40647    574687.43444  22983013.2114                   22983011.6484
        45.2504         26.5004
    846909.77348    711163.31346  20775572.3984                   20775570.0704
        48.2504         36.7504
   1068673.53947    877835.87944  20958127.5234                   20958123.2854
        43.7504         24.2504
   1193199.91448    956196.51646  20564605.5474                   20564599.3204
        48.5004         36.0004
   1481507.77047   1163709.94144  22035464.7664                   22035464.6764
        43.0004         24.0004
 19  3  7 18  4 10.0000000  0  5G07G09G16G23G26
    629680.32047    555090.02044  22978228.9614                   22978225.5044
        47.5004         26.5004
    827236.48047    695833.48046  20771828.3284                   20771825.9924
        47.7504         36.0004
   1055314.75047    867426.43843  20955584.8984                   20955580.8714
        42.7504         23.5004
   1183188.43048    948395.37145  20562700.1094                   20562694.1484
        48.0004         34.2504
   1479577.30547   1162205.71544  22035097.0394                   22035097.3054
        42.0004         25.0004
 19  3  7 18  4 15.0000000  0  5G07G09G16G23G26
    604560.66047    535516.25444  22973449.2894                   22973445.3674
        46.5004         27.7504
    807598.91447    680531.48846  20768091.5394                   20768089.3594
        47.5004         36.0004
   1042000.02346    857051.29744  20953051.5634                   20953047.6024
        41.7504         29.5004
   1173214.12547    940623.16845  20560801.8834                   20560796.4614
        46.7504         34.0004
   1477686.40246   1160732.27043  22034736.7114                   22034737.5434
        39.5004         21.7504
 19  3  7 18  4 20.0000000  0  5G07G09G16G23G26
    579471.21147    515966.06644  22968674.3674                   22968671.0004
        46.2504         28.0004
    787996.91047    665257.18846  20764360.6174                   20764358.9454
        47.7504         37.0004
   1028728.90647    846710.19945  20950525.7584                   20950522.0274
        45.5004         30.0004
   1163276.86748    932879.84845  20558910.9924                   20558905.0314
        48.2504         35.0004
   1475834.27346   1159289.01643  22034383.4064                   22034384.6724
        39.7504         21.2504
 19  3  7 18  4 25.0000000  0  5G07G09G16G23G26
    554411.87948    496439.27744  22963906.0394                   22963902.0314
        48.0004         28.5004
    768430.28947    650010.47346  20760637.3204                   20760635.8324
        47.5004         36.7504
   1015501.52347    836403.11744  20948009.0004                   20948004.8244
        43.0004         25.0004
   1153376.46547    925165.25845  20557026.9384                   20557021.5904
        47.7504         35.0004
   1474020.92647   1157876.06343  22034039.6024                   22034039.3984
        42.5004         23.0004
 19  3  7 18  4 30.0000000  0  5G07G09G16G23G26
    529382.30547    476935.74644  22959142.6884                   22959139.2934
        46.7504         28.5004
    748898.76247    634791.10546  20756920.8204                   20756919.1844
        47.7504         36.5004
   1002317.45347    826129.83644  20945499.9144                   20945496.0864
        43.5004         24.5004
   1143512.56647    917479.11345  20555149.9614                   20555144.2194
        47.5004         34.5004
   1472246.38346   1156493.30944  22033702.1254                   22033702.2194
        41.5004         25.2504
 19  3  7 18  4 35.0000000  0  5G07G09G16G23G26
    504381.98847    457454.94544  22954385.0944                   22954382.4224
        46.2504         28.0004
    729401.81648    619598.65246  20753210.2814                   20753209.1684
        48.2504         37.2504
    989176.18447    815889.87144  20942999.0634                   20942995.6604
        43.2504         25.5004
   1133684.68047    909820.99245  20553279.7194                   20553274.3364
        47.5004         35.0004
   1470509.95747   1155140.22744  22033371.6564                   22033371.5784
        42.5004         26.5004
 19  3  7 18  4 40.0000000  0  5G07G09G16G23G26
    479410.73447    437996.81344  22949631.8594                   22949630.4264
        44.5004         26.7504
    709939.23848    604433.02046  20749506.9064                   20749505.5004
        48.0004         36.5004
    976077.53947    805683.14143  20940506.7584                   20940502.4654
        42.5004         23.7504
   1123892.63747    902190.82845  20551416.4224                   20551410.4304
        47.5004         34.2504
   1468811.44547   1153816.70744  22033048.6094                   22033048.5744
        42.5004         25.0004
 19  3  7 18  4 45.0000000  0  5G07G09G16G23G26
    454468.20747    418561.10244  22944886.8054                   22944883.9414
        46.5004         27.2504
    690510.71948    589293.90646  20745810.0634                   20745808.0744
        48.0004         36.5004
    963021.12147    795509.30144  20938022.5314                   20938018.2974
        42.5004         25.5004
   1114136.06647    894588.30945  20549559.8204                   20549554.1134
        47.7504         34.5004
   1467150.41847   1152522.40644  22032733.2274                   22032732.3524
        42.5004         25.5004
 19  3  7 18  4 50.0000000  0  5G07G09G16G23G26
    429553.80947    399147.29344  22940146.4534                   22940142.8164
        47.5004         27.0004
    671115.67248    574180.88746  20742118.7194                   20742117.3284
        48.2504         37.0004
    950006.38347    785367.95344  20935545.7894                   20935541.7424
        43.0004         25.5004
   1104414.40247    887012.98445  20547709.6954                   20547704.2344
        47.5004         34.7504
   1465526.33647   1151256.87144  22032424.2734                   22032423.4774
        42.5004         24.5004
 19  3  7 18  4 55.0000000  0  5G07G09G16G23G26
    404667.36347    379755.29344  22935409.9064                   22935406.6804
        46.5004         28.0004
    651754.00048    559093.88746  20738435.1094                   20738433.3164
        48.2504         36.5004
    937033.21147    775258.98444  20933076.4614                   20933072.8054
        43.2504         25.5004
   1094727.52347    879464.77345  20545866.1804                   20545860.7304
        47.5004         34.2504
   1463939.04746   1150020.03944  22032121.2344                   22032121.3484
        41.7504         24.5004
 19  3  7 18  5  0.0000000  0  5G07G09G16G23G26
    379808.94947    360385.10944  22930680.8834                   22930676.1954
        47.5004         27.5004
    632425.68848    544032.84046  20734755.9694                   20734755.1134
        48.0004         36.2504
    924101.60947    765182.39844  20930616.2974                   20930612.0744
        43.0004         24.0004
   1085075.45347    871943.66845  20544029.6644                   20544024.0474
        47.5004         34.5004
   1462388.59847   1148811.88344  22031826.4064                   22031826.3984
        42.5004         25.0004
 19  3  7 18  5  5.0000000  0  5G07G09G16G23G26
    354977.84447    341036.17644  22925953.6804                   22925951.5354
        46.0004         27.0004
    613130.03148    528997.27046  20731085.1094                   20731083.0394
        48.2504         36.7504
    911210.80147    755137.62544  20928162.9614                   20928159.2194
        42.5004         25.2504
   1075457.41847    864449.09445  20542199.1724                   20542193.7734
        47.0004         34.5004
   1460874.17247   1147631.81344  22031537.9064                   22031538.1294
        42.2504         24.5004
 19  3  7 18  5 10.0000000  0  5G07G09G16G23G26
    330173.88347    321708.45344  22921234.5944                   22921231.1254
        46.0004         26.2504
    593866.93047    513987.05545  20727418.5554                   20727417.5084
        47.2504         35.7504
    898360.76247    745124.60544  20925717.6334                   20925713.8634
        42.2504         24.5004
   1065873.33647    856980.98045  20540375.5394                   20540369.5864
        47.2504         34.0004
   1459395.73846   1146479.78943  22031255.9614                   22031256.8984
        41.2504         22.0004
 19  3  7 18  5 15.0000000  0  5G07G09G16G23G26
    305397.20347    302401.96544  22916520.4304                   22916516.1914
        47.5004         27.5004
    574636.36747    499002.19146  20723759.1094                   20723757.6054
        47.7504         36.2504
    885551.43847    735143.28944  20923280.4774                   20923276.6374
        44.5004         27.0004
   1056323.23448    849539.32845  20538558.4844                   20538552.3594
        48.0004         34.5004
   1457953.16847   1145355.69543  22030982.7504                   22030982.4454
        42.7504         22.0004
 19  3  7 18  5 20.0000000  0  5G07G09G16G23G26
    280646.60547    283115.81644  22911810.6484                   22911806.2894
        47.2504         27.0004
    555437.31648    484041.89146  20720105.9144                   20720104.5314
        48.2504         36.0004
    872781.78547    725192.92244  20920850.2584                   20920846.1604
        43.5004         25.0004
   1046806.00848    842123.30545  20536747.0084                   20536741.4844
        48.2504         35.2504
   1456545.56646   1144258.86743  22030714.0634                   22030714.4964
        41.0004         21.0004
 19  3  7 18  5 25.0000000  0  5G07G09G16G23G26
    255922.75847    263850.47344  22907105.2274                   22907101.8284
        45.7504         26.7504
    536270.35247    469106.63346  20716458.1334                   20716456.8914
        47.7504         36.0004
    860052.42247    715273.98843  20918427.7114                   20918424.1764
        42.5004         22.5004
   1037322.16047    834733.32845  20534942.5314                   20534936.7344
        47.7504         33.5004
   1455173.11347   1143189.43443  22030452.4454                   22030453.1684
        42.5004         21.2504
 19  3  7 18  5 30.0000000  0  5G07G09G16G23G26
    231225.43447    244605.82444  22902405.5864                   22902401.8204
        47.2504         28.5004
    517135.30147    454196.17246  20712816.7734                   20712815.4734
        47.7504         36.0004
    847362.97347    705386.07843  20916013.2584                   20916009.3484
        43.5004         22.5004
   1027871.76248    827369.36345  20533144.5944                   20533138.3524
        48.5004         34.5004
   1453836.37946   1142147.77043  22030198.5634                   22030198.8244
        37.2504         22.0004
 19  3  7 18  5 35.0000000  0  5G07G09G16G23G26
    206553.33647    225380.80544  22897710.5554                   22897706.9494
        47.0004         28.2504
    498030.82447    439309.57046  20709181.0634                   20709180.2894
        47.2504         36.0004
    834712.32847    695528.40645  20913605.8914                   20913602.0234
        46.2504         30.0004
   1018453.26248    820030.27745  20531351.8364                   20531346.4614
        48.0004         34.0004
   1452533.02046   1141132.22743  22029950.4614                   22029950.6954
        39.2504         21.0004
 19  3  7 18  5 40.0000000  0  5G07G09G16G23G26
    181906.00847    206175.13744  22893021.2424                   22893016.4024
        47.2504         28.2504
    478956.52348    424446.48046  20705552.4534                   20705550.9964
        48.2504         37.0004
    822100.02047    685700.65244  20911205.7664                   20911201.8164
        44.2504         25.7504
   1009066.32048    812715.79345  20529565.9614                   20529559.9224
        48.0004         34.0004
   1451263.33247   1140142.78545  22029708.7734                   22029708.9774
        46.7504         33.2504
 19  3  7 18  5 45.0000000  0  5G07G09G16G23G26
    157284.64147    186989.61344  22888334.0554                   22888331.5434
        45.7504         28.5004
    459913.51648    409607.77046  20701928.5164                   20701926.7774
        48.2504         36.5004
    809527.08647    675903.55145  20908813.4774                   20908809.2154
        46.5004         31.2504
    999712.05148    805426.73445  20527785.7424                   20527780.0084
        48.0004         34.2504
   1450028.21947   1139180.40645  22029473.2974                   22029474.4884
        45.2504         32.5004
 19  3  7 18  5 50.0000000  0  5G07G09G16G23G26
    132688.62947    167823.93444  22883653.7344                   22883651.4804
        46.5004         29.0004
    440901.28548    394793.04346  20698310.7734                   20698308.8634
        48.5004         36.5004
    796993.09847    666136.81345  20906428.3364                   20906424.7424
        46.5004         31.2504
    990389.88748    798162.71145  20526011.7664                   20526005.5434
        48.2504         34.2504
   1448827.11347   1138244.46145  22029245.8054                   22029245.7464
        45.7504         33.0004
 19  3  7 18  5 55.0000000  0  5G07G09G16G23G26
    108118.12147    148678.09044  22878979.7664                   22878975.0164
        47.7504         27.7504
    421919.91848    380002.37546  20694699.5004                   20694697.1644
        48.7504         36.7504
    784498.15647    656400.48845  20904050.6724                   20904046.5124
        46.5004         31.2504
    981100.00848    790923.84845  20524244.1414                   20524237.7774
        48.5004         34.0004
   1447660.15647   1137335.13345  22029023.1724                   22029023.3674
        46.0004         32.5004
 19  3  7 18  6  0.0000000  0  5G07G09G16G23G26
     83572.52047    129551.68044  22874308.7194                   22874304.2304
        47.2504         28.5004
    402968.86348    365235.31646  20691093.0864                   20691090.9844
        48.7504         36.7504
    772041.62147    646694.09845  20901680.0084                   20901676.0394
        46.0004         31.2504
    971841.80548    783709.66445  20522481.9454                   20522475.7274
        48.2504         34.5004
   1446526.73447   1136451.94545  22028807.1884                   22028807.9804
        45.5004         32.5004
 19  3  7 18  6  5.0000000  0  5G07G09G16G23G26
     59051.79747    110444.58644  22869641.5864                   22869638.1134
        46.5004         28.7504
    384048.06348    350491.83246  20687492.5234                   20687490.2584
        48.5004         36.7504
    759623.42647    637017.57845  20899317.2274                   20899312.8054
        46.0004         30.5004
    962615.17248    776520.06345  20520726.5784                   20520720.3754
        48.0004         34.0004
   1445426.75447   1135594.80945  22028598.1564                   22028598.1914
        45.5004         32.5004
 19  3  7 18  6 10.0000000  0  5G07G09G16G23G26
     34555.20747     91356.35244  22864980.1254                   22864976.5704
        47.0004         27.2504
    365156.80148    335771.36746  20683897.1724                   20683895.2234
        48.5004         36.7504
    747242.86347    627370.39545  20896960.8674                   20896956.7664
        45.5004         30.0004
    953419.39148    769354.53145  20518976.6024                   20518970.2304
        48.2504         34.0004
   1444359.48447   1134763.17645  22028395.5234                   22028395.1484
        45.7504         33.0004
 19  3  7 18  6 15.0000000  0  5G07G09G16G23G26
     10082.87547     72287.03144  22860323.8364                   22860319.2194
        46.5004         27.0004
    346295.23848    321074.03146  20680308.1334                   20680306.1134
        48.2504         36.7504
    734900.11347    617752.65245  20894612.6254                   20894608.3164
        45.7504         30.7504
    944254.67248    762213.18845  20517232.5084                   20517226.3914
        48.5004         33.7504
   1443325.11347   1133957.16445  22028198.5704                   22028198.7234
        46.0004         32.5004
 19  3  7 18  6 20.0000000  0  5G07G09G16G23G26
    -14365.22347     53236.52344  22855669.9694                   22855667.7074
        45.7504         27.5004
    327463.28148    306399.79346  20676724.6724                   20676722.4964
        48.5004         37.0004
    722595.04747    608164.28945  20892270.8054                   20892266.8284
        47.0004         31.5004
    935120.82048    755095.90645  20515494.5164                   20515488.5864
        48.0004         33.5004
   1442323.44947   1133176.64545  22028007.6954                   22028007.8634
        46.0004         32.0004
 19  3  7 18  6 25.0000000  0  5G07G09G16G23G26
    -38789.53547     34204.64544  22851023.4454                   22851019.6564
        47.0004         28.7504
    308660.54348    291748.29346  20673145.9534                   20673144.4654
        48.0004         37.0004
    710327.31647    598605.02045  20889936.2424                   20889932.3014
        47.0004         31.5004
    926017.57048    748002.44145  20513762.2344                   20513756.0824
        48.0004         34.7504
   1441354.19547   1132421.36745  22027823.6644                   22027823.2274
        45.5004         32.0004
 19  3  7 18  6 30.0000000  0  5G07G09G16G23G26
    -63190.52047     15190.87944  22846379.8754                   22846376.3364
        47.0004         28.5004
    289886.53948    277119.19946  20669574.0084                   20669571.8014
        48.0004         36.7504
    698096.26647    589074.33645  20887608.6414                   20887604.3674
        46.0004         30.0004
    916944.36748    740932.41045  20512035.7734                   20512029.6994
        48.5004         34.5004
   1440416.75447   1131690.90245  22027645.2344                   22027644.8204
        46.0004         31.7504
 19  3  7 18  6 35.0000000  0  5G07G09G16G23G26
    -87567.96547     -3804.48844  22841741.5084                   22841737.3524
        47.5004         27.5004
    271141.50847    262512.68846  20666005.9924                   20666005.0664
        47.7504         36.2504
    685902.32047    579572.55545  20885288.3204                   20885284.1684
        47.0004         31.0004
    907901.49648    733886.02345  20510314.9064                   20510308.5204
        48.5004         34.7504
   1439511.43047   1130985.43845  22027472.8754                   22027472.9414
        46.0004         32.0004
 19  3  7 18  6 40.0000000  0  5G07G09G16G23G26
   -111922.15647    -22781.81244  22837106.3204                   22837103.0164
        47.0004         27.7504
    252425.15648    247928.51246  20662444.8204                   20662443.5434
        48.0004         36.2504
    673745.09047    570099.39145  20882974.6484                   20882970.6374
        46.2504         31.2504
    898888.59848    726863.00045  20508599.4304                   20508593.8754
        48.0004         34.2504
   1438637.82447   1130304.70345  22027306.4774                   22027306.6524
        45.7504         32.5004
 19  3  7 18  6 45.0000000  0  5G07G09G16G23G26
   -136253.46547    -41741.23844  22832476.6884                   22832472.7934
        47.0004         28.2504
    233737.08247    233366.37546  20658888.1174                   20658887.1484
        47.7504         36.7504
    661624.17247    560654.52045  20880668.2734                   20880664.3914
        46.2504         30.7504
    889905.28548    719862.98845  20506890.1564                   20506884.2034
        48.2504         34.5004
   1437795.59047   1129648.41045  22027145.8674                   22027146.2934
        45.7504         32.0004
 19  3  7 18  6 50.0000000  0  5G07G09G16G23G26
   -160562.13747    -60683.04744  22827851.6564                   22827847.5744
        47.7504         28.2504
    215077.07047    218826.10546  20655337.6884                   20655336.0634
        47.7504         36.7504
    649539.36747    551237.77745  20878368.5164                   20878364.3954
        46.2504         31.0004
    880951.32848    712885.88745  20505186.1334                   20505180.4414
        48.5004         34.5004
   1436984.45347   1129016.35545  22026991.4844                   22026991.6994
        45.5004         32.0004
 19  3  7 18  6 55.0000000  0  5G07G09G16G23G26
   -184848.50047    -79607.48444  22823229.9844                   22823225.6414
        47.0004         28.5004
    196444.84448    204307.48446  20651792.4774                   20651790.8284
        48.0004         36.7504
    637490.38747    541848.96145  20876075.4614                   20876071.6954
        46.5004         31.5004
    872026.47348    705931.45745  20503488.1254                   20503482.3134
        48.5004         34.5004
   1436204.14147   1128408.31645  22026843.2274                   22026843.7194
        45.5004         32.2504
 19  3  7 18  7  0.0000000  0  5G07G09G16G23G26
   -209112.39847    -98514.43044  22818611.4064                   22818608.2624
        46.0004         27.2504
    177840.47747    189810.57046  20648251.4844                   20648250.1804
        47.7504         36.5004
    625477.33647    532488.14545  20873790.0704                   20873785.8054
        46.2504         31.2504
    863130.76648    698999.73045  20501795.0634                   20501789.3014
        48.2504         33.7504
   1435454.69547   1127824.32445  22026700.6644                   22026700.6094
        45.7504         32.0004
 19  3  7 18  7  5.0000000  0  5G07G09G16G23G26
   -233353.78947   -117403.78544  22813998.0634                   22813995.2344
        46.0004         27.5004
    159264.07048    175335.44946  20644717.1174                   20644715.2704
        48.0004         37.0004
    613500.07447    523155.21145  20871510.8204                   20871506.3634
        46.5004         30.7504
    854264.17248    692090.69945  20500108.2194                   20500101.6564
        48.2504         34.0004
   1434736.01247   1127264.31345  22026563.3364                   22026564.2464
        45.5004         32.0004
 19  3  7 18  7 10.0000000  0  5G07G09G16G23G26
   -257566.42647   -136270.77044  22809390.8834                   22809388.7114
        44.5004         25.5004
    140722.41447    160887.41846  20641188.5864                   20641186.7344
        47.5004         36.7504
    601549.85247    513843.37545  20869236.4694                   20869232.5904
        45.5004         31.7504
    845423.62148    685201.96145  20498425.9064                   20498420.1644
        48.2504         34.0004
   1434042.97347   1126724.28545  22026432.2034                   22026432.3204
        46.5004         33.5004
 19  3  7 18  7 15.0000000  0  5G07G09G16G23G26
   -281751.74247   -155116.45344  22804789.1094                   22804785.5944
        44.7504         25.2504
    122214.64147    146465.77045  20637666.7974                   20637664.9884
        47.2504         35.5004
    589630.04747    504555.22345  20866968.7194                   20866964.3094
        46.0004         31.7504
    836610.92248    678334.92245  20496748.5164                   20496742.6684
        48.5004         34.2504
   1433378.27047   1126206.33245  22026305.8914                   22026305.5434
        46.7504         33.7504
 19  3  7 18  7 20.0000000  0  5G07G09G16G23G26
   -305918.61347   -173947.80144  22800190.8444                   22800186.5904
        46.7504         28.0004
    103731.44148    132063.26246  20634149.5944                   20634148.4144
        48.0004         36.7504
    577747.91047    495296.37145  20864707.3284                   20864703.1684
        46.0004         31.0004
    827826.75448    671490.09045  20495076.9774                   20495071.3834
        48.2504         34.0004
   1432746.37547   1125713.93045  22026185.6254                   22026185.6334
        46.0004         32.2504
 19  3  7 18  7 25.0000000  0  5G07G09G16G23G26
   -330063.22747   -192761.75044  22795595.2894                   22795592.2774
        45.2504         26.5004
     85274.48847    117681.23446  20630636.9614                   20630635.5904
        47.7504         36.5004
    565900.11747    486064.34445  20862452.4454                   20862449.0664
        45.5004         30.5004
    819070.48447    664667.03145  20493410.3364                   20493405.1994
        47.7504         34.0004
   1432142.45347   1125243.33645  22026070.1954                   22026070.7774
        46.2504         31.5004
 19  3  7 18  7 30.0000000  0  5G07G09G16G23G26
   -354185.81647   -211558.59044  22791005.2734                   22791002.0594
        45.5004         25.0004
     66845.06647    103320.63745  20627130.3524                   20627128.5204
        47.5004         35.0004
    554084.71547    476857.53545  20860204.0164                   20860199.8594
        45.7504         30.5004
    810341.05148    657864.86745  20491749.5004                   20491743.6884
        48.5004         33.0004
   1431566.80147   1124794.76645  22025960.9924                   22025960.9964
        45.7504         31.7504
 19  3  7 18  7 35.0000000  0  5G07G09G16G23G26
   -378284.91247   -230337.10544  22786421.7114                   22786414.1484
        47.0004         26.0004
     48443.86748     88982.02245  20623632.7734                   20623625.6414
        49.5004         34.7504
    542302.26648    467676.38344  20857964.5234                   20857956.1644
        48.0004         29.2504
    801639.35548    651084.32045  20490097.7344                   20490085.2274
        50.2504         31.5004
   1431018.54348   1124367.54345  22025858.9844                   22025854.2974
        49.0004         31.7504
 19  3  7 18  7 40.0000000  0  5G07G09G16G23G26
   -402363.68547   -249099.77844  22781836.6644                   22781834.6954
        45.7504         28.7504
     30068.67047     74663.66545  20620131.8364                   20620132.0554
        47.5004         35.0004
    530552.60247    458520.79345  20855726.1804                   20855723.2114
        46.5004         31.2504
    792963.98148    644324.26545  20488442.9844                   20488438.0744
        49.0004         33.7504
   1430498.46947   1123962.27345  22025757.1414                   22025758.7424
        46.0004         32.2504
 19  3  7 18  7 45.0000000  0  5G07G09G16G23G26
   -426424.97347   -267848.81244  22777258.2584                   22777256.9804
        45.5004         28.0004
     11717.23848     60363.87146  20616640.0704                   20616639.4614
        48.0004         36.0004
    518836.36347    449391.26245  20853496.9144                   20853493.9344
        45.5004         31.7504
    784314.52048    637584.44945  20486796.9454                   20486792.2774
        48.5004         34.7504
   1430007.11347   1123579.39145  22025663.9614                   22025665.4144
        45.5004         32.2504
 19  3  7 18  7 50.0000000  0  5G07G09G16G23G26
   -450468.59047   -286584.11744  22772682.5164                   22772679.8914
        46.0004         27.2504
     -6612.30947     46081.07846  20613151.8054                   20613151.5164
        47.2504         36.0004
    507155.35547    440289.16845  20851274.0554                   20851270.7114
        46.5004         32.5004
    775691.73448    630865.36745  20485156.1414                   20485151.5664
        49.0004         34.7504
   1429543.87547   1123218.41045  22025576.0474                   22025577.7624
        46.2504         33.5004
 19  3  7 18  7 55.0000000  0  5G07G09G16G23G26
   -474492.63747   -305304.12944  22768111.2584                   22768109.1844
        45.0004         28.0004
    -24916.50847     31818.08246  20609668.7274                   20609668.3794
        47.7504         36.2504
    495509.37947    431214.37545  20849057.7424                   20849054.6994
        46.5004         33.2504
    767096.70748    624167.94545  20483520.7034                   20483515.9104
        48.7504         34.7504
   1429109.89847   1122880.25045  22025493.6174                   22025494.9924
        46.0004         33.7504
 19  3  7 18  8  0.0000000  0  5G07G09G16G23G26
   -498492.60547   -324005.39144  22763543.6254                   22763542.9144
        44.7504         27.5004
    -43190.80147     17578.37946  20606191.0704                   20606191.4454
        47.7504         36.0004
    483894.06647    422163.48845  20846846.8594                   20846844.6334
        45.5004         30.7504
    758528.00448    617491.04745  20481889.3524                   20481885.3984
        48.0004         33.7504
   1428703.53947   1122563.59845  22025416.0084                   22025417.8714
        45.2504         31.0004
 19  3  7 18  8  5.0000000  0  5G07G09G16G23G26
   -522469.88447   -342688.97944  22758982.0314                   22758979.7034
        46.7504         27.7504
    -61435.29747      3361.87746  20602719.2274                   20602719.0984
        47.7504         36.5004
    472315.03947    413140.88345  20844643.8524                   20844641.2034
        45.5004         31.5004
    749988.88448    610837.17245  20480265.4454                   20480260.4844
        48.5004         34.7504
   1428330.17647   1122272.66045  22025345.4774                   22025346.5514
        45.0004         31.5004
 19  3  7 18  8 10.0000000  0  5G07G09G16G23G26
   -546425.35247   -361355.57844  22754423.2584                   22754421.2424
        45.0004         28.2504
    -79653.10247    -10833.81246  20599252.6564                   20599252.5434
        47.2504         36.0004
    460772.59447    404146.75045  20842446.9924                   20842444.9224
        46.0004         31.5004
    741479.01648    604206.10545  20478645.5864                   20478641.0044
        48.2504         34.0004
   1427987.41847   1122005.56645  22025279.7194                   22025281.8164
        46.0004         32.0004
 19  3  7 18  8 15.0000000  0  5G07G09G16G23G26
   -570359.71547   -380005.71544  22749868.2424                   22749865.7734
        45.7504         27.5004
    -97845.12148    -25009.39146  20595791.2344                   20595790.3754
        48.0004         36.0004
    449266.03147    395180.62945  20840257.9614                   20840255.0824
        46.2504         32.5004
    732997.75848    597597.35545  20477032.1564                   20477027.2664
        49.0004         34.7504
   1427673.95747   1121761.34045  22025220.3834                   22025221.7194
        46.5004         32.5004
 19  3  7 18  8 20.0000000  0  5G07G09G16G23G26
   -594271.43747   -398638.25044  22745318.9844                   22745316.6134
        45.0004         27.0004
   -116011.10547    -39164.73046  20592334.0474                   20592334.2234
        47.5004         36.2504
    437790.28547    386238.46945  20838074.7114                   20838071.8714
        46.5004         32.0004
    724542.25048    591008.63345  20475422.6954                   20475418.7154
        48.0004         34.2504
   1427385.02047   1121536.16045  22025165.7034                   22025167.5004
        46.7504         33.7504
 19  3  7 18  8 25.0000000  0  5G07G09G16G23G26
   -618169.46947   -417260.06644  22740771.1024                   22740768.5864
        46.5004         26.5004
   -134155.18447    -53302.95345  20588881.3984                   20588881.1214
        47.5004         35.2504
    426346.47347    377321.21945  20835896.3524                   20835893.6994
        46.2504         31.7504
    716110.21548    584438.21545  20473818.4384                   20473813.4064
        49.0004         34.7504
   1427125.30147   1121333.77345  22025115.8134                   22025117.8594
        45.0004         30.5004
 19  3  7 18  8 30.0000000  0  5G07G09G16G23G26
   -642046.17647   -435865.28944  22736226.5084                   22736224.6644
        45.2504         25.5004
   -152273.47747    -67421.12545  20585433.2274                   20585433.5164
        47.0004         34.7504
    414938.33247    368431.75445  20833725.4454                   20833722.9734
        46.2504         31.2504
    707706.91048    577890.18445  20472219.2504                   20472214.6174
        48.0004         33.7504
   1426894.12147   1121153.63345  22025071.7424                   22025073.4964
        45.7504         32.7504
 19  3  7 18  8 35.0000000  0  5G07G09G16G23G26
   -665899.91047   -454452.64144  22731688.1884                   22731685.8714
        47.0004         28.5004
   -170365.19948    -81518.57445  20581990.6884                   20581990.1414
        48.0004         35.5004
    403565.31347    359569.64545  20831561.2034                   20831558.5084
        46.0004         30.2504
    699332.49647    571364.66445  20470625.1644                   20470621.2194
        47.2504         33.0004
   1426690.68447   1120995.10545  22025033.5554                   22025035.2664
        45.5004         32.5004
 19  3  7 18  8 40.0000000  0  5G07G09G16G23G26
   -689737.37947   -473027.27344  22727150.8284                   22727149.4024
        45.0004         27.5004
   -188431.30148    -95596.05945  20578553.0634                   20578552.1134
        48.0004         35.5004
    392223.37947    350731.77745  20829403.1484                   20829399.7934
        45.5004         31.0004
    690981.89548    564857.68845  20469036.2114                   20469030.8914
        48.2504         34.0004
   1426517.68047   1120860.25845  22025000.0394                   22025001.3054
        45.7504         30.7504
 19  3  7 18  8 45.0000000  0  5G07G09G16G23G26
   -713549.89847   -491582.48444  22722619.5474                   22722617.1884
        46.0004         28.0004
   -206468.42647   -109650.95746  20575120.1724                   20575119.2704
        47.5004         36.0004
    380917.09847    341921.66445  20827250.6254                   20827247.7504
        44.0004         30.0004
    682661.04347    558373.90645  20467452.5634                   20467447.5274
        47.2504         33.2504
   1426374.12547   1120748.42245  22024972.3134                   22024973.8014
        44.5004         30.5004
 19  3  7 18  8 50.0000000  0  5G07G09G16G23G26
   -737341.81647   -510121.61144  22718092.8524                   22718090.0784
        45.5004         25.5004
   -224478.86747   -123685.07045  20571693.4774                   20571692.1454
        47.5004         34.0004
    369647.43447    333140.13345  20825106.9774                   20825102.6094
        45.7504         30.7504
    674369.10248    551912.66845  20465874.9064                   20465868.8134
        48.0004         32.0004
   1426262.16047   1120661.16845  22024951.7114                   22024952.0594
        45.0004         31.2504
 19  3  7 18  8 55.0000000  0  5G07G09G16G23G26
   -761112.85947   -528644.49244  22713569.4614                   22713567.1134
        45.0004         25.5004
   -242465.24247   -137700.41845  20568270.2734                   20568270.1334
        47.2504         35.0004
    358405.66447    324380.30545  20822967.3524                   20822964.1764
        45.7504         32.0004
    666100.30148    545469.44545  20464301.4224                   20464296.2934
        48.0004         33.7504
   1426171.84447   1120590.78945  22024933.8914                   22024935.6954
        45.5004         33.0004
 19  3  7 18  9  0.0000000  0  5G07G09G16G23G26
   -784868.97347   -547155.73844  22709048.3054                   22709046.2584
        46.0004         28.2504
   -260429.58247   -151698.60546  20564851.9224                   20564851.3554
        47.7504         36.2504
    347196.11347    315645.60545  20820834.4224                   20820830.9304
        44.2504         31.5004
    657855.85547    539045.19945  20462732.7424                   20462727.2034
        47.7504         34.2504
   1426109.05147   1120541.84845  22024922.0164                   22024923.2974
        44.5004         32.0004
 19  3  7 18  9  5.0000000  0  5G07G09G16G23G26
   -808606.91447   -565652.82044  22704530.9454                   22704528.3524
        45.0004         26.0004
   -278371.10947   -165678.99245  20561438.0004                   20561435.8594
        47.0004         34.0004
    336020.04347    306936.99245  20818707.9694                   20818703.8134
        46.0004         30.5004
    649637.15248    532641.04345  20461168.4774                   20461162.3754
        48.2504         33.0004
   1426073.85247   1120514.44145  22024915.8054                   22024916.3244
        45.5004         31.0004
 19  3  7 18  9 10.0000000  0  5G07G09G16G23G26
   -832323.47047   -584133.22644  22700018.9614                   22700015.4694
        44.7504         26.0004
   -296285.24747   -179638.05946  20558029.1414                   20558027.9064
        47.0004         36.0004
    324878.44347    298255.23145  20816587.7734                   20816583.5594
        46.5004         32.0004
    641446.47048    526258.68045  20459610.1724                   20459604.2814
        48.7504         34.2504
   1426068.03147   1120509.89145  22024914.9774                   22024914.8134
        46.0004         32.7504
 19  3  7 18  9 15.0000000  0  5G07G09G16G23G26
   -856020.76647   -602598.66844  22695508.6804                   22695505.9024
        46.0004         25.7504
   -314175.58647   -193578.59045  20554624.4064                   20554623.8444
        47.5004         35.0004
    313769.28547    289598.71144  20814473.4384                   20814469.8834
        45.7504         28.7504
    633281.44147    519896.30945  20458056.1884                   20458050.8634
        47.0004         31.5004
   1426088.44147   1120525.80944  22024918.5554                   22024919.1884
        44.5004         29.2504
 19  3  7 18  9 20.0000000  0  5G07G09G16G23G26
   -879700.45747   -621050.37144  22691002.7114                   22690998.8244
        45.0004         25.2504
   -332042.69547   -207501.02345  20551223.8204                   20551223.1054
        47.2504         34.5004
    302686.95347    280963.13745  20812364.4064                   20812360.7074
        45.0004         31.0004
    625137.93047    513550.71945  20456506.0784                   20456500.5164
        47.5004         33.5004
   1426131.57047   1120559.38745  22024926.1414                   22024926.7504
        44.5004         30.5004
 19  3  7 18  9 25.0000000  0  5G07G09G16G23G26
   -903363.20747   -639488.83244  22686499.8834                   22686496.9264
        46.0004         26.5004
   -349886.35947   -221405.14845  20547828.5394                   20547827.4024
        47.5004         34.0004
    291638.05147    272353.62544  20810262.1484                   20810258.3244
        45.5004         29.7504
    617020.33648    507225.35245  20454961.6024                   20454955.6024
        48.2504         32.2504
   1426202.78947   1120614.90244  22024940.3134                   22024940.5084
        44.5004         29.2504
 19  3  7 18  9 30.0000000  0  5G07G09G16G23G26
   -927006.70347   -657912.35844  22682000.4614                   22681997.2234
        44.2504         25.0004
   -367706.58747   -235291.05545  20544437.6174                   20544436.2734
        47.0004         33.5004
    280619.66047    263767.85645  20808165.5704                   20808161.5984
        46.0004         30.2504
    608927.08348    500918.89845  20453421.7344                   20453416.1954
        48.0004         32.5004
   1426298.26247   1120689.28645  22024958.1954                   22024958.8014
        45.5004         31.0004
 19  3  7 18  9 35.0000000  0  5G07G09G16G23G26
   -950630.18447   -676320.26644  22677504.9304                   22677501.3754
        45.2504         28.0004
   -385501.13347   -249156.94546  20541051.4144                   20541050.3404
        47.5004         36.0004
    269634.20747    255207.74245  20806074.9224                   20806071.3244
        45.5004         31.2504
    600860.30147    494633.07845  20451886.6564                   20451880.8914
        47.7504         33.7504
   1426421.40647   1120785.21545  22024982.1564                   22024981.9574
        45.0004         30.7504
 19  3  7 18  9 40.0000000  0  5G07G09G16G23G26
   -974233.32047   -694712.30944  22673013.6484                   22673010.9024
        46.0004         29.0004
   -403268.81247   -263001.88345  20537670.6414                   20537669.4414
        47.7504         35.7504
    258681.42247    246673.11345  20803991.0314                   20803987.1214
        45.5004         31.0004
    592820.07448    488367.97745  20450356.6414                   20450350.8324
        48.0004         34.2504
   1426572.75647   1120903.16545  22025011.1254                   22025011.4414
        44.5004         30.7504
 19  3  7 18  9 45.0000000  0  5G07G09G16G23G26
   -997814.21147   -713087.02744  22668526.4844                   22668523.1844
        45.0004         26.0004
   -421011.46947   -276827.33245  20534294.4454                   20534293.5274
        47.5004         35.5004
    247760.06647    238162.96145  20801912.8364                   20801909.1334
        46.2504         31.7504
    584805.85548    482123.12545  20448831.8754                   20448826.7154
        48.0004         33.5004
   1426748.11347   1121039.79345  22025044.0314                   22025044.8054
        46.0004         33.2504
 19  3  7 18  9 50.0000000  0  5G07G09G16G23G26
  -1021382.65247   -731452.05544  22664041.5554                   22664038.5434
        45.0004         26.5004
   -438735.25147   -290638.07445  20530921.6564                   20530920.5004
        46.7504         35.2504
