     2.11           OBSERVATION DATA    G (GPS)             RINEX VERSION / TYPE
teqc  2019Feb25     Martin Truffer      20190308 01:06:03UTCPGM / RUN BY / DATE
Linux 2.6.32-573.12.1.x86_64|x86_64|gcc|Linux 64|=+         COMMENT
BIT 2 OF LLI FLAGS DATA COLLECTED UNDER A/S CONDITION       COMMENT
51890661                                                    MARKER NAME
5189                                                        MARKER NUMBER
-Unknown-           -Unknown-                               OBSERVER / AGENCY
0220315189          TRIMBLE 5700        2.30                REC # / TYPE / VERS
-Unknown-           TRM41249.00     NONE                    ANT # / TYPE
 -1794076.9466 -3484053.5487  5017996.9640                  APPROX POSITION XYZ
        0.0530        0.0000        0.0000                  ANTENNA: DELTA H/E/N
     1     1                                                WAVELENGTH FACT L1/2
     7    L1    L2    C1    P1    P2    S1    S2            # / TYPES OF OBSERV
    18                                                      LEAP SECONDS
 SNR is mapped to RINEX snr flag value [0-9]                COMMENT
  L1 & L2: min(max(int(snr_dBHz/6), 0), 9)                  COMMENT
  2019     3     7     0    37   20.0000000     GPS         TIME OF FIRST OBS
                                                            END OF HEADER
 19  3  7  0 37 20.0000000  0  3G01G17G28
     -7819.24657     -3509.51253  22834243.1174                   22834241.8674
        44.5004         23.2504
    -37351.85958    -17060.95755  20452772.7664                   20452768.3984
        50.5004         34.0004
     -5589.19557     -2758.75854  21599497.8834                   21599492.1644
        46.0004         28.5004
 19  3  7  0 37 25.0000000  0  3G01G17G28
     -9974.31647     -5188.75444  22833833.1724                   22833832.0744
        44.5004         25.7504
    -47860.00048    -25249.10545  20450773.0784                   20450768.4774
        49.7504         32.7504
     -7136.80947     -3964.66444  21599202.9454                   21599197.5554
        46.2504         28.2504
 19  3  7  0 37 30.0000000  0  3G01G17G28
    -12107.62147     -6851.07844  22833426.8834                   22833425.8134
        43.7504         24.5004
    -58349.35548    -33422.64145  20448776.8754                   20448772.8014
        50.0004         32.7504
     -8672.42647     -5161.25444  21598910.5784                   21598905.6024
        46.0004         28.0004
 19  3  7  0 37 35.0000000  0  3G01G17G28
    -14218.01247     -8495.54744  22833025.6564                   22833024.4344
        43.7504         24.0004
    -68818.78548    -41580.62145  20446784.5864                   20446780.2894
        49.7504         32.7504
    -10194.97747     -6347.65644  21598620.6024                   21598615.9224
        46.0004         27.2504
 19  3  7  0 37 40.0000000  0  3G01G17G28
    -16305.02747    -10121.77744  22832628.6414                   22832627.2464
        44.2504         24.5004
    -79267.75448    -49722.67645  20444796.3754                   20444791.8054
        50.0004         33.0004
    -11703.99647     -7523.50444  21598333.5234                   21598329.1884
        45.7504         27.2504
 19  3  7  0 37 45.0000000  0  4G01G17G28G19
    -18367.46947    -11728.88344  22832235.8204                   22832234.9884
        44.2504         25.2504
    -89695.09048    -57847.87145  20442812.0634                   20442807.9064
        50.0004         33.0004
    -13198.32447     -8687.93044  21598049.1174                   21598044.5084
        46.5004         27.5004
   -148321.36357    -99684.89855  20534282.2424                   20534276.2544
        44.5004         30.0004
 19  3  7  0 37 50.0000000  0  5G01G17G28G19G18
    -20404.91447    -13316.49644  22831847.9304                   22831847.4304
        44.0004         25.7504
   -100100.35948    -65955.87545  20440832.1804                   20440827.6954
        50.0004         33.2504
    -14677.46147     -9840.51644  21597768.5784                   21597763.2504
        46.5004         27.5004
   -169420.85547   -116126.07045  20530267.4774                   20530260.9884
        44.5004         30.2504
     27508.70715                  24540509.555
        34.500
 19  3  7  0 37 55.0000000  0  5G01G17G28G19G18
    -22416.82447    -14884.23844  22831465.3204                   22831464.4414
        44.2504         24.2504
   -110482.98848    -74046.22745  20438856.1644                   20438851.8484
        50.0004         33.0004
    -16140.91047    -10980.84844  21597489.1564                   21597484.6254
        46.0004         27.2504
   -190496.46947   -132548.61744  20526256.3754                   20526250.3754
        45.0004         29.5004
     32516.109 5                  24541461.727
        32.750
 19  3  7  0 38  0.0000000  0  5G01G17G28G19G18
    -24403.39147    -16432.19544  22831086.7894                   22831086.3834
        44.0004         24.2504
   -120843.23448    -82119.15645  20436884.4224                   20436880.3914
        50.0004         32.7504
    -17588.84447    -12109.11344  21597213.4694                   21597209.2154
        46.0004         27.0004
   -211548.41047   -148952.73045  20522250.8834                   20522244.4884
        44.7504         30.2504
     37542.762 5                  24542418.328
        33.500
 19  3  7  0 38  5.0000000  0  5G01G17G28G19G18
   1549056.34847   1209640.32043  23130506.9304                   23130505.2074
        44.5004         22.7504
   1444241.63748   1137427.49645  20734710.3984                   20734706.1254
        49.7504         32.7504
   1556399.68447   1214375.44944  21896733.3364                   21896729.3754
        45.5004         28.0004
   1342848.16847   1062265.37945  20818042.1724                   20818036.3874
        44.5004         30.5004
   1618008.137 5                  24843171.336
        34.250
 19  3  7  0 38 10.0000000  0  5G01G17G28G19G18
   1547121.63347   1208132.75044  23130138.1644                   23130137.4534
        44.0004         25.5004
   1433927.52048   1129390.52745  20732747.5084                   20732743.6524
        49.7504         32.7504
   1554984.09047   1213272.40244  21896463.4844                   21896459.8834
        45.2504         26.2504
   1321844.90247   1045899.20345  20814046.0164                   20814039.1134
        44.5004         31.2504
   1623074.340 5                  24844134.789
        34.000
 19  3  7  0 38 15.0000000  0  5G01G17G28G19G18
   1545212.97747   1206645.46944  23129775.0004                   23129774.3164
        44.0004         24.5004
   1423636.61748   1121371.63745  20730789.2034                   20730785.1684
        49.7504         32.5004
   1553584.91847   1212182.12944  21896197.8834                   21896193.3674
        46.5004         27.0004
   1300866.18047   1029552.14845  20810053.5634                   20810047.7114
        44.5004         30.7504
   1628160.457 5                  24845102.125
        35.500
 19  3  7  0 38 20.0000000  0  6G01G17G28G19G11G18
   1543330.60247   1205178.67244  23129417.0004                   23129416.0514
        44.0004         26.0004
   1413369.03948   1113370.91845  20728835.8984                   20728831.4024
        50.0004         32.5004
   1552202.12147   1211104.60544  21895935.3204                   21895930.2304
        46.5004         27.5004
   1279912.05547   1013224.24645  20806065.9144                   20806060.1564
        44.5004         30.2504
   1603293.39856   1236968.83652  24280542.3284                   24280537.0784
        40.7504         17.7504
   1633266.746 6                  24846073.930
        36.250
 19  3  7  0 38 25.0000000  0  6G01G17G28G19G11G18
   1541480.55947   1203737.09444  23129065.2274                   23129063.5904
        44.2504         24.5004
   1403126.37948   1105389.61745  20726886.5234                   20726882.4184
        49.5004         32.0004
   1550842.43047   1210045.12144  21895676.2734                   21895670.9774
        46.7504         27.2504
   1258980.93447    996914.28144  20802082.6884                   20802077.1524
        43.7504         29.2504
   1608603.31646   1241106.43842  24281552.6414                   24281548.0354
        40.5004         17.2504
   1638397.348 6                  24847050.703
        37.250
 19  3  7  0 38 30.0000000  0  6G01G17G28G19G11G18
   1539661.44947   1202319.60244  23128718.7274                   23128717.7344
        44.0004         25.0004
   1392908.28548   1097427.48845  20724942.2504                   20724938.0554
        49.5004         32.0004
   1549503.19147   1209001.54344  21895421.5394                   21895416.6454
        46.5004         28.7504
   1238073.72347    980622.95345  20798105.1414                   20798098.5824
        44.7504         30.2504
   1613937.28146   1245262.73842  24282567.5474                   24282562.8204
        39.5004         16.7504
   1643552.359 5                  24848032.016
        34.750
 19  3  7  0 38 35.0000000  0  6G01G17G28G19G11G18
   1537861.76247   1200917.25044  23128376.4384                   23128374.6414
        44.0004         24.2504
   1382710.43848   1089481.10945  20723001.6024                   20722996.5944
        49.5004         33.0004
   1548174.37947   1207966.10944  21895169.0784                   21895163.7464
        47.0004         29.5004
   1217190.63347    964350.42244  20794131.1804                   20794124.4844
        44.5004         29.7504
   1619283.34846   1249428.54342  24283585.2114                   24283580.7194
        40.5004         16.2504
   1648721.336 5                  24849015.383
        35.500
 19  3  7  0 38 40.0000000  0  6G01G17G28G19G11G18
   1536089.46547   1199536.25043  23128039.3594                   23128037.7154
        43.5004         22.7504
   1372536.83248   1081553.61745  20721065.3984                   20721060.5004
        49.2504         32.5004
   1546863.85247   1206944.94544  21894919.9454                   21894914.0004
        45.5004         25.5004
   1196332.59847    948097.42644  20790161.3054                   20790155.1174
        44.2504         29.0004
   1624649.48446   1253609.97342  24284606.9774                   24284601.4654
        40.7504         16.2504
   1653910.973 5                  24850003.242
        35.750
 19  3  7  0 38 45.0000000  0  6G01G17G28G19G11G18
   1534350.34047   1198181.07844  23127708.6954                   23127706.6174
        44.5004         24.7504
   1362396.96148   1073652.42245  20719136.4064                   20719130.7074
        50.0004         33.0004
   1545579.36747   1205944.03944  21894674.5474                   21894669.3954
        45.5004         27.2504
   1175510.45347    931872.37544  20786199.3204                   20786191.9844
        44.5004         28.7504
   1630040.61346   1257810.84042  24285632.6334                   24285627.4654
        40.0004         16.2504
   1659125.789 5                  24850995.727
        35.750
 19  3  7  0 38 50.0000000  0  6G01G17G28G19G11G18
   1532641.28947   1196849.34844  23127383.2734                   23127380.9414
        44.5004         25.7504
   1352281.11348   1065769.94145  20717211.2894                   20717206.0164
        49.7504         33.0004
   1544313.94947   1204957.98044  21894434.4774                   21894428.6564
        46.5004         27.7504
   1154712.26247    915666.00045  20782241.5554                   20782234.3014
        44.5004         30.0004
   1635455.39246   1262030.14442  24286662.9844                   24286658.0634
        40.5004         16.2504
   1664364.980 5                  24851992.813
        34.750
 19  3  7  0 38 55.0000000  0  6G01G17G28G19G11G18
   1530951.59047   1195532.70744  23127062.0474                   23127059.8554
        44.7504         26.0004
   1342181.77348   1057900.31645  20715289.2664                   20715284.0354
        49.2504         31.5004
   1543058.71947   1203979.89544  21894194.7584                   21894189.6454
        45.5004         26.5004
   1133931.77047    899473.39844  20778287.7194                   20778280.2664
        44.5004         27.5004
   1640882.10246   1266258.74642  24287695.3284                   24287690.0984
        40.5004         16.2504
   1669616.840 6                  24852992.586
        37.500
 19  3  7  0 39  0.0000000  0  6G01G17G28G19G11G18
   1529288.76247   1194236.94943  23126745.0394                   23126742.4574
        44.7504         22.7504
   1332105.75448   1050048.84045  20713372.1174                   20713365.7664
        50.0004         31.0004
   1541822.21947   1203016.32844  21893959.7664                   21893952.8164
        46.7504         27.0004
   1113174.96947    883299.22344  20774337.5864                   20774329.1564
        44.5004         28.7504
   1646328.33346   1270502.53842  24288731.2894                   24288726.1054
        40.7504         16.2504
   1674887.809 6                  24853994.289
        36.500
 19  3  7  0 39  5.0000000  0  6G01G17G28G19G11G18
   1527646.34847   1192957.18044  23126432.7894                   23126430.1374
        43.5004         24.0004
   1322044.79748   1042209.16845  20711457.0394                   20711452.2194
        49.5004         31.2504
   1540595.28947   1202060.30944  21893725.3834                   21893720.4264
        44.5004         26.7504
   1092433.64847    867137.19144  20770390.2584                   20770382.8554
        44.5004         28.7504
   1651788.12546   1274756.95342  24289770.6174                   24289765.4924
        39.5004         16.7504
   1680173.391 5                  24855000.609
        35.500
 19  3  7  0 39 10.0000000  0  6G01G17G28G19G11G18
   1526021.35947   1191690.94544  23126123.0784                   23126121.1374
        43.5004         25.5004
   1311998.78948   1034381.11345  20709545.2504                   20709540.4144
        48.7504         31.5004
   1539375.87547   1201110.13344  21893493.3444                   21893488.4574
        44.5004         28.0004
   1071708.76647    850987.92244  20766445.8524                   20766439.3834
        43.2504         29.0004
   1657258.17646   1279019.29342  24290811.1094                   24290805.7154
        40.5004         16.7504
   1685470.516 5                  24856008.461
        35.000
 19  3  7  0 39 15.0000000  0  6G01G17G28G19G11G18
   1524421.10947   1190443.99244  23125818.9454                   23125817.0474
        43.7504         24.5004
   1301975.72348   1026570.90645  20707638.2274                   20707632.9734
        49.2504         31.7504
   1538173.64147   1200173.30144  21893266.3524                   21893260.2584
        45.5004         27.2504
   1051008.08647    834857.52044  20762507.8204                   20762500.4414
        44.2504         27.5004
   1662745.35546   1283295.04442  24291856.7734                   24291850.6604
        39.0004         17.7504
   1690784.676 5                  24857021.039
        34.000
 19  3  7  0 39 20.0000000  0  6G01G17G28G19G11G18
   1522846.87947   1189217.29743  23125519.1884                   23125518.4694
        43.0004         22.2504
   1291974.55948   1019088.80455  20705735.0704                   20705731.3714
        48.7504         31.5004
   1536986.17647   1199284.99254  21893039.4694                   21893034.9384
        44.0004         27.0004
   1030330.50847    818745.12543  20758572.3284                   20758565.5944
        44.0004         23.0004
   1668251.77346   1287585.82042  24292902.7814                   24292898.4694
        37.7504         17.2504
   1696119.83215                  24858035.273
        32.250
 19  3  7  0 39 25.0000000  0  6G01G17G28G19G11G18
   1521292.91447   1188006.43844  23125223.0474                   23125222.0354
        43.2504         24.5004
   1281991.25048   1011309.64845  20703836.0314                   20703830.7274
        48.7504         30.7504
   1535809.28147   1198367.95744  21892815.4844                   21892810.2154
        45.0004         27.0004
   1009672.71547    802648.13744  20754641.8524                   20754634.7114
        43.5004         29.5004
   1673771.33246   1291886.64542  24293953.6564                   24293949.4774
        39.0004         16.7504
   1701469.273 5                  24859052.172
        34.500
 19  3  7  0 39 30.0000000  0  2G17G11
                                  20701937.8204                   20701931.6804
        41.5004         30.7504
                                  24295008.9614                   24295002.0354
        31.0004         17.7504
 19  3  7  0 39 35.0000000  0  6G01G17G28G19G11G18
   1518249.01257   1185635.19953  23124644.1804                   23124643.0434
        43.0004         23.2504
   1262080.89547    995795.09445  20700046.3204                   20700041.1484
        47.7504         31.2504
   1533492.73057   1196635.02354  21892374.7504                   21892370.1254
        44.7504         28.5004
    968419.01657    771787.62955  20746790.7974                   20746782.2234
        43.0004         31.0004
   1684854.48816                  24296062.383
        37.500
   1712209.71115                  24861098.195
        34.750
 19  3  7  0 39 40.0000000  0  6G01G17G28G19G11G18
   1516770.79747   1184483.27343  23124365.9924                   23124360.6724
        43.5004         22.7504
   1252164.50048    988068.00845  20698163.9774                   20698154.4614
        48.7504         31.0004
   1532363.41447   1195755.08244  21892162.4694                   21892152.0394
        46.0004         27.2504
    947832.34447    755746.06645  20742876.5554                   20742865.6294
        44.2504         30.5004
   1690428.246 6                  24297125.523
        40.250
   1717615.895 5                  24862127.867
        33.750
 19  3  7  0 39 45.0000000  0  6G01G17G28G19G11G18
   1515321.34847   1183353.86343  23124087.8134                   23124086.3674
        43.5004         22.2504
   1242273.59848    980360.82445  20696277.5554                   20696272.2814
        48.7504         32.2504
   1531252.87147   1194889.71544  21891947.7734                   21891943.4304
        44.5004         25.2504
    927272.40247    739725.35545  20738960.7584                   20738954.0434
        43.7504         31.0004
   1696023.727 6                  24298188.641
        38.250
   1723044.789 5                  24863160.203
        34.750
 19  3  7  0 39 50.0000000  0  6G01G17G28G19G11G18
   1513903.65247   1182249.13343  23123817.7344                   23123816.7154
        43.2504         23.7504
   1232412.93848    972677.18845  20694401.1724                   20694396.0984
        48.2504         31.2504
   1530164.57847   1194041.69544  21891741.3754                   21891736.4264
        45.0004         27.5004
    906744.80147    723729.79344  20735054.6724                   20735048.2074
        43.2504         29.7504
   1701643.61346   1298993.11753  24299257.9924                   24299251.7704
        38.7504         18.2504
   1728499.492 5                  24864198.805
        35.750
 19  3  7  0 39 55.0000000  0  6G01G17G28G19G11G18
   1512518.11747   1181169.50843  23123553.7504                   23123553.2584
        42.0004         22.5004
   1222582.10548    965016.78545  20692530.0314                   20692525.6684
        48.2504         31.7504
   1529099.94947   1193212.10544  21891538.4064                   21891534.2584
        43.5004         26.0004
    886248.52747    707758.68444  20731154.3754                   20731148.1024
        43.5004         28.5004
   1707288.27346   1303391.56342  24300332.0164                   24300326.4614
        38.5004         16.7504
   1733979.398 5                  24865239.867
        32.000
 19  3  7  0 40  0.0000000  0  6G01G17G28G19G11G18
   1511164.52747   1180114.75843  23123297.4614                   23123295.0904
        43.7504         23.0004
   1212779.53948    957378.43445  20690666.0084                   20690660.7704
        49.7504         31.5004
   1528057.17647   1192399.55544  21891340.4534                   21891335.1334
        45.7504         26.2504
    865780.75047    691809.77745  20727260.9534                   20727253.1884
        45.0004         30.0004
   1712957.46546   1307809.10542  24301412.1414                   24301405.3794
        39.5004         16.7504
   1739484.543 5                  24866288.625
        32.250
 19  3  7  0 40  5.0000000  0  6G01G17G28G19G11G18
   1509838.36747   1179081.35244  23123044.3674                   23123043.0664
        43.7504         25.5004
   1203003.73448    949760.88745  20688804.6094                   20688800.2894
        48.7504         32.0004
   1527034.25047   1191602.45744  21891145.7734                   21891140.6884
        45.7504         27.0004
    845342.35947    675883.72744  20723370.3984                   20723363.7274
        43.7504         28.7504
   1718646.62146   1312242.19942  24302493.1024                   24302488.1334
        40.0004         16.7504
   1745010.203 5                  24867340.180
        35.000
 19  3  7  0 40 10.0000000  0  6G01G17G28G19G11G18
   1508539.69947   1178069.43444  23122796.8364                   23122796.1374
        43.2504         24.5004
   1193250.98448    942161.35945  20686948.2734                   20686943.9924
        48.5004         31.7504
   1526027.18447   1190817.73444  21890953.6724                   21890949.0204
        44.5004         28.0004
    824928.02047    659976.46144  20719485.3134                   20719478.5784
        43.5004         28.5004
   1724356.43446   1316691.39542  24303580.2664                   24303574.8834
        39.0004         16.2504
   1750558.379 5                  24868395.938
        32.750
 19  3  7  0 40 15.0000000  0  6G01G17G28G19G11G18
   1507261.50447   1177073.43443  23122554.0554                   23122552.6414
        43.5004         23.0004
   1183516.33648    934575.92645  20685096.3134                   20685090.5124
        48.5004         31.5004
   1525030.77347   1190041.30944  21890764.1094                   21890758.8244
        45.5004         27.5004
    804533.45747    644084.59844  20715604.1804                   20715597.6994
        43.0004         28.0004
   1730079.48046   1321150.93042  24304669.0634                   24304663.6134
        40.5004         15.5004
   1756121.012 5                  24869454.281
        35.000
 19  3  7  0 40 20.0000000  0  6G01G17G28G19G11G18
   1506007.89147   1176096.62543  23122315.3284                   23122313.6374
        43.0004         22.7504
   1173804.70348    927008.43845  20683248.1334                   20683241.8834
        48.7504         31.2504
   1524050.29747   1189277.32444  21890577.7664                   21890571.8014
        45.2504         26.2504
    784164.05947    628212.36344  20711728.4384                   20711720.9494
        43.7504         29.2504
   1735819.76246   1325623.91042  24305761.8914                   24305756.1134
        38.5004         16.2504
   1761701.758 5                  24870516.641
        33.250
 19  3  7  0 40 25.0000000  0  6G01G17G28G19G11G18
   1504779.19147   1175139.19944  23122080.5394                   23122078.9494
        42.0004         25.2504
   1164114.67248    919457.78145  20681403.9924                   20681398.3324
        48.5004         32.5004
   1523083.76247   1188524.18844  21890394.2424                   21890388.0354
        45.2504         28.0004
    763817.84047    612358.17645  20707856.6334                   20707849.3324
        44.0004         30.5004
   1741578.00046   1330110.85542  24306857.6254                   24306851.9414
        39.2504         16.2504
   1767302.176 5                  24871581.984
        32.500
 19  3  7  0 40 30.0000000  0  6G01G17G28G19G11G18
   1503571.31347   1174197.98044  23121851.7814                   23121850.1024
        43.7504         24.5004
   1154444.37548    911922.47345  20679563.6564                   20679558.1454
        48.5004         32.5004
   1522129.71947   1187780.77044  21890212.5704                   21890206.7974
        45.2504         29.2504
    743493.93047    596521.36344  20703988.6484                   20703982.0004
        43.5004         28.7504
   1747349.67246   1334608.23042  24307955.5084                   24307950.4344
        38.5004         14.7504
   1772916.789 5                  24872650.547
        35.250
 19  3  7  0 40 35.0000000  0  6G01G17G28G19G11G18
   1502393.58647   1173280.27044  23121627.4534                   23121625.9224
        43.5004         25.0004
   1144801.37948    904408.42645  20677729.0704                   20677724.4534
        48.7504         33.0004
   1521197.16047   1187054.08644  21890035.0004                   21890030.0274
        44.7504         26.5004
    723197.75447    580706.14545  20700126.8524                   20700119.8834
        44.2504         30.0004
   1753143.78546   1339123.14842  24309058.2894                   24309053.2704
        37.7504         15.5004
   1778554.000 5                  24873724.148
        35.750
 19  3  7  0 40 40.0000000  0  6G01G17G28G19G11G18
   1501241.63747   1172382.64144  23121408.1724                   23121406.9304
        43.7504         27.7504
   1135183.67448    896914.12945  20675898.6644                   20675894.2504
        48.5004         31.5004
   1520280.31947   1186339.66844  21889859.5704                   21889855.6174
        45.5004         29.5004
    702930.19947    564913.25044  20696269.4144                   20696263.4344
        42.5004         28.0004
   1758956.50046   1343652.53542  24310163.7274                   24310159.5514
        40.7504         16.2504
   1784211.805 6                  24874800.086
        39.000
 19  3  7  0 40 45.0000000  0  6G01G17G28G19G11G18
   1500119.10947   1171507.94544  23121194.2664                   23121193.6254
        42.2504         25.5004
   1125590.53548    889438.95345  20674073.1564                   20674068.6334
        48.5004         32.5004
   1519384.07447   1185641.28944  21889689.4924                   21889684.6024
        45.0004         26.5004
    682687.15647    549139.45744  20692417.4384                   20692411.0634
        43.2504         29.0004
   1764791.46546   1348199.23042  24311274.2034                   24311270.1174
        38.7504         15.5004
   1789891.938 5                  24875881.000
        35.500
 19  3  7  0 40 50.0000000  0  6G01G17G28G19G11G18
   1499017.83247   1170649.78143  23120983.9694                   23120983.8484
        42.7504         22.0004
   1116013.46148    881976.27744  20672249.9844                   20672246.1684
        48.2504         28.0004
   1518498.07847   1184950.89543  21889520.8754                   21889516.2274
        45.0004         23.0004
    662460.56647    533378.41444  20688568.6484                   20688562.3714
        44.0004         28.0004
   1770640.73846   1352757.09842  24312387.5314                   24312383.4454
        38.0004         16.2504
   1795587.34015                  24876964.570
        31.000
 19  3  7  0 40 55.0000000  0  6G01G17G28G19G11G18
   1497932.86747   1169804.38743  23120778.8284                   23120777.2664
        43.5004         22.7504
   1106451.99648    874525.80945  20670430.9304                   20670425.7114
        48.5004         31.5004
   1517619.60947   1184266.37544  21889353.7424                   21889348.3054
        44.7504         27.5004
    642252.41447    517631.86744  20684722.8134                   20684716.5004
        43.2504         29.2504
   1776498.99646   1357322.03942  24313501.6334                   24313498.3364
        38.2504         16.2504
   1801293.070 5                  24878050.391
        34.250
 19  3  7  0 41  0.0000000  0  6G01G17G28G19G11G18
   1496871.79747   1168977.56643  23120576.6804                   23120574.9384
        42.2504         23.5004
   1096912.52348    867092.44945  20668616.0864                   20668610.0744
        48.5004         31.2504
   1516756.70747   1183593.97744  21889189.8834                   21889183.9844
        44.5004         26.7504
    622067.69947    501903.52044  20680882.0164                   20680875.0984
        44.5004         28.2504
   1782373.52346   1361899.52342  24314621.1174                   24314615.8484
        37.7504         15.5004
   1807015.496 5                  24879139.141
        31.750
 19  3  7  0 41  5.0000000  0  6G01G17G28G19G11G18
   1495836.30947   1168170.68843  23120379.8204                   23120377.7384
        43.0004         22.7504
   1087398.02748    859678.53945  20666805.3914                   20666799.2304
        48.7504         32.5004
   1515912.07047   1182935.80544  21889028.7504                   21889023.1094
        45.0004         27.7504
    601910.39147    486196.50444  20677046.1334                   20677039.1374
        44.2504         29.5004
   1788266.03146   1366491.10542  24315741.3524                   24315737.4344
        39.0004         14.7504
   1812755.957 5                  24880231.477
        33.500
 19  3  7  0 41 10.0000000  0  6G01G17G28G19G11G18
   1494825.90247   1167383.36343  23120187.2504                   23120185.6054
        44.0004         22.7504
   1077902.47748    852279.41845  20664998.4774                   20664993.2624
        48.7504         30.7504
   1515079.79347   1182287.28944  21888869.9144                   21888864.9344
        45.0004         26.5004
    581772.01647    470504.27744  20673214.3134                   20673207.1094
        43.5004         28.5004
   1794176.83246   1371096.91842  24316866.8204                   24316862.8204
        38.2504         15.5004
   1818516.926 5                  24881327.742
        34.250
 19  3  7  0 41 15.0000000  0  6G01G17G28G19G11G18
   1493833.348 7                  23119998.352
        42.000
   1068422.699 7                  20663194.484
        47.250
   1514256.043 7                  21888713.922
        44.500
    561651.945 7                  20669386.008
        43.500
   1800098.391 6                  24317994.039
        37.750
   1824289.824 5                  24882426.742
        33.500
 19  3  7  0 41 20.0000000  0  6G01G17G28G19G11G18
   1492859.90647   1166034.41955  23119813.1334                   23119806.1764
        44.0004         31.7504
   1058959.46548    838109.70355  20661393.4774                   20661387.2544
        49.0004         33.0004
   1513441.61347   1181086.76254  21888558.7584                   21888551.8484
        45.2504         28.7504
    541549.95747    444176.35455  20665559.5004                   20665548.5514
        43.7504         31.5004
   1806031.770 6                  24319122.953
        39.000
   1830075.633 5                  24883527.008
        34.750
 19  3  7  0 41 25.0000000  0  6G01G17G28G19G11G18
   1491904.57847   1165290.02054  23119631.8594                   23119629.3794
        43.0004         25.0004
   1049510.09448    830746.48845  20659595.7974                   20659591.6954
        49.0004         32.7504
   1512634.90647   1180458.19144  21888405.1724                   21888400.2274
        44.7504         28.5004
    521463.01247    428524.27745  20661737.5554                   20661731.0554
        44.5004         32.0004
   1811976.42646   1375712.75853  24320254.2274                   24320247.4654
        37.5004         20.7504
   1835873.961 5                  24884630.156
        33.250
 19  3  7  0 41 30.0000000  0  6G01G17G28G19G11G18
   1490967.59847   1164559.88744  23119453.3364                   23119451.2074
        44.0004         25.7504
   1040077.39548    823396.33245  20657800.5234                   20657795.9384
        49.0004         32.5004
   1511837.48847   1179886.84854  21888253.1254                   21888248.5784
        45.0004         29.0004
    501394.93047    412886.78145  20657919.3674                   20657912.3284
        43.7504         31.2504
   1817932.02046   1380353.45343  24321386.6954                   24321380.9184
        39.7504         18.5004
   1841684.281 6                  24885736.969
        36.750
 19  3  7  0 41 35.0000000  0  6G01G17G28G19G11G18
   1490063.20547   1164023.21955  23119280.9454                   23119277.4534
        43.2504         30.0004
   1030674.85048    816069.64045  20656011.3674                   20656006.7934
        49.0004         30.7504
   1511063.71947   1179283.89144  21888105.9774                   21888100.6094
        45.0004         25.5004
    481358.25847    398522.90055  20654106.2344                   20654095.2974
        44.2504         32.0004
   1823912.64146   1385013.72742  24322524.6954                   24322519.8754
        39.5004         17.7504
   1847520.215 6                  24886847.109
        37.500
 19  3  7  0 41 40.0000000  0  6G01G17G28G19G11G18
   1489189.74647   1163397.56854  23119114.9614                   23119112.1844
        43.5004         25.0004
   1021301.50448    808765.84045  20654227.6024                   20654222.4574
        49.2504         31.5004
   1510311.70747   1178698.01644  21887962.1644                   21887957.3794
        45.7504         27.7504
    461353.13347    382934.39845  20650299.8524                   20650290.9694
        45.0004         30.0004
   1829916.941 6                  24323667.516
        38.500
   1853381.059 5                  24887963.328
        35.000
 19  3  7  0 41 45.0000000  0  6G01G17G28G19G11G18
   1488336.93447   1162733.03544  23118952.6884                   23118950.5124
        43.7504         24.0004
   1011945.73048    801475.55945  20652446.8984                   20652441.6094
        48.5004         30.5004
   1509571.25047   1178120.93844  21887821.6644                   21887816.8714
        44.5004         27.7504
    441366.98447    367360.80144  20646496.1024                   20646488.8594
        43.0004         27.7504
   1835934.754 6                  24324811.633
        38.500
   1859255.895 6                  24889080.523
        37.000
 19  3  7  0 41 50.0000000  0  6G01G17G28G19G11G18
   1487503.051 6                  23118793.883
        41.250
   1002606.246 7                  20650669.953
        45.500
   1508839.430 6                  21887683.109
        41.750
    421398.906 7                  20642696.625
        42.750
   1841964.129 6                  24325960.727
        37.250
   1865143.96115                  24890200.016
        32.500
 19  3  7  0 41 55.0000000  0  6G01G17G28G19G11G18
   1486690.33247   1162326.09254  23118639.9694                   23118631.9924
        43.0004         25.2504
    993283.52748    793626.65655  20648896.1254                   20648890.3404
        48.0004         30.0004
   1508117.430 7                  21887546.289
        45.250
    401448.523 7                  20638900.102
        43.750
   1848007.883 6                  24327110.664
        38.250
   1871047.789 6                  24891324.859
        36.250
 19  3  7  0 42  0.0000000  0  6G01G17G28G19G11G18
   1485891.12147   1161703.21544  23118487.2504                   23118483.3404
        44.0004         25.2504
    983971.51648    786370.49255  20647123.8204                   20647118.3914
        49.0004         33.0004
   1507400.47747   1177332.41854  21887408.9614                   21887401.3874
        45.0004         29.7504
    381510.605 7                  20635105.664
        43.750
   1854057.85246   1393651.46553  24328261.3834                   24328254.9844
        39.0004         20.2504
   1876958.367 6                  24892448.984
        37.000
 19  3  7  0 42  5.0000000  0  6G01G17G28G19G11G18
   1485113.27047   1161097.10244  23118338.8444                   23118336.9844
        44.2504         25.0004
    974679.73048    779130.13745  20645355.7584                   20645350.1174
        49.5004         31.5004
   1506696.79747   1176784.09844  21887275.9924                   21887268.7074
        45.7504         27.2504
    361594.61347    344374.46554  20631315.5704                   20631308.4774
        43.7504         26.2504
   1860121.461 6                  24329415.234
        40.500
   1882882.914 6                  24893576.375
        39.000
 19  3  7  0 42 10.0000000  0  6G01G17G28G19G11G18
   1484362.17247   1160511.80544  23118196.8914                   23118194.3404
        43.7504         26.7504
    965412.35548    771908.79745  20643592.5864                   20643587.2344
        49.0004         32.2504
   1506009.81647   1176248.77044  21887144.6484                   21887138.7664
        45.2504         28.7504
    341705.37147    328876.39844  20627531.0704                   20627523.9614
        44.2504         28.2504
   1866204.64846   1397432.52053  24330572.9614                   24330565.6954
        39.0004         21.2504
   1888828.691 5                  24894707.656
        34.750
 19  3  7  0 42 15.0000000  0  6G01G17G28G19G11G18
   1483632.65647   1159943.30144  23118058.2584                   23118055.7114
        44.5004         25.0004
    956163.21948    764701.60944  20641832.5314                   20641827.0434
        49.0004         29.2504
   1505335.44947   1175723.23844  21887016.9454                   21887011.2504
        46.5004         27.5004
    321835.65647    313393.43844  20623750.6414                   20623742.8244
        44.0004         24.0004
   1872302.20346   1402183.80143  24331733.2734                   24331726.9384
        40.2504         19.2504
   1894789.344 6                  24895842.844
        37.000
 19  3  7  0 42 20.0000000  0  6G01G17G28G19G11G18
   1482927.70747   1159461.02754  23117923.0474                   23117920.5744
        43.5004         26.0004
    946936.31348    757511.90645  20640075.9774                   20640070.6414
        49.2504         32.2504
   1504676.41047   1175209.78144  21886889.8594                   21886885.1524
        45.0004         28.0004
    301990.00447    297929.39544  20619973.6024                   20619966.3404
        44.5004         27.5004
   1878417.06346   1406948.69942  24332897.1024                   24332890.9804
        40.0004         16.7504
   1900768.25416                  24896979.594
        36.000
 19  3  7  0 42 25.0000000  0  6G01G17G28G19G11G18
   1482244.56647   1158928.71544  23117793.1644                   23117790.1764
        45.2504         26.7504
    937730.68848    750338.66445  20638324.6024                   20638318.4534
        49.0004         30.5004
   1504030.99247   1174706.82044  21886768.3984                   21886762.8674
        46.5004         27.7504
    282168.57847    282484.07444  20616201.6254                   20616194.5824
        44.0004         25.0004
   1884546.08647   1411724.53542  24334063.7034                   24334056.8754
        42.0004         17.7504
   1906762.344 6                  24898120.898
        38.500
 19  3  7  0 42 30.0000000  0  6G01G17G28G19G11G18
   1481588.83647   1158458.79954  23117668.1484                   23117666.0044
        43.5004         27.2504
    928547.20748    743182.71945  20636577.0554                   20636572.0124
        49.5004         30.5004
   1503401.22747   1174216.10944  21886648.5784                   21886642.9144
        45.7504         27.5004
    262369.89547    268290.55854  20612433.7814                   20612426.1884
        45.0004         29.0004
                                  24335232.820
        38.500
                                  24899265.227
        35.250
 19  3  7  0 42 35.0000000  0  6G01G17G28G19G11G18
   1480951.96547   1157962.51644  23117547.3834                   23117545.3094
        44.2504         24.5004
    919380.40648    736039.73045  20634832.6254                   20634826.5234
        49.2504         31.7504
   1502782.22747   1173733.74244  21886530.7114                   21886524.1604
        45.5004         27.0004
    242589.30547    252877.09044  20608669.7114                   20608662.2234
        44.0004         26.2504
   1896856.82446   1415753.28953  24336405.4304                   24336400.3164
        39.2504         21.2504
   1918805.586 5                  24900412.453
        35.750
 19  3  7  0 42 40.0000000  0  6G01G17G28G19G11G18
   1480335.68447   1157482.27044  23117430.3444                   23117427.1524
        44.0004         26.0004
    910232.80548    728911.73045  20633091.7814                   20633085.9264
        49.0004         31.0004
   1502174.39147   1173260.10244  21886414.7504                   21886408.2704
        45.7504         29.0004
    222830.55147    237480.64544  20604909.3834                   20604902.3524
        44.7504         26.2504
   1903031.06346   1420564.40643  24337580.4614                   24337575.1914
        38.7504         19.5004
   1924848.109 5                  24901562.648
        33.250
 19  3  7  0 42 45.0000000  0  6G01G17G28G19G11G18
   1479742.98047   1157020.43044  23117317.8444                   23117315.2504
        43.5004         25.2504
    901105.73848    721799.73445  20631355.1334                   20631349.4804
        48.7504         31.5004
   1501581.02347   1172797.73844  21886301.8594                   21886296.4924
        45.2504         27.5004
    203094.08247    222101.59044  20601154.3134                   20601146.8014
        44.2504         26.7504
   1909221.78146   1425388.34443  24338758.5864                   24338753.4384
        38.5004         19.0004
   1930907.875 5                  24902716.602
        33.500
 19  3  7  0 42 50.0000000  0  6G01G17G28G19G11G24
   1479173.22347   1156681.62155  23117208.0314                   23117200.5514
        44.0004         33.0004
    891998.05148    714702.06943  20629621.3834                   20629616.9454
        48.5004         23.7504
   1501000.52747   1172489.42355  21886190.8444                   21886184.0904
        45.5004         32.5004
    183378.25747    209810.60255  20597402.0554                   20597388.7854
        44.7504         32.7504
   1915428.199 6                  24339939.000
        40.500
   1052380.56216                  21951823.313
        40.250
 19  3  7  0 42 55.0000000  0  7G01G17G28G19G11G24G18
   1478625.38747   1156289.53154  23117104.5554                   23117099.2624
        43.0004         24.5004
    882910.64548    708187.73455  20627892.3134                   20627886.6564
        48.5004         31.0004
   1500433.30547   1172083.39754  21886083.5164                   21886076.0314
        45.0004         28.0004
    163684.76247    194465.05544  20593654.2734                   20593646.2384
        43.5004         28.5004
   1921648.99646   1428484.84453  24341123.0944                   24341117.9534
        38.2504         20.7504
   1031376.31346    951781.20753  21947826.3674                   21947822.6374
        39.7504         22.5004
                                  24905030.219
        30.750
 19  3  7  0 43  0.0000000  0  7G01G17G28G19G11G24G18
   1478100.00847   1155880.21144  23117004.1024                   23117001.6374
        43.0004         25.2504
    873844.71148    701123.39545  20626167.1254                   20626161.3444
        48.5004         31.2504
   1499879.91047   1171652.19944  21885978.2504                   21885971.2894
        44.7504         26.7504
    144015.31347    179138.20744  20589911.5944                   20589903.7304
        44.7504         26.7504
   1927884.74246   1433343.93043  24342310.3524                   24342304.9454
        38.0004         18.5004
   1010394.46946    935431.73043  21943834.0084                   21943830.5784
        40.5004         22.7504
                                  24906192.242
        30.000
 19  3  7  0 43  5.0000000  0  6G01G17G28G19G11G24
   1477599.48047   1155583.18754  23116909.0554                   23116906.1954
        43.0004         27.0004
    864800.95748    696049.36155  20624446.1644                   20624439.7304
        48.7504         33.0004
   1499341.74647   1171316.86755  21885875.6804                   21885864.8244
        45.0004         30.2504
    124369.79347    166892.04455  20586173.5864                   20586162.0234
        44.7504         30.2504
                                  24343499.898
        39.000
    989435.586 6                  21939845.297
        41.000
 19  3  7  0 43 10.0000000  0  6G01G17G28G19G11G24
   1477117.78947   1155238.80554  23116818.0394                   23116815.0084
        44.5004         27.5004
    855774.58648    689015.75845  20622728.7034                   20622722.5984
        48.0004         30.7504
   1498813.68847   1170905.39545  21885775.0864                   21885768.6724
        46.0004         30.0004
    104744.32847    151599.45744  20582438.7504                   20582430.7814
        43.5004         25.5004
   1940402.824 6                  24344691.633
        40.750
    968495.29646    921065.99153  21935860.7974                   21935857.5984
        38.2504         22.0004
 19  3  7  0 43 15.0000000  0  6G01G17G28G19G11G24
   1476660.57147   1154882.55743  23116730.5394                   23116727.8874
        42.0004         22.7504
    846767.77748    681997.47745  20621014.4144                   20621009.1884
        48.0004         31.5004
   1498299.99347   1170505.08544  21885677.3524                   21885671.3094
        44.5004         27.7504
     85138.46947    136322.14844  20578707.7894                   20578700.5984
        43.7504         28.5004
   1946684.75846   1437837.29353  24345887.2814                   24345880.4844
        36.2504         19.7504
    947572.95746    904762.87943  21931879.3134                   21931876.4884
        39.0004         21.7504
 19  3  7  0 43 20.0000000  0  6G01G17G28G19G11G24
   1476216.14447   1154536.23643  23116647.9144                   23116643.8054
        43.0004         22.5004
    837771.94948    674987.73945  20619306.0474                   20619296.3594
        48.7504         30.0004
   1497790.08447   1170107.76144  21885583.3984                   21885574.4414
        45.0004         26.5004
     65546.09647    121055.36944  20574981.3444                   20574971.4064
        44.0004         26.0004
   1952972.40246   1442736.71043  24347085.8444                   24347077.2704
        40.0004         18.2504
    926662.77346    888469.20643  21927902.5084                   21927897.3634
        39.2504         21.2504
 19  3  7  0 43 25.0000000  0  6G01G17G28G19G11G24
   1475788.62546   1154203.10943  23116564.0784                   23116561.9964
        41.5004         22.0004
    828790.79348    667989.44145  20617593.5474                   20617587.5044
        48.0004         30.5004
   1497287.79347   1169716.35944  21885484.2194                   21885478.2894
        44.5004         27.5004
     45970.50047    105801.65244  20571253.7584                   20571246.5394
        44.5004         26.5004
   1959269.54346   1447643.59842  24348281.6954                   24348275.3954
        37.0004         16.7504
    905768.45746    872187.97343  21923924.2894                   21923921.3324
        39.2504         20.7504
 19  3  7  0 43 30.0000000  0  6G01G17G28G19G11G24
   1475384.50047   1153888.19543  23116487.2194                   23116485.2384
        42.0004         22.7504
    819831.32848    661008.02345  20615888.8674                   20615883.0044
        48.0004         31.0004
   1496801.58247   1169337.47744  21885391.8444                   21885385.9844
        44.5004         29.2504
     26418.85547     90566.60944  20567533.7274                   20567525.9574
        44.0004         27.0004
   1965582.60946   1452562.85242  24349484.1024                   24349477.7234
        36.7504         17.2504
    884893.39846    855921.67243  21919952.0474                   21919948.7114
        39.5004         20.2504
 19  3  7  0 43 35.0000000  0  6G01G17G28G19G11G24
   1475009.46147   1153595.96143  23116416.2734                   23116414.0124
        42.2504         22.7504
    810897.59848    654046.66445  20614188.7114                   20614183.4494
        48.0004         31.5004
   1496334.09047   1168973.20344  21885303.2194                   21885297.1564
        44.5004         27.0004
      6894.10547     75352.50444  20563818.3134                   20563811.2734
        43.5004         26.5004
   1971917.41046   1457499.09042  24350689.6254                   24350683.2774
        37.7504         17.2504
    864045.27046    839676.36343  21915984.6334                   21915982.0274
        39.5004         21.2504
 19  3  7  0 43 40.0000000  0  6G01G17G28G19G11G24
   1474659.63746   1153323.33643  23116348.8054                   23116348.0164
        37.2504         23.0004
    801987.59347    647103.84944  20612493.8674                   20612488.1484
        42.5004         28.2504
   1495882.83746   1168621.62944  21885217.8524                   21885211.7344
        39.5004         24.2504
    -12604.54746     60158.72343  20560108.6414                   20560100.8554
        37.7504         22.7504
   1978270.03945   1462449.12542  24351898.0554                   24351892.2544
        34.2504         16.2504
    843222.17245    823450.54743  21912022.7664                   21912019.4494
        33.2504         21.5004
 19  3  7  0 43 45.0000000  0  6G01G17G28G19G11G24
   1474332.80957   1153179.75555  23116287.3984                   23116276.9224
        44.0004         33.0004
    793096.64158    640730.53055  20610802.0004                   20610796.6524
        50.0004         32.0004
   1495445.32047   1168375.59855  21885134.4774                   21885124.7114
        45.5004         30.5004
    -32082.13357     48016.20354  20556402.0004                   20556389.8754
        44.5004         29.0004
   1984638.43416                  24353110.039
        40.000
    822418.44116                  21908063.523
        40.750
 19  3  7  0 43 50.0000000  0  6G01G17G28G19G11G24
   1474025.00047   1152958.82854  23116228.8524                   23116222.4654
        43.7504         27.5004
    784224.76248    633817.34454  20609113.1484                   20609108.9614
        48.5004         29.0004
   1495017.89547   1168042.59044  21885052.4384                   21885046.7734
        45.5004         27.5004
    -51538.24247     34675.57054  20552699.2194                   20552689.7894
        44.5004         27.0004
   1991018.230 6                  24354323.258
        38.250
    801635.34046    809838.06653  21904108.6254                   21904105.8364
        39.7504         22.0004
 19  3  7  0 43 55.0000000  0  6G01G17G28G19G11G24
   1473735.824 6                  23116173.063
        40.750
    775367.81647    628295.87755  20607426.9384                   20607420.3484
        47.2504         34.5004
   1494600.23847   1167744.12953  21884973.0474                   21884966.5664
        43.7504         23.5004
    -70978.13247     19527.65543  20548999.3364                   20548992.0744
        43.5004         23.2504
   1997409.551 6                  24355539.242
        36.500
    780865.691 6                  21900155.438
        40.750
 19  3  7  0 44  0.0000000  0  6G01G17G28G19G11G24
   1473466.129 7                  23116122.789
        42.250
    766528.48448    621408.11744  20605745.8284                   20605740.3014
        48.0004         27.5004
   1494192.95747   1167426.80544  21884895.8674                   21884889.3554
        44.0004         25.2504
    -90398.42247      4394.93844  20545304.6174                   20545296.4454
        44.0004         24.5004
   2003812.824 6                  24356758.523
        39.250
    760114.53546    796246.15653  21896207.4534                   21896204.8444
        40.0004         21.5004
 19  3  7  0 44  5.0000000  0  6G01G17G28G19G11G24
   1473213.68447   1152428.62554  23116074.2734                   23116069.3874
        43.0004         28.0004
    757703.16848    614531.22345  20604066.3444                   20604061.8204
        48.2504         33.0004
   1493792.68847   1167114.86344  21884819.2034                   21884814.1914
        45.0004         29.7504
   -109803.03547    -10725.55944  20541611.2584                   20541604.6884
        43.2504         27.2504
   2010226.172 6                  24357978.906
        38.250
    739379.04746    780088.62543  21892261.7274                   21892259.4574
        39.5004         22.0004
 19  3  7  0 44 10.0000000  0  6G01G17G28G19G11G24
   1472978.50447   1152245.37153  23116030.3524                   23116027.8714
        42.5004         23.7504
    748892.92248    607666.09045  20602390.0084                   20602385.5704
        48.2504         33.0004
   1493401.83647   1166810.28144  21884745.4224                   21884740.2274
        45.2504         29.2504
   -129190.66847    -25832.81644  20537922.4064                   20537915.7854
        44.5004         29.2504
   2016649.348 6                  24359202.063
        38.000
    718656.87546    763941.48043  21888318.1174                   21888316.5394
        39.5004         22.0004
 19  3  7  0 44 15.0000000  0  6G01G17G28G19G11G24
   1472757.88347   1152073.47343  23115988.0084                   23115986.8284
        42.2504         22.7504
    740094.01648    600809.81345  20600715.7664                   20600711.5944
        48.5004         33.0004
   1493015.82847   1166509.51644  21884671.5234                   21884667.6294
        44.5004         28.7504
   -148565.37947    -40929.97344  20534235.6414                   20534229.6994
        44.5004         29.2504
   2023079.875 6                  24360425.578
        36.750
    697946.92646    747803.86743  21884377.1884                   21884375.5944
        40.5004         23.0004
 19  3  7  0 44 20.0000000  0  6G01G17G28G19G11G24
   1472553.77747   1151914.43043  23115949.2424                   23115948.2544
        42.2504         22.7504
    731309.39548    593964.65245  20599044.6024                   20599040.0664
        48.7504         33.0004
   1492636.75847   1166214.13344  21884600.5704                   21884595.1764
        45.2504         29.0004
   -167923.68047    -56014.36344  20530552.3914                   20530546.1564
        45.0004         29.5004
   2029519.605 6                  24361650.859
        37.250
    677252.98446    731678.70743  21880439.6484                   21880437.9924
        40.2504         21.7504
 19  3  7  0 44 25.0000000  0  6G01G17G28G19G11G24
   1472367.29347   1151769.11343  23115913.7034                   23115913.4494
        42.7504         22.5004
    722540.93848    587132.09045  20597375.3204                   20597371.8244
        48.7504         33.0004
   1492267.07047   1165926.05944  21884529.4844                   21884525.6914
        44.7504         27.7504
   -187263.55547    -71084.40644  20526871.9064                   20526866.0394
        44.7504         28.5004
   2035969.31646   1468465.62553  24362878.8134                   24362874.9184
        38.5004         19.0004
    656574.80146    715565.82843  21876504.4774                   21876502.9924
        41.2504         22.7504
 19  3  7  0 44 30.0000000  0  6G01G17G28G19G11G24
   1472206.70347   1151643.94944  23115882.3834                   23115882.3444
        42.5004         24.7504
    713796.48448    580318.19145  20595712.1804                   20595708.4774
        48.7504         32.5004
   1491913.72747   1165650.71844  21884461.3914                   21884457.4694
        45.0004         28.5004
   -206577.00847    -86133.86744  20523196.6724                   20523191.1724
        44.0004         27.2504
   2042437.59446   1473505.83242  24364109.3594                   24364105.7624
        37.5004         17.7504
    635923.24246    699473.69143  21872574.3444                   21872573.5984
        40.2504         22.5004
 19  3  7  0 44 35.0000000  0  6G01G17G28G19G11G24
   1472072.16046   1151539.12543  23115856.6334                   23115857.1954
        40.7504         22.5004
    705075.77848    573522.85445  20594051.8914                   20594048.1994
        49.0004         32.5004
   1491577.69947   1165388.86744  21884399.0394                   21884393.5474
        46.0004         26.5004
   -225864.66847   -101163.19944  20519525.7504                   20519520.2814
        46.0004         28.2504
   2048924.48845   1478560.52742  24365344.3834                   24365340.5944
        35.7504         15.5004
    615295.25946    683399.95443  21868649.3524                   21868648.3404
        41.0004         22.7504
 19  3  7  0 44 40.0000000  0  6G01G17G28G19G11G24
   1471952.05547   1151445.53144  23115835.0164                   23115834.5514
        44.0004         24.2504
    696366.33248    566736.27745  20592394.9844                   20592391.6604
        49.7504         34.2504
   1491246.69147   1165130.97744  21884335.7974                   21884331.2544
        46.5004         28.2504
   -245139.56647   -116182.59444  20515858.4304                   20515853.0004
        45.5004         29.7504
   2055418.62146   1483620.91842  24366579.3134                   24366576.6094
        38.0004         16.2504
    594678.87146    667335.24643  21864726.8984                   21864725.3954
        41.0004         23.7504
 19  3  7  0 44 45.0000000  0  6G01G17G28G19G11G24
   1471845.28547   1151362.34044  23115814.9844                   23115814.2114
        43.7504         24.2504
    687667.86348    559958.26245  20590739.6024                   20590736.1914
        50.0004         34.7504
   1490919.57847   1164876.07444  21884273.9694                   21884269.5864
        46.7504         28.5004
   -264401.23047   -131191.66845  20512193.0554                   20512187.3914
        46.0004         30.2504
   2061918.77346   1488685.97742  24367815.6254                   24367813.7274
        37.7504         16.2504
    574074.99646    651280.28443  21860806.0944                   21860804.7074
        41.2504         22.0004
 19  3  7  0 44 50.0000000  0  6G01G17G28G19G11G24
   1471757.33247   1151293.78943  23115796.9384                   23115797.6374
        42.7504         22.7504
    678986.52048    553193.55145  20589086.7584                   20589083.7704
        49.5004         34.2504
   1490603.09047   1164629.44144  21884212.3054                   21884209.2074
        46.2504         28.7504
   -283643.44147   -146185.62545  20508530.9304                   20508525.6024
        45.7504         30.2504
   2068430.16046   1493759.74242  24369055.3834                   24369053.1414
        36.5004         16.2504
    553488.10946    635238.53543  21856887.5164                   21856887.3054
        40.0004         22.7504
 19  3  7  0 44 55.0000000  0  6G01G17G28G19G11G24
   1471692.72747   1151243.44843  23115785.0394                   23115785.2544
        42.5004         22.5004
    670326.04548    546445.12245  20587439.3914                   20587436.4414
        49.2504         32.7504
   1490300.64847   1164393.76444  21884155.7034                   21884151.1684
        45.7504         28.0004
   -302862.73447   -161161.70644  20504874.1884                   20504868.2854
        45.5004         28.7504
   2074957.65246   1498846.12542  24370297.5004                   24370295.5164
        37.7504         16.2504
    532923.42146    619214.08643  21852974.6174                   21852973.6024
        40.7504         22.0004
