     2.11           OBSERVATION DATA    G (GPS)             RINEX VERSION / TYPE
teqc  2019Feb25     Martin Truffer      20190308 01:05:42UTCPGM / RUN BY / DATE
Linux 2.6.32-573.12.1.x86_64|x86_64|gcc|Linux 64|=+         COMMENT
BIT 2 OF LLI FLAGS DATA COLLECTED UNDER A/S CONDITION       COMMENT
51890652                                                    MARKER NAME
5189                                                        MARKER NUMBER
-Unknown-           -Unknown-                               OBSERVER / AGENCY
0220315189          TRIMBLE 5700        2.30                REC # / TYPE / VERS
-Unknown-           TRM41249.00     NONE                    ANT # / TYPE
 -1794386.8154 -3484140.9828  5017863.2267                  APPROX POSITION XYZ
        0.0530        0.0000        0.0000                  ANTENNA: DELTA H/E/N
     1     1                                                WAVELENGTH FACT L1/2
     7    L1    L2    C1    P1    P2    S1    S2            # / TYPES OF OBSERV
    18                                                      LEAP SECONDS
 SNR is mapped to RINEX snr flag value [0-9]                COMMENT
  L1 & L2: min(max(int(snr_dBHz/6), 0), 9)                  COMMENT
  2019     3     6    23    24   50.0000000     GPS         TIME OF FIRST OBS
                                                            END OF HEADER
 19  3  6 23 24 50.0000000  0  5G17G13G18G28G30
    -63726.69957    -33676.41455  21507129.0634                   21507127.0164
        47.2504         35.0004
      -661.79757      -170.14855  21838513.6954                   21838510.4384
        46.5004         34.5004
     -3819.17617                  23044074.445
        43.250
    -10799.63357        -5.45954  20688151.6174                   20688148.9344
        43.0004         29.7504
     18483.82056      8927.16053  21935607.6174                   21935608.1954
        40.0004         23.2504
 19  3  6 23 24 55.0000000  0  5G17G13G18G28G30
                                  21503470.6024                   21503469.1414
        49.7504         42.2504
                                  21838475.8834                   21838474.5984
        48.5004         36.5004
     -9104.45755      -662.89853  23043069.5234                   23043066.8754
        35.0004         20.7504
                                  20687223.9694                   20687222.3754
        44.5004         34.2504
                                  21936666.4144                   21936668.7704
        44.2504         32.2504
 19  3  6 23 25  0.0000000  0  5G17G13G18G28G30
   -102162.83248    -58234.41446  21499814.9694                   21499812.9614
        49.0004         37.0004
     -1034.91847      -461.05545  21838442.8134                   21838440.3444
        45.7504         32.2504
    -14371.37146     -4766.96143  23042067.5004                   23042065.4924
        38.2504         19.0004
    -20544.77047     -7599.32446  20686297.9774                   20686294.5354
        47.2504         38.0004
     29624.63347     17608.10545  21937727.7734                   21937728.6334
        45.0004         31.7504
 19  3  6 23 25 10.0000000  0  4G17G13G18G28
    -15316.53558    -73116.08255  21492514.6174                   21492510.0594
        50.2504         35.5004
                                  21838387.9304                   21838383.2934
        49.2504         35.7504
                                  23040078.320
        43.500
                                  20684454.5084                   20684447.9924
        44.0004         34.7504
 19  3  6 23 25 15.0000000  0  5G17G13G18G28G30
    -34475.14548    -88044.70344  21488870.2504                   21488865.4804
        50.0004         29.7504
      -237.15248      -716.15255  21838368.9774                   21838363.1414
        50.0004         32.7504
     -6862.262 6                  23039090.750
        41.000
     -8510.03147    -14726.34045  20683537.7584                   20683532.4224
        44.0004         32.2504
      5172.63316                  21940931.195
        41.500
 19  3  6 23 25 20.0000000  0  5G17G13G18G28G30
    -53623.56248   -102965.55145  21485226.4534                   21485222.5164
        51.0004         30.7504
      -337.16848      -794.03545  21838349.2894                   21838346.5824
        49.5004         31.0004
    -12039.98446    -14665.50053  23038106.0314                   23038102.9264
        41.0004         20.2504
    -13329.62147    -18481.83245  20682620.5474                   20682616.0354
        44.7504         31.5004
     10802.11346     21972.94953  21942003.0084                   21942002.3914
        38.2504         22.0004
 19  3  6 23 25 25.0000000  0  5G17G13G18G28G30
    -72762.00848   -117878.57044  21481584.4534                   21481580.2464
        49.7504         29.2504
      -423.80948      -861.54744  21838333.0634                   21838330.0234
        48.5004         29.5004
    -17201.62146    -18687.49243  23037122.8834                   23037120.9844
        41.5004         19.2504
    -18143.26247    -22232.68745  20681704.3594                   20681700.6604
        43.5004         31.5004
     16438.98046     26365.36343  21943076.0784                   21943075.4414
        41.2504         22.7504
 19  3  6 23 25 30.0000000  0  5G17G13G18G28G30
    -91889.65248   -132783.49246  21477943.0784                   21477941.3754
        50.0004         37.5004
      -496.12948      -918.12945  21838316.9534                   21838316.3094
        48.5004         35.2504
    -22346.07446    -22696.35943  23036142.9454                   23036142.8014
        39.5004         19.5004
    -22949.91847    -25978.34845  20680788.5314                   20680785.9384
        44.7504         35.2504
     22084.00446     30763.78543  21944148.3914                   21944148.9264
        38.7504         23.0004
 19  3  6 23 25 35.0000000  0  5G17G13G18G28G30
   -111006.09848   -147679.33646  21474306.2814                   21474302.3834
        51.5004         37.0004
      -553.82447      -963.03145  21838307.3754                   21838304.0084
        47.7504         34.0004
    -27473.18446    -26691.45743  23035168.1024                   23035166.7734
        37.2504         20.2504
    -27749.42647    -29718.17246  20679875.9224                   20679871.7384
        44.5004         36.2504
     27737.45746     35169.16843  21945225.4144                   21945224.3914
        41.2504         22.7504
 19  3  6 23 25 40.0000000  0  5G17G13G18G28G30
   -130111.44548   -162566.63346  21470670.4844                   21470667.1374
        50.7504         36.5004
      -596.95348      -996.67645  21838299.1804                   21838296.1644
        49.2504         34.7504
    -32583.03546    -30673.20743  23034195.8674                   23034194.1054
        36.5004         18.5004
    -32541.76247    -33452.46546  20678963.5234                   20678959.8524
        46.0004         36.0004
     33399.55546     39581.20743  21946302.5634                   21946301.8244
        41.2504         22.5004
 19  3  6 23 25 45.0000000  0  8G17G11G13G15G18G19G28G30
   -149205.37548   -177445.02046  21467036.8134                   21467032.4344
        50.0004         36.0004
    -29490.66416                  22350903.391
        40.250
      -625.24248     -1018.68045  21838293.3134                   21838289.5514
        49.5004         35.2504
    -55269.37958    -55258.41855  22838641.4304                   22838638.2344
        49.7504         32.2504
    -37675.15646    -34641.06643  23033227.3054                   23033225.3594
        39.0004         19.7504
   -213660.98057   -192321.59854  23216387.4064                   23216382.1294
        44.0004         29.2504
    -37326.64547    -37180.92645  20678053.0474                   20678048.4694
        44.5004         34.7504
     39070.28546     43999.91043  21947381.5164                   21947380.4534
        38.7504         22.2504
 19  3  6 23 25 50.0000000  0  9G17G01G11G13G15G18G19G28G30
   -168287.87948   -192314.46145  21463405.4614                   21463401.5204
        50.5004         35.5004
    -81672.77715                  22766986.414
        35.500
    -33342.285 6                  22350171.289
        39.250
      -638.69548     -1029.19945  21838291.6954                   21838287.1454
        49.5004         34.2504
    -62323.17248    -60754.85945  22837298.8674                   22837295.4144
        49.0004         31.0004
    -42749.69946    -38595.22343  23032260.6024                   23032258.8444
        38.5004         19.0004
   -241170.31647   -213757.43444  23211152.7344                   23211147.3484
        43.2504         29.0004
    -42104.09047    -40903.61745  20677144.1884                   20677139.0594
        44.7504         35.5004
     44749.82846     48425.53143  21948462.2504                   21948460.3484
        40.7504         23.0004
 19  3  6 23 25 55.0000000  0  9G17G01G11G13G15G18G19G28G30
   -187358.95748   -207175.05146  21459776.4844                   21459772.0554
        50.5004         36.0004
    -96125.523 5                  22764235.750
        34.000
    -37177.41046     -3848.69153  22349441.2274                   22349436.4414
        39.5004         20.0004
      -637.39848     -1028.17245  21838291.2034                   21838287.6214
        49.2504         33.5004
    -69361.08248    -66238.92645  22835959.2814                   22835956.2424
        49.5004         31.5004
    -47806.73346    -42535.74242  23031298.6484                   23031296.5634
        38.2504         17.7504
   -268674.27347   -235189.05945  23205918.4064                   23205913.5274
        43.0004         30.0004
    -46874.15647    -44620.53945  20676235.9064                   20676231.4534
        45.0004         35.5004
     50437.98846     52857.86743  21949543.5784                   21949542.8554
        40.2504         22.7504
 19  3  6 23 26  0.0000000  0  8G17G11G13G15G18G19G28G30
   -206418.62148   -222026.77046  21456149.5944                   21456144.6884
        50.0004         36.0004
    -40995.84846     -6824.07443  22348713.6884                   22348709.7424
        37.0004         18.5004
      -621.28948     -1015.60545  21838294.3284                   21838290.1804
        48.0004         33.2504
    -76383.12948    -71710.67645  22834623.7034                   22834620.2234
        50.2504         31.0004
    -52846.10546    -46462.61742  23030339.4304                   23030337.8984
        38.5004         16.2504
   -296172.61347   -256616.39144  23200686.6024                   23200680.8794
        44.0004         29.2504
    -51636.76247    -48331.66045  20675329.8834                   20675325.1684
        45.5004         32.2504
     56134.92246     57297.00443  21950628.9694                   21950626.2894
        40.5004         21.7504
 19  3  6 23 26  5.0000000  0  9G17G01G11G13G15G18G19G28G30
   -225466.82048   -236869.46145  21452524.8754                   21452519.9414
        49.7504         34.5004
   -124983.93715                  22758744.930
        33.750
    -44797.71146     -9786.52742  22347991.2814                   22347986.4694
        37.5004         17.2504
      -590.41048      -991.54345  21838300.5554                   21838295.4534
        49.5004         33.0004
    -83389.23848    -77169.93744  22833290.1174                   22833286.2034
        49.7504         29.7504
    -57867.90646    -50375.64142  23029383.6484                   23029382.0744
        40.5004         17.2504
   -323665.40647   -278039.28144  23195454.3524                   23195448.7424
        45.0004         29.5004
    -56391.94147    -52036.98445  20674425.2584                   20674419.8634
        45.0004         34.0004
     61840.51646     61742.96144  21951713.7734                   21951712.2974
        41.2504         25.2504
 19  3  6 23 26 10.0000000  0  9G17G01G11G13G15G18G19G28G30
   -244503.43048   -251703.19145  21448902.2114                   21448897.1914
        50.0004         35.0004
   -139388.484 5                  22756002.266
        32.750
    -48582.67246    -12735.87142  22347271.1564                   22347266.6724
        36.7504         17.2504
      -544.60248      -955.85245  21838308.8204                   21838304.1724
        48.7504         33.2504
    -90379.29348    -82616.74645  22831960.2114                   22831955.4104
        50.0004         31.2504
    -62871.99246    -54274.94143  23028432.4924                   23028429.4344
        39.5004         19.0004
   -351152.47747   -299457.82844  23190224.4844                   23190217.6214
        44.5004         29.0004
    -61139.52047    -55736.40645  20673521.6484                   20673516.2854
        45.5004         34.0004
     67554.94947     66195.75044  21952802.1334                   21952799.6524
        42.0004         25.5004
 19  3  6 23 26 20.0000000  0  8G17G11G13G15G18G19G28G30
    -20543.67258   -275433.42456  21441663.3914                   21441659.7344
        52.0004         38.7504
     -4052.26216                  22345839.234
        37.500
      -391.07058      -855.50856  21838335.0084                   21838330.8284
        50.2504         37.0004
     -7523.08658    -90650.70355  22829308.7664                   22829305.0944
        51.5004         35.5004
     -5365.71916                  23026537.719
        41.250
    -29674.28557   -332858.32255  23179765.6564                   23179760.7194
        44.2504         30.2504
     -5111.82057    -61050.42656  20671718.6804                   20671714.2114
        46.2504         38.0004
                                  21954981.289
        44.000
 19  3  6 23 26 25.0000000  0  8G17G11G13G15G18G19G28G30
    -39545.20748   -290239.81646  21438047.2424                   21438045.7624
        50.7504         36.5004
     -7786.60546    -17179.23853  22345128.1724                   22345125.6644
        37.5004         19.2504
      -300.27048      -784.76245  21838352.0234                   21838349.8794
        48.5004         34.2504
    -14464.69948    -96059.82845  22827987.1724                   22827985.9184
        49.5004         33.7504
    -10316.31246    -60160.52753  23025594.9534                   23025592.8634
        39.0004         20.5004
    -57143.90247   -354263.25445  23174538.0234                   23174534.5204
        42.2504         30.2504
     -9836.50447    -64732.05546  20670819.5704                   20670817.3794
        44.5004         36.7504
                                  21956072.992
        40.500
 19  3  6 23 26 30.0000000  0  8G17G11G13G15G18G19G28G30
    -58535.21548   -305037.20345  21434434.1334                   21434432.0514
        50.0004         34.7504
    -11504.37146    -20076.17643  22344421.2974                   22344418.5944
        39.7504         19.5004
      -194.59448      -702.41045  21838371.4614                   21838369.6294
        48.0004         33.0004
    -21390.35948   -101456.39845  22826669.5234                   22826668.3794
        49.0004         32.0004
    -15249.18446    -64004.32443  23024656.2424                   23024654.4694
        40.5004         20.7504
    -84607.83647   -375663.62544  23169311.9614                   23169308.3094
        44.5004         29.7504
    -14553.68447    -68407.75445  20669921.9844                   20669919.0864
        45.2504         35.5004
     14016.72346     78957.31653  21957168.1884                   21957167.5594
        40.7504         22.2504
 19  3  6 23 26 35.0000000  0  9G17G01G11G13G15G18G19G28G30
    -77513.45348   -319825.44945  21430822.2974                   21430818.5004
        49.0004         34.5004
                                  22742342.992
        33.250
    -15205.14546    -22959.91043  22343717.4064                   22343714.3094
        40.0004         21.5004
       -73.89548      -608.37145  21838394.8834                   21838391.5004
        48.5004         34.0004
    -28299.78948   -106840.39545  22825354.9534                   22825352.1294
        50.0004         31.5004
    -20164.16446    -67834.17643  23023721.6884                   23023719.2034
        41.0004         20.7504
   -112065.81647   -397059.51244  23164086.5394                   23164082.1724
        44.5004         29.0004
    -19263.22747    -72077.52345  20669025.5634                   20669021.1644
        44.7504         35.2504
     19775.72746     83444.85243  21958263.8914                   21958263.0904
        40.2504         21.7504
 19  3  6 23 26 40.0000000  0  9G17G01G11G13G15G18G19G28G30
    -96479.91448   -334604.48445  21427213.2584                   21427209.4224
        50.0004         35.0004
    -25145.801 5                  22739621.586
        32.750
    -18889.02046    -25830.42243  22343015.9844                   22343012.8484
        39.5004         20.5004
        61.84848      -502.59845  21838421.4694                   21838417.2584
        48.2504         33.2504
    -35193.02048   -112211.69945  22824043.1174                   22824040.0274
        49.5004         31.5004
    -25061.26246    -71650.09443  23022789.1254                   23022787.2464
        41.5004         20.5004
   -139517.87147   -418450.64844  23158862.3134                   23158857.9884
        43.5004         29.2504
    -23965.02747    -75741.25045  20668130.9384                   20668126.9884
        44.7504         34.7504
     25543.63346     87939.32843  21959361.6954                   21959360.8874
        41.0004         21.5004
 19  3  6 23 26 45.0000000  0  9G17G01G11G13G15G18G19G28G30
   -115434.11748   -349374.00045  21423606.3594                   21423602.7734
        50.0004         34.5004
    -39435.59045     -9389.43453  22736902.1094                   22736898.8984
        33.7504         19.0004
    -22555.47746    -28687.42643  22342318.2894                   22342314.7504
        39.0004         20.0004
       213.08648      -384.73045  21838449.9924                   21838446.2194
        48.7504         34.5004
    -42069.57048   -117570.05945  22822734.6644                   22822731.6484
        50.0004         31.0004
    -29939.95746    -75451.66043  23021860.8914                   23021858.9694
        40.7504         20.0004
   -166963.46947   -439836.87944  23153640.1024                   23153635.6884
        43.7504         29.5004
    -28658.64147    -79398.62945  20667238.2584                   20667233.8984
        45.5004         34.7504
     31321.00446     92441.19143  21960460.3754                   21960459.8874
        39.7504         21.2504
 19  3  6 23 26 50.0000000  0  9G17G01G11G13G15G18G19G28G30
   -134376.79348   -364134.52045  21420001.8524                   21419997.6724
        49.7504         34.7504
    -53709.32845    -20511.81642  22734185.6644                   22734183.7424
        33.0004         17.2504
    -26205.28946    -31531.42643  22341623.7344                   22341620.3714
        40.5004         20.0004
       379.09848      -255.38345  21838480.9064                   21838477.3634
        49.2504         33.7504
    -48930.18748   -122916.00045  22821429.5704                   22821425.9144
        50.5004         31.0004
    -34801.10946    -79239.57443  23020935.8674                   23020933.3404
        41.2504         19.5004
   -194403.36347   -461218.59044  23148418.3054                   23148413.5084
        44.0004         29.7504
    -33344.84447    -83050.21145  20666346.3754                   20666341.6884
        45.7504         34.5004
     37107.07046     96949.78143  21961562.4304                   21961560.8364
        40.0004         21.5004
 19  3  6 23 26 55.0000000  0  9G17G01G11G13G15G18G19G28G30
   -153307.82048   -378885.95745  21416399.4144                   21416394.9734
        49.7504         34.5004
    -67966.70745    -31621.43742  22731473.1174                   22731471.0004
        32.0004         16.2504
    -29838.33646    -34362.34443  22340932.8984                   22340928.4224
        39.7504         20.0004
       559.91448      -114.46145  21838515.9304                   21838511.4494
        49.0004         34.2504
    -55774.73048   -128249.38345  22820127.0944                   22820123.0004
        50.0004         31.5004
    -39644.52046    -83013.64543  23020014.8594                   23020011.2114
        41.7504         19.5004
   -221837.43447   -482595.78544  23143197.9224                   23143193.0554
        44.2504         29.2504
    -38023.52047    -86695.91445  20665455.6724                   20665450.8754
        46.2504         34.5004
     42901.91446    101465.26643  21962664.8204                   21962663.1454
        40.0004         21.2504
 19  3  6 23 27  0.0000000  0  9G17G01G11G13G15G18G19G28G30
   -172227.23848   -393628.35245  21412799.0004                   21412794.2464
        49.5004         34.2504
    -82207.84845    -42718.41442  22728763.1414                   22728761.1564
        32.2504         16.7504
    -33454.71546    -37180.30143  22340244.3674                   22340239.9344
        40.5004         20.2504
       755.56648        37.98045  21838553.5084                   21838548.0984
        49.0004         33.5004
    -62603.32848   -133570.36745  22818827.2974                   22818823.5204
        50.0004         31.5004
    -44470.21546    -86773.93043  23019095.7424                   23019093.1524
        41.0004         20.5004
   -249265.67647   -503968.42644  23137978.4064                   23137973.1804
        44.2504         29.7504
    -42694.67647    -90335.78145  20664567.2814                   20664562.0234
        46.0004         34.2504
     48705.53146    105987.56643  21963769.3914                   21963766.9454
        40.0004         21.5004
 19  3  6 23 27  5.0000000  0  9G17G01G11G13G15G18G19G28G30
   -191135.08248   -408361.71545  21409201.6094                   21409195.9024
        50.0004         33.5004
    -96432.85245    -53802.83242  22726056.3914                   22726053.9344
        32.0004         15.5004
    -37054.39846    -39985.23843  22339559.7034                   22339554.5744
        39.5004         20.0004
       965.94948       201.94545  21838593.1254                   21838588.1054
        49.2504         32.7504
    -69415.96548   -138878.90645  22817531.5634                   22817526.5234
        50.5004         31.5004
    -49278.25446    -90520.42243  23018181.3134                   23018177.5554
        41.2504         20.5004
   -276688.19147   -525336.59044  23132760.0234                   23132754.6644
        44.0004         28.5004
    -47358.38347    -93969.80945  20663679.8914                   20663674.0314
        46.0004         33.5004
     54517.82446    110516.63343  21964875.2034                   21964872.7584
        39.5004         22.5004
 19  3  6 23 27 10.0000000  0  9G17G01G11G13G15G18G19G28G30
   -210031.47748   -423086.18445  21405605.5394                   21405599.6684
        50.5004         33.2504
   -110641.81645    -64874.74242  22723352.4064                   22723350.4144
        32.7504         16.2504
    -40637.58646    -42777.32443  22338877.8914                   22338872.5354
        39.2504         20.7504
      1190.93048       377.25845  21838635.7894                   21838630.7304
        49.0004         33.5004
    -76212.85248   -144175.18745  22816238.2274                   22816232.7814
        50.7504         31.7504
    -54068.85946    -94253.39843  23017269.9454                   23017265.6524
        40.5004         20.7504
   -304105.05947   -546700.39544  23127542.7734                   23127536.8284
        44.7504         29.2504
    -52014.80547    -97598.19945  20662793.9144                   20662787.6134
        46.2504         33.5004
     60338.66446    115052.35243  21965983.7894                   21965980.3834
        40.7504         21.7504
 19  3  6 23 27 15.0000000  0  9G17G01G11G13G15G18G19G28G30
   -228916.40248   -437801.73845  21402011.7034                   21402005.6524
        49.5004         34.0004
   -124834.676 5                  22720649.992
        31.000
    -44204.25046    -45556.57043  22338199.9384                   22338194.0204
        39.2504         19.7504
      1430.52748       563.91445  21838682.2194                   21838675.6914
        49.2504         33.7504
    -82993.96148   -149459.18445  22814947.5864                   22814942.0314
        50.5004         30.5004
    -58841.88746    -97972.62543  23016360.9144                   23016357.2734
        40.2504         19.7504
   -331516.21947   -568059.77744  23122326.6954                   23122320.2274
        44.5004         29.5004
    -56663.87947   -101220.88745  20661909.2894                   20661902.5354
        45.2504         33.2504
     66168.06346    119594.69943  21967092.0944                   21967089.5164
        39.0004         21.5004
 19  3  6 23 27 20.0000000  0  9G17G01G11G13G15G18G19G28G30
   -247789.85548   -452508.28545  21398420.0164                   21398414.8554
        49.5004         34.7504
   -139011.434 5                  22717954.336
        32.250
    -47754.36746    -48322.87943  22337523.6094                   22337518.0744
        39.5004         20.7504
      1684.73848       762.01645  21838729.6024                   21838724.6054
        48.0004         33.0004
    -89759.18748   -154730.78545  22813660.3444                   22813655.5704
        50.2504         32.0004
    -63597.43446   -101678.27043  23015456.0394                   23015452.5274
        41.5004         19.7504
   -358921.71947   -589414.64144  23117111.5474                   23117105.6764
        43.5004         29.7504
    -61305.59047   -104837.76245  20661025.7034                   20661020.2894
        45.7504         34.0004
     72006.00046    124143.77743  21968203.7504                   21968200.3444
        40.0004         21.5004
 19  3  6 23 27 25.0000000  0  9G17G01G11G13G15G18G19G28G30
   -266651.79748   -467205.90245  21394831.2344                   21394825.1994
        50.0004         34.5004
   -153172.020 5                  22715259.992
        32.250
    -51287.90246    -51076.28143  22336851.0634                   22336845.5204
        40.2504         21.5004
      1953.60248       971.52745  21838780.9614                   21838775.3054
        48.5004         32.7504
    -96508.57848   -159990.03145  22812376.1094                   22812370.8594
        50.5004         30.7504
    -68335.46946   -105370.20743  23014554.9064                   23014550.5164
        41.2504         20.0004
   -386321.54747   -610765.18744  23111897.8524                   23111891.2074
        44.0004         29.5004
    -65939.96547   -108448.96945  20660144.1414                   20660137.8204
        45.7504         33.7504
     77852.58246    128699.55943  21969316.3594                   21969312.7424
        39.2504         21.0004
 19  3  6 23 27 30.0000000  0  8G17G01G11G13G15G19G28G30
                                  21391243.2814                   21391239.5274
        50.2504         33.7504
                                  22712568.359
        34.750
                                  22336182.0634                   22336177.2664
        37.7504         19.2504
                                  21838835.7424                   21838830.9574
        48.7504         34.0004
                                  22811094.0314                   22811085.3754
        50.5004         38.0004
                                  23106684.5314                   23106680.7894
        44.5004         34.5004
                                  20659262.7424                   20659258.7274
        46.0004         37.2504
                                  21970429.273
        41.000
 19  3  6 23 27 35.0000000  0  9G17G01G11G13G15G18G19G28G30
   -304338.04748   -496572.13745  21387659.1484                   21387654.9104
        50.0004         33.0004
    -19771.633 5                  22709878.383
        31.500
    -58301.14146    -56541.26243  22335515.4534                   22335511.6094
        38.2504         18.2504
      2536.29348      1425.78545  21838890.8444                   21838887.7584
        48.2504         32.0004
   -109961.75448   -170053.46145  22809816.3444                   22809811.2854
        50.0004         31.5004
     -6334.89816                  23012762.406
        39.000
    -38345.94947   -644061.75454  23101473.2114                   23101467.5594
        45.2504         29.2504
    -75187.57047   -115367.12545  20658384.3914                   20658378.9344
        45.7504         35.5004
     89574.492 6                  21971545.633
        40.500
 19  3  6 23 27 40.0000000  0  9G17G01G11G13G15G18G19G28G30
   -323165.32048   -511242.70745  21384076.5084                   21384070.9804
        48.7504         31.7504
    -33883.742 5                  22707193.930
        35.000
    -61784.94146    -59255.85943  22334853.3364                   22334848.0594
        39.7504         18.5004
      2849.10248      1669.57445  21838951.9144                   21838946.2584
        48.0004         32.2504
   -116663.51648   -175275.57444  22808541.2034                   22808535.7234
        49.0004         29.5004
    -11020.18446   -110351.00853  23011869.5554                   23011865.6644
        39.2504         18.5004
    -65728.55147   -665398.83244  23096262.9844                   23096256.5204
        44.7504         28.5004
    -79799.86747   -118961.07845  20657507.1644                   20657500.7734
        46.0004         33.0004
     95446.84846    135648.05553  21972664.6254                   21972661.3244
        39.7504         21.7504
 19  3  6 23 27 45.0000000  0  9G17G01G11G13G15G18G19G28G30
   -341980.77748   -525904.09845  21380495.8834                   21380490.3094
        49.0004         32.2504
    -47979.281 5                  22704511.938
        34.500
    -65251.86346    -61957.34442  22334193.4614                   22334188.4924
        39.0004         16.7504
      3176.76647      1924.89545  21839013.1724                   21839008.9804
        47.5004         32.0004
   -123349.17648   -180485.18444  22807268.5234                   22807263.6454
        48.2504         29.7504
    -15687.71546   -113988.01643  23010981.6724                   23010977.9534
        39.0004         18.2504
    -93105.08647   -686731.19544  23091053.1094                   23091046.6684
        45.0004         29.0004
    -84404.51247   -122549.12145  20656630.7504                   20656624.1054
        45.7504         33.0004
    101328.01646    140230.78543  21973782.3834                   21973780.3054
        39.5004         20.5004
 19  3  6 23 27 50.0000000  0  9G17G01G11G13G15G18G19G28G30
   -360784.87948   -540556.65245  21376917.8984                   21376911.5864
        49.0004         32.0004
    -62058.832 5                  22701831.969
        34.500
    -68702.43446    -64646.11343  22333536.9454                   22333531.4454
        39.2504         18.2504
      3518.83648      2191.43445  21839079.4534                   21839073.5354
        48.5004         32.5004
   -130019.17648   -185682.59844  22805999.2814                   22805994.1334
        48.0004         29.2504
    -20337.89546   -117611.55942  23010095.6644                   23010092.5084
        38.7504         17.2504
   -120475.98447   -708059.16844  23085844.9224                   23085838.3754
        45.0004         28.5004
    -89001.91047   -126131.50845  20655755.9384                   20655749.5704
        46.0004         33.5004
    107217.59846    144820.06643  21974903.8444                   21974900.8554
        40.2504         20.5004
 19  3  6 23 27 55.0000000  0  9G17G01G11G13G15G18G19G28G30
   -379577.56248   -555200.30545  21373341.5234                   21373335.4494
        49.0004         32.5004
    -76122.35945    -85574.39153  22699155.3054                   22699154.5784
        34.5004         19.2504
    -72136.57046    -67322.05943  22332883.0164                   22332877.8634
        40.0004         19.0004
      3875.34848      2469.22345  21839146.7664                   21839140.8794
        48.0004         33.0004
   -136673.46548   -190867.77044  22804733.0474                   22804727.7894
        48.5004         29.5004
    -24970.66446   -121221.49243  23009215.5314                   23009211.2934
        39.7504         18.2504
   -147841.19147   -729382.71944  23080637.2504                   23080630.0274
        45.5004         29.2504
    -93592.14147   -129708.31645  20654882.2584                   20654875.4574
        46.0004         33.0004
    113115.56646    149415.83643  21976026.2424                   21976023.2234
        39.5004         20.5004
 19  3  6 23 28  0.0000000  0  9G17G01G11G13G15G18G19G28G30
   -398358.93448   -569835.12545  21369767.9694                   21369761.6604
        49.0004         33.0004
    -90169.89545    -96520.49242  22696483.8444                   22696481.5084
        34.5004         17.2504
    -75554.40246    -69985.30143  22332232.3754                   22332227.2114
        39.0004         18.5004
      4246.18848      2758.19545  21839218.1954                   21839211.7154
        48.2504         33.2504
   -143312.18448   -196040.78545  22803469.6094                   22803464.2234
        48.5004         30.5004
    -29586.21946   -124818.05543  23008336.7114                   23008332.9384
        39.7504         18.5004
   -175200.84447   -750701.91444  23075430.7814                   23075423.8204
        44.5004         29.0004
    -98175.22347   -133279.54345  20654010.1254                   20654003.3874
        46.0004         33.2504
    119021.85546    154018.14843  21977150.2974                   21977146.4104
        39.7504         20.2504
 19  3  6 23 28  5.0000000  0  9G17G01G11G13G15G18G19G28G30
   -417129.16448   -584461.30545  21366195.8054                   21366189.1214
        49.5004         33.5004
   -104201.55546   -107454.26642  22693812.5234                   22693810.9924
        36.2504         16.7504
    -78956.12946    -72636.01643  22331586.4144                   22331579.8204
        40.0004         19.0004
      4631.24648      3058.20745  21839290.5634                   21839284.9184
        48.0004         32.7504
   -149935.46548   -201201.82045  22802209.8204                   22802203.5004
        49.0004         31.0004
    -34184.55146   -128401.17242  23007461.9844                   23007457.7584
        40.0004         17.7504
   -202555.09847   -772016.93044  23070226.0704                   23070218.6024
        45.5004         27.7504
   -102751.38747   -136845.39145  20653139.3674                   20653132.3324
        46.0004         33.5004
    124936.34446    158626.84043  21978275.7424                   21978271.7624
        39.5004         19.7504
 19  3  6 23 28 10.0000000  0  9G17G01G11G13G15G18G19G28G30
   -435888.37548   -599078.85545  21362625.7734                   21362620.2584
        50.2504         32.2504
   -118217.41845   -118375.69942  22691144.4694                   22691144.0004
        32.5004         15.5004
    -82341.87946    -75274.25443  22330941.0394                   22330935.4024
        38.0004         18.2504
      5030.25847      3369.15645  21839365.5704                   21839361.1214
        47.5004         30.5004
   -156543.49248   -206350.87944  22800951.9454                   22800946.5354
        50.5004         28.5004
    -38765.86746   -131970.98042  23006589.7584                   23006586.7424
        38.2504         15.5004
   -229904.10247   -793327.78144  23065020.5554                   23065014.0274
        45.0004         27.5004
   -107320.75447   -140405.94145  20652269.4844                   20652263.5664
        46.5004         33.7504
    130858.71947    163241.64543  21979401.8834                   21979398.8284
        42.5004         22.0004
 19  3  6 23 28 15.0000000  0  9G17G01G11G13G15G18G19G28G30
   -454636.40248   -613687.71945  21359058.2114                   21359052.3674
        50.7504         33.2504
   -132217.863 5                  22688481.484
        33.500
    -85711.60246    -77900.02043  22330299.3594                   22330294.3634
        40.5004         19.5004
      5443.46948      3691.09045  21839444.8204                   21839440.1414
        48.2504         32.2504
   -163136.10248   -211488.02745  22799697.5084                   22799692.2114
        51.2504         30.7504
    -43330.19946   -135527.59042  23005721.1884                   23005718.1724
        40.5004         16.2504
   -257247.65247   -814634.46944  23059817.9224                   23059810.9734
        44.5004         29.5004
   -111883.21547   -143961.09845  20651401.6954                   20651395.3324
        46.5004         33.7504
    136789.19546    167862.83643  21980530.4384                   21980527.5434
        40.7504         22.5004
 19  3  6 23 32 20.0000000  0  8G17G11G13G18G19G28G30G15
    -57586.22357   -653147.43055  21186729.7424                   21186727.6254
        47.5004         30.7504
     -1992.89515                  22302475.008
        35.000
      3585.24257      4803.73854  21846416.7034                   21846413.0204
        44.2504         27.2504
     -2944.47316                  22966996.734
        38.750
    -18409.21917                  22806026.820
        43.250
    -11994.36356   -149483.27054  20610324.4454                   20610321.9384
        41.0004         26.0004
      4540.73817                  22037552.930
        44.750
     -6504.58217                  22741664.680
        45.250
 19  3  6 23 32 25.0000000  0  8G17G11G13G18G19G28G30G15
    -75788.99648   -667331.43045  21183266.2034                   21183263.9144
        48.0004         32.2504
     -4583.71115                  22301982.906
        34.500
      4672.88347      5651.29744  21846622.0084                   21846620.5824
        43.7504         28.5004
     -6678.340 6                  22966286.727
        37.000
    -45486.89847    -20399.55554  22800874.7974                   22800870.9924
        43.0004         26.2504
    -16233.91047   -152786.80543  20609518.3914                   20609515.1724
        42.2504         22.7504
     10847.69147    174801.71554  22038753.4534                   22038753.6174
        43.2504         26.2504
    -12351.21147     -4376.02754  22740552.7814                   22740550.6214
        44.5004         24.7504
 19  3  6 23 32 30.0000000  0  9G01G17G11G13G18G19G28G30G15
                                  22556484.477
        35.000
    -93991.24248   -681514.99645  21179802.1724                   21179799.9614
        48.2504         31.5004
     -7169.46946      -332.41454  22301490.7274                   22301486.8364
        41.0004         25.2504
      5763.21147      6500.88744  21846830.3054                   21846828.2544
        44.7504         28.0004
    -10406.05146     -2867.69153  22965576.4844                   22965575.4264
        40.7504         21.2504
    -72569.44147    -41502.83644  22795720.8674                   22795717.1134
        43.2504         25.5004
    -20477.57447   -156093.59045  20608710.5394                   20608707.5274
        45.5004         34.5004
     17151.62547    178927.89555  22039953.1564                   22039942.6644
        42.0004         32.5004
    -18193.55947     -8928.54344  22739440.8524                   22739438.5004
        44.5004         24.5004
 19  3  6 23 32 35.0000000  0  9G01G17G11G13G18G19G28G30G15
    -25928.137 5                  22553970.781
        35.000
   -112194.91448   -695699.66445  21176338.3914                   21176336.3364
        48.5004         31.7504
     -9752.26646     -2344.99243  22300999.3984                   22300996.3594
        39.0004         23.5004
      6854.30547      7351.10244  21847037.6414                   21847035.4614
        45.0004         27.7504
    -14129.84046     -5769.38743  22964867.7894                   22964866.6684
        40.0004         20.5004
    -99658.85547    -62611.45744  22790565.8204                   22790562.3444
        43.0004         25.5004
    -24727.30547   -159405.05145  20607902.0084                   20607898.9534
        45.2504         33.5004
     23450.34047    183836.00454  22041151.4534                   22041150.2424
        42.0004         27.2504
    -24033.52047    -13479.15244  22738329.7034                   22738327.3914
        44.5004         27.5004
 19  3  6 23 32 40.0000000  0  9G01G17G11G13G18G19G28G30G15
    -39133.676 5                  22551458.375
        35.000
   -130397.38348   -709883.38745  21172874.7974                   21172872.5634
        48.5004         32.2504
    -12329.50446     -4353.23443  22300509.2664                   22300506.6414
        39.5004         23.7504
      7948.78147      8203.94544  21847245.7344                   21847244.1724
        44.5004         26.5004
    -17846.89846     -8665.79343  22964161.0394                   22964159.7344
        40.5004         20.0004
   -126752.51247    -83723.38744  22785410.0394                   22785406.5744
        42.0004         25.5004
    -28980.48447   -162719.23445  20607092.7734                   20607089.3794
        45.0004         33.5004
     29746.51246    188742.09844  22042349.8284                   22042349.5664
        41.5004         26.2504
    -29868.45747    -18025.86744  22737219.2034                   22737217.3794
        44.5004         25.2504
 19  3  6 23 32 45.0000000  0  9G01G17G11G13G18G19G28G30G15
    -52330.953 5                  22548946.469
        34.000
   -148596.18448   -724064.28545  21169411.2664                   21169408.9454
        48.5004         32.5004
    -14898.77046     -6355.25443  22300020.1644                   22300017.7734
        41.2504         22.5004
      9049.05547      9061.27744  21847455.8984                   21847453.0044
        45.0004         28.2504
    -21554.93046    -11555.16043  22963455.2584                   22963454.3404
        40.0004         21.0004
   -153847.91847   -104836.68444  22780253.6414                   22780250.9414
        42.0004         25.5004
    -33234.69547   -166034.21145  20606283.0554                   20606280.1604
        46.0004         34.7504
     36042.60246    193648.16444  22043547.7274                   22043547.7624
        41.5004         26.0004
    -35696.00847    -22566.81644  22736110.7194                   22736108.5664
        44.5004         26.5004
 19  3  6 23 32 50.0000000  0  9G01G17G11G13G18G19G28G30G15
    -65518.320 6                  22546437.914
        36.000
   -166790.05948   -738241.33245  21165948.9844                   21165947.1884
        48.0004         32.0004
    -17458.63346     -8349.98843  22299533.2734                   22299531.0164
        36.2504         20.2504
     10156.36747      9924.11744  21847666.8754                   21847664.3484
        45.0004         27.2504
    -25252.54346    -14436.42643  22962752.0394                   22962750.9344
        40.2504         20.0004
   -180943.75046   -125950.30944  22775097.1484                   22775094.8324
        41.7504         25.0004
    -37488.62147   -169348.93745  20605473.3984                   20605470.1804
        45.2504         33.5004
     42339.92647    198555.07844  22044745.8204                   22044746.3554
        43.0004         26.5004
    -41514.83647    -27100.96943  22735003.5394                   22735001.3284
        44.5004         22.7504
 19  3  6 23 32 55.0000000  0  9G01G17G11G13G18G19G28G30G15
    -78696.023 6                  22543928.969
        41.500
   -184978.77348   -752414.33645  21162487.7504                   21162485.9184
        48.5004         31.7504
    -20008.96546    -10337.12143  22299047.7344                   22299046.1604
        37.7504         18.2504
     11270.92247     10792.61344  21847877.6174                   21847876.3204
        44.0004         27.2504
    -28939.54314                  22962049.555
        28.750
   -208039.89847   -147064.16844  22769941.0864                   22769938.3594
        42.5004         24.0004
    -41742.17247   -172663.40244  20604664.3134                   20604660.9614
        44.7504         29.7504
     48638.59446    203463.20744  22045944.8984                   22045945.2274
        41.7504         29.0004
    -47324.81647    -31628.22744  22733897.6884                   22733895.6954
        43.7504         25.5004
 19  3  6 23 33  0.0000000  0  9G01G17G11G13G18G19G28G30G15
    -91863.000 6                  22541423.148
        38.000
   -203161.62947   -766582.79345  21159027.7424                   21159025.7854
        47.7504         31.5004
    -22549.20745    -12316.68042  22298564.9924                   22298562.6804
        35.7504         16.2504
     12393.46947     11667.30544  21848092.6174                   21848090.4184
        44.2504         27.0004
                                  22961349.672
        27.250
   -235135.56247   -168177.66444  22764784.8594                   22764781.9414
        43.0004         25.5004
    -45994.54747   -175976.93745  20603855.1564                   20603851.8444
        45.5004         30.0004
     54939.44147    208372.90644  22047143.3134                   22047143.9534
        42.2504         28.2504
    -53125.22347    -36148.03543  22732793.2274                   22732791.9224
        43.7504         23.7504
 19  3  6 23 33  5.0000000  0  9G01G17G11G13G18G19G28G30G15
                                  22538920.156
        43.000
   -221338.10248   -780746.27345  21155569.0004                   21155566.8914
        48.5004         32.0004
    -25078.79746    -14287.82442  22298082.8674                   22298081.8594
        39.7504         16.2504
     13524.38747     12548.55944  21848306.5944                   21848305.2274
        44.0004         27.7504
                                  22960653.500
        31.000
   -262230.27347   -189290.43443  22759629.0474                   22759625.9694
        42.2504         23.0004
    -50245.27747   -179289.19944  20603046.2584                   20603042.8984
        44.7504         29.5004
     61242.75446    213284.59844  22048343.2584                   22048343.0944
        41.2504         24.7504
    -58915.58247    -40660.00443  22731692.4774                   22731689.8984
        44.5004         23.0004
 19  3  6 23 33 10.0000000  0  9G01G17G11G13G18G19G28G30G15
   -118162.816 6                  22536419.422
        40.500
   -239507.47748   -794904.21545  21152111.4694                   21152109.3094
        49.0004         32.0004
    -27596.94146    -16249.86742  22297603.3364                   22297602.7584
        37.2504         16.2504
     14664.57847     13437.00044  21848524.7734                   21848522.3134
        44.2504         26.7504
    -39930.918 4                  22959958.609
        27.500
   -289323.23447   -210401.82044  22754473.9614                   22754470.1054
        43.5004         24.5004
    -54493.57047   -182599.55144  20602237.2894                   20602234.7194
        44.5004         29.7504
     67549.47346    218198.94144  22049543.3984                   22049543.6724
        41.7504         26.5004
    -64695.10547    -45163.52744  22730592.3054                   22730589.7704
        44.5004         26.0004
 19  3  6 23 33 15.0000000  0  9G01G17G11G13G18G19G28G30G15
   -131294.82046     -6547.30153  22533920.1174                   22533920.2934
        39.0004         20.2504
   -257669.66448   -809056.57845  21148655.2424                   21148653.4614
        48.0004         31.5004
    -30103.469 5                  22297128.172
        33.500
     15814.03547     14332.67644  21848743.2814                   21848740.9224
        45.0004         27.5004
    -43570.01615                  22959266.398
        30.750
   -316414.32047   -231511.74644  22749318.9844                   22749314.8554
        43.7504         25.0004
    -58739.36747   -185907.97344  20601430.0704                   20601426.5354
        44.2504         29.2504
     73859.59447    223115.88744  22050744.3914                   22050744.7034
        42.2504         27.2504
    -70463.72347    -49658.55544  22729494.3754                   22729492.4414
        44.5004         25.7504
 19  3  6 23 33 20.0000000  0  9G01G17G11G13G18G19G28G30G15
   -144414.66046    -16770.59843  22531423.7734                   22531424.2424
        36.7504         19.5004
   -275824.53547   -823203.24245  21145200.4844                   21145198.2034
        47.7504         32.0004
    -32598.598 6                  22296652.922
        36.750
     16972.83247     15235.64544  21848963.5944                   21848961.2704
        44.5004         28.2504
    -47196.37116                  22958576.172
        36.750
   -343503.45747   -252620.14144  22744164.1414                   22744160.3634
        43.0004         25.0004
    -62982.55547   -189214.34845  20600621.8594                   20600619.2584
        46.7504         32.5004
     80173.20346    228035.59844  22051945.4304                   22051946.0164
        41.5004         26.5004
    -76221.39547    -54145.07844  22728398.7664                   22728397.1994
        44.2504         26.0004
 19  3  6 23 33 25.0000000  0  9G01G17G11G13G18G19G28G30G15
   -157522.25047    -26984.23443  22528929.0784                   22528929.8834
        42.2504         22.7504
   -293971.70348   -837343.88745  21141747.4064                   21141745.0514
        48.0004         31.5004
    -35081.65247    -18661.16854  22296179.3834                   22296175.9264
        42.0004         25.7504
     18141.35947     16146.18444  21849185.6724                   21849184.1604
        44.2504         27.2504
    -50809.414 6                  22957888.109
        38.750
   -370590.32446   -273726.80544  22739009.0554                   22739005.7974
        41.7504         24.5004
    -67222.77747   -192518.41845  20599815.2584                   20599811.9844
        45.2504         33.5004
     86490.70746    232958.29743  22053147.3674                   22053147.9964
        38.2504         21.7504
    -81967.58647    -58622.63344  22727305.1334                   22727303.0084
        43.7504         25.0004
 19  3  6 23 33 30.0000000  0  9G01G17G11G13G18G19G28G30G15
   -170616.90647    -37187.88743  22526437.6334                   22526438.3244
        42.0004         23.7504
   -312110.80948   -851478.25045  21138295.7424                   21138293.5984
        48.2504         32.2504
    -37552.30147    -20586.34844  22295709.8914                   22295706.2504
        42.5004         25.0004
     19320.02747     17064.61344  21849410.5784                   21849408.0204
        44.5004         27.7504
    -54409.16046    -17618.84453  22957203.7194                   22957200.3404
        39.7504         21.2504
   -397674.42647   -294831.27744  22733855.1254                   22733851.6884
        43.0004         25.2504
    -71459.67247   -195819.89145  20599009.0234                   20599005.9614
        45.5004         33.2504
     92812.43446    237884.34443  22054350.2974                   22054351.0314
        39.5004         22.5004
    -87702.12147    -63091.09044  22726214.3984                   22726212.0704
        44.5004         24.5004
 19  3  6 23 33 35.0000000  0  9G01G17G11G13G18G19G28G30G15
   -183698.60547    -47381.41444  22523947.6804                   22523948.9104
        42.5004         24.0004
   -330241.71948   -865606.22345  21134845.1484                   21134842.9654
        48.2504         31.7504
    -40010.51247    -22501.84844  22295242.0944                   22295238.7304
        42.5004         24.2504
     20508.82447     17990.95744  21849636.5474                   21849634.1884
        44.2504         28.0004
    -57995.36346    -20413.30143  22956521.1884                   22956517.8754
        39.5004         21.2504
   -424755.66047   -315933.52344  22728701.0394                   22728698.3794
        42.5004         25.5004
    -75693.08647   -199118.66445  20598203.4144                   20598200.4184
        45.5004         33.2504
     99138.49646    242813.73843  22055554.6024                   22055554.9454
        38.0004         21.2504
    -93424.78547    -67550.30944  22725124.9844                   22725123.1174
        44.2504         24.0004
 19  3  6 23 33 40.0000000  0  9G01G17G11G13G18G19G28G30G15
   -196767.17247    -57564.70344  22521460.7194                   22521461.6484
        42.0004         24.5004
   -348364.22348   -879727.66845  21131396.8364                   21131394.4144
        48.0004         32.5004
    -42456.10547    -24407.50444  22294776.4304                   22294773.6454
        42.7504         25.5004
     21708.01247     18925.39544  21849864.4774                   21849862.3984
        44.2504         28.7504
    -61567.89546    -23197.09043  22955840.8524                   22955838.8134
        39.2504         20.5004
   -451833.87946   -337033.41844  22723549.1094                   22723545.7814
        41.5004         25.7504
    -79922.88747   -202414.60545  20597398.3524                   20597395.5944
        45.7504         33.5004
    105468.93046    247746.55943  22056758.9144                   22056759.5704
        38.5004         19.7504
    -99135.39147    -72000.13344  22724038.1884                   22724036.6954
        43.7504         25.2504
 19  3  6 23 33 45.0000000  0  9G01G17G11G13G18G19G28G30G15
   -209821.77747    -67737.12544  22518977.1174                   22518977.8284
        42.0004         24.7504
   -366477.56248   -893841.96145  21127949.8204                   21127947.7934
        48.0004         32.5004
    -44888.29347    -26302.71543  22294313.6254                   22294310.8554
        42.5004         23.7504
     22918.37547     19868.50844  21850095.2424                   21850092.6484
        45.0004         27.0004
    -65125.88746    -25969.55943  22955164.4534                   22955162.3094
        39.5004         20.0004
   -478908.27747   -358130.36344  22718397.8674                   22718393.8554
        42.2504         25.0004
    -84148.33647   -205707.16045  20596594.2034                   20596591.3324
        45.2504         33.0004
    111804.80147    252683.56344  22057964.7034                   22057965.3874
        42.5004         26.5004
   -104833.17647    -76439.96944  22722954.1174                   22722952.1024
        44.2504         25.2504
 19  3  6 23 33 50.0000000  0  9G01G17G11G13G18G19G28G30G15
   -222862.81247    -77898.97344  22516495.1884                   22516496.1484
        42.0004         25.5004
   -384582.05548   -907949.35545  21124504.5634                   21124502.4344
        48.0004         32.5004
    -47307.41047    -28187.73443  22293852.9224                   22293850.6524
        42.5004         22.7504
     24139.50447     20820.05544  21850326.7344                   21850325.0354
        44.2504         28.0004
    -68669.77046    -28731.01243  22954489.5474                   22954487.9024
        39.0004         19.7504
   -505979.15647   -379224.54344  22713245.4454                   22713242.3754
        42.0004         24.7504
    -88369.67247   -208996.51645  20595791.1484                   20595788.1684
        46.0004         33.2504
    118145.61347    257624.45744  22059171.0864                   22059171.5274
        42.5004         27.0004
   -110518.57047    -80870.12944  22721872.1484                   22721870.6884
        44.0004         24.0004
 19  3  6 23 33 55.0000000  0  9G01G17G11G13G18G19G28G30G15
   -235890.63746    -88050.51643  22514015.9614                   22514017.3524
        41.2504         23.0004
   -402678.09847   -922050.14845  21121061.3134                   21121059.0084
        47.7504         31.7504
    -49713.85947    -30062.90644  22293395.3914                   22293393.0784
        42.5004         25.0004
     25371.04347     21779.68044  21850561.5554                   21850559.5274
        44.5004         28.0004
    -72199.82446    -31481.70343  22953817.1334                   22953816.1724
        38.5004         20.0004
   -533046.95747   -400316.35244  22708094.3054                   22708090.8834
        42.2504         25.2504
    -92587.34047   -212283.00445  20594988.7664                   20594985.7544
        45.5004         32.7504
    124490.96946    262568.89143  22060379.0634                   22060379.1764
        41.2504         23.7504
   -116191.85947    -85290.88343  22720792.2734                   22720791.1914
        44.0004         23.2504
 19  3  6 23 34  0.0000000  0  9G01G17G11G13G18G19G28G30G15
   -248904.93046    -98191.53944  22511539.1484                   22511540.8284
        41.5004         24.7504
   -420765.39848   -936144.16445  21117619.1414                   21117616.7624
        48.0004         31.5004
    -52107.32847    -31927.94544  22292939.9304                   22292937.3054
        42.5004         24.7504
     26613.24647     22747.62544  21850798.4774                   21850795.7154
        44.5004         27.0004
    -75715.93446    -34221.55143  22953149.1724                   22953147.5984
        39.5004         20.2504
   -560111.35247   -421405.44944  22702944.7504                   22702941.0004
        43.0004         25.2504
    -96801.07847   -215566.44545  20594186.4224                   20594183.4104
        46.5004         33.0004
    130841.13747    267517.07844  22061587.0784                   22061587.5944
        43.0004         26.7504
   -121852.82447    -89702.03544  22719715.6644                   22719713.2544
        44.2504         24.7504
 19  3  6 23 34  5.0000000  0  9G01G17G11G13G18G19G28G30G15
   -261906.18746   -108322.37144  22509065.2814                   22509066.8404
        41.5004         25.2504
   -438844.41448   -950231.71145  21114178.9694                   21114176.6804
        48.0004         31.7504
    -54488.35247    -33783.29744  22292486.7974                   22292484.4924
        42.5004         25.5004
     27865.64547     23723.52744  21851036.2664                   21851034.1564
        44.2504         27.7504
    -79218.39546    -36950.73843  22952482.1024                   22952480.8674
        39.5004         20.7504
   -587172.75847   -442492.26644  22697794.8284                   22697791.4304
        42.5004         26.0004
   -101011.29747   -218847.12945  20593384.9924                   20593382.5944
        45.7504         33.0004
    137195.68847    272468.66444  22062796.1094                   22062796.8754
        42.5004         28.2504
   -127501.87947    -94103.88744  22718640.6954                   22718638.5234
        44.2504         24.2504
 19  3  6 23 34 10.0000000  0  9G01G17G11G13G18G19G28G30G15
   -274894.12946   -118442.85244  22506594.2114                   22506595.4384
        41.7504         24.5004
   -456914.92248   -964312.62545  21110740.0164                   21110738.0164
        48.0004         32.2504
    -56856.68047    -35628.74244  22292035.8754                   22292033.4414
        42.5004         25.0004
     29128.42247     24707.49644  21851276.9064                   21851274.5274
        44.5004         28.2504
    -82707.07446    -39669.16843  22951818.5634                   22951817.2234
        38.7504         20.2504
   -614231.03947   -463576.63344  22692645.7344                   22692642.4964
