     2.11           OBSERVATION DATA    G (GPS)             RINEX VERSION / TYPE
teqc  2019Feb25     Martin Truffer      20190308 01:05:28UTCPGM / RUN BY / DATE
Linux 2.6.32-573.12.1.x86_64|x86_64|gcc|Linux 64|=+         COMMENT
BIT 2 OF LLI FLAGS DATA COLLECTED UNDER A/S CONDITION       COMMENT
51890651                                                    MARKER NAME
5189                                                        MARKER NUMBER
-Unknown-           -Unknown-                               OBSERVER / AGENCY
0220315189          TRIMBLE 5700        2.30                REC # / TYPE / VERS
-Unknown-           TRM41249.00     NONE                    ANT # / TYPE
 -1794712.6536 -3484285.2209  5017681.9422                  APPROX POSITION XYZ
        0.0530        0.0000        0.0000                  ANTENNA: DELTA H/E/N
     1     1                                                WAVELENGTH FACT L1/2
     7    L1    L2    C1    P1    P2    S1    S2            # / TYPES OF OBSERV
    18                                                      LEAP SECONDS
 SNR is mapped to RINEX snr flag value [0-9]                COMMENT
  L1 & L2: min(max(int(snr_dBHz/6), 0), 9)                  COMMENT
  2019     3     6    19    49   30.0000000     GPS         TIME OF FIRST OBS
                                                            END OF HEADER
 19  3  6 19 49 30.0000000  0  3G07G09G23
   -190209.77357   -120597.87154  20583235.4144                   20583230.4454
        43.2504         25.2504
    -26558.64856    -14983.00453  20512915.4774                   20512912.3524
        41.2504         20.7504
     42301.54356     22060.49252  22412301.4844                   22412296.3444
        38.5004         16.2504
 19  3  6 19 49 35.0000000  0  3G07G09G23
   -205173.13347   -132257.62543  20580387.3204                   20580382.7854
        43.0004         23.7504
    -28557.94146    -16540.90243  20512534.2424                   20512532.2544
        40.5004         20.0004
     47436.824 6                  22413279.289
        38.500
 19  3  6 19 49 40.0000000  0  3G07G09G23
   -220107.48447   -143894.77343  20577545.5634                   20577541.0944
        42.2504         22.0004
    -30523.43446    -18072.48443  20512160.4844                   20512158.0554
        41.0004         19.7504
     52600.570 6                  22414261.148
        39.000
 19  3  6 19 49 45.0000000  0  3G07G09G23
   -235012.17647   -155508.84443  20574708.7814                   20574705.0274
        42.0004         22.0004
    -32454.53946    -19577.22343  20511793.1804                   20511790.6914
        40.5004         20.0004
     57793.32046     27220.87153  22415249.5474                   22415243.2584
        39.5004         19.5004
 19  3  6 19 49 50.0000000  0  7G07G08G09G27G23G30G16
   -249886.39147   -167099.11343  20571878.3914                   20571874.7504
        42.5004         22.2504
   -126707.27756    -69617.18052  22814696.8444                   22814695.0864
        38.5004         17.2504
    -34350.41846    -21054.53943  20511431.6804                   20511429.7664
        40.7504         20.0004
    -78243.76615                  22330294.703
        35.250
     63015.94946     31290.48843  22416243.3054                   22416237.5784
        39.5004         18.2504
   -126583.60556    -69563.60553  22112983.8834                   22112982.3674
        39.2504         19.7504
     33313.24215                  22730177.500
        35.500
 19  3  6 19 49 55.0000000  0  7G07G08G09G27G23G30G16
   -264729.74246   -178665.39143  20569053.9774                   20569049.6294
        41.5004         22.5004
   -149896.46546    -87686.74242  22810283.3524                   22810282.1524
        38.2504         17.7504
    -36210.77346    -22504.16443  20511077.9224                   20511075.9734
        40.0004         19.7504
    -92829.430 4                  22327518.414
        28.000
     68268.78946     35383.67642  22417242.7734                   22417237.1054
        38.0004         17.2504
   -149767.09846    -87628.62543  22108572.4844                   22108570.5204
        38.0004         18.5004
     39575.480 5                  22731368.047
        35.500
 19  3  6 19 50  0.0000000  0  6G07G08G09G23G30G16
   -279541.93446   -190207.35243  20566235.2424                   20566231.2274
        41.0004         22.7504
   -173052.68046   -105730.48842  22805878.6174                   22805875.9414
        37.5004         17.7504
    -38035.26246    -23925.83643  20510731.0004                   20510728.9494
        39.2504         19.0004
     73552.172 6                  22418247.906
        38.250
   -172922.67246   -105671.93442  22104166.1884                   22104163.8674
        38.0004         17.7504
                                  22732565.133
        27.250
 19  3  6 19 50  5.0000000  0  7G07G08G09G27G23G30G16
   -294322.78946   -201724.91443  20563423.1024                   20563418.4304
        40.5004         22.0004
   -196175.64846   -123748.39542  22801476.6254                   22801476.0124
        36.7504         17.2504
    -39823.60546    -25319.35943  20510390.2974                   20510388.5124
        38.7504         20.5004
   -121882.18015                  22321988.977
        34.250
     78866.24646     38859.43053  22419259.6954                   22419251.9024
        37.2504         21.0004
   -196049.91446   -123693.16842  22099764.2814                   22099763.1484
        37.0004         16.7504
                                  22733765.547
        29.500
 19  3  6 19 50 10.0000000  0  7G07G08G09G27G23G30G16
   -309072.08246   -213217.85543  20560615.7034                   20560611.7504
        40.7504         21.5004
   -219265.27046   -141740.25042  22797083.4304                   22797082.7114
        37.0004         16.7504
    -41575.68746    -26684.61343  20510058.1724                   20510055.1294
        39.5004         19.0004
   -136349.590 4                  22319236.156
        28.000
     84211.17646     43024.30543  22420276.2194                   22420269.4104
        38.2504         19.2504
   -219148.80946   -141692.27042  22095369.4774                   22095367.8014
        36.7504         16.7504
     58544.105 5                  22734976.656
        32.250
 19  3  6 19 50 15.0000000  0  7G07G08G09G27G23G30G16
   -323789.92246   -224686.33243  20557814.7894                   20557810.8134
        40.2504         22.0004
   -242321.71146   -159706.38342  22792695.2894                   22792694.9774
        36.2504         15.5004
    -43291.71946    -28021.77343  20509730.6954                   20509728.3404
        40.2504         20.0004
   -150777.555 4                  22316491.078
        29.000
     89586.85946     47213.10543  22421298.9384                   22421292.7194
        38.7504         19.5004
   -242219.46946   -159669.41042  22090979.3134                   22090977.4264
        37.0004         17.2504
     64927.543 5                  22736193.547
        33.000
 19  3  6 19 50 20.0000000  0  7G07G08G09G27G23G30G16
   -338476.81246   -236130.62943  20555020.3674                   20555015.8754
        40.2504         21.7504
   -265345.22746   -177646.75042  22788314.5864                   22788313.8284
        38.0004         16.7504
    -44972.00046    -29331.07843  20509410.5164                   20509408.2584
        39.5004         20.2504
   -165166.39114                  22313753.133
        29.250
     94992.85246     51425.64543  22422328.2114                   22422322.0474
        37.0004         19.5004
   -265262.24246   -177624.82442  22086593.8054                   22086592.2584
        37.2504         17.2504
     71340.789 5                  22737413.422
        35.250
 19  3  6 19 50 25.0000000  0  7G07G08G09G27G23G30G16
   -353132.69146   -247550.80943  20552231.3204                   20552227.0864
        41.2504         21.0004
   -288335.83646   -195561.50042  22783939.9304                   22783938.8094
        36.2504         17.2504
    -46616.70746    -30612.67243  20509098.2584                   20509095.5554
        39.7504         19.7504
   -179516.26615                  22311022.828
        33.500
    100429.09846     55661.59043  22423362.4384                   22423356.3484
        38.5004         19.2504
   -288277.27746   -195558.57442  22082213.7194                   22082213.1094
        38.0004         16.7504
     77783.750 5                  22738638.688
        32.750
 19  3  6 19 50 30.0000000  0  7G07G08G09G27G23G30G16
   -367758.00046   -258947.13343  20549448.3984                   20549444.0164
        39.7504         21.0004
   -311294.16046   -213451.16842  22779571.0634                   22779569.9614
        36.2504         16.2504
    -48226.06646    -31866.69543  20508791.6094                   20508789.3754
        39.7504         19.0004
   -193827.402 5                  22308299.773
        31.500
    105895.22346     59920.95343  22424402.3834                   22424397.0824
        37.5004         18.2504
   -311264.80946   -213470.99642  22077840.2344                   22077838.4344
        36.0004         17.2504
     84256.227 5                  22739871.078
        32.250
 19  3  6 19 50 35.0000000  0  7G07G08G09G27G23G30G16
   -382352.92646   -270319.84043  20546670.8834                   20546666.2544
        40.0004         22.0004
   -334220.13346   -231315.50042  22775208.3054                   22775207.3984
        36.0004         14.7504
    -49800.41446    -33093.49243  20508491.4144                   20508489.5434
        40.5004         21.2504
   -208099.902 5                  22305583.063
        31.250
    111391.02346     64203.37142  22425449.0084                   22425442.4344
        38.0004         17.7504
   -334225.13346   -231362.13342  22073471.0234                   22073469.4414
        37.5004         16.7504
     90757.922 5                  22741109.133
        32.750
 19  3  6 19 50 40.0000000  0  7G07G08G09G27G23G30G16
   -396917.88746   -281669.15243  20543899.6724                   20543894.7114
        39.2504         21.2504
   -357114.24646   -249155.07842  22770852.2114                   22770850.8674
        36.0004         15.5004
    -51340.10546    -34293.23443  20508198.9774                   20508196.7544
        40.0004         23.5004
   -222334.445 5                  22302874.578
        33.500
    116916.10546     68508.64843  22426500.7274                   22426494.5434
        37.2504         18.2504
   -357158.64846   -249232.38742  22069106.9844                   22069105.1764
        37.7504         16.7504
     97288.410 5                  22742350.617
        32.250
 19  3  6 19 50 45.0000000  0  7G07G08G09G27G23G30G16
   -411453.43046   -292995.57443  20541133.2344                   20541129.3874
        39.7504         22.5004
   -379976.80146   -266970.07843  22766501.0474                   22766499.4024
        37.7504         18.2504
    -52845.74646    -35466.47343  20507912.9534                   20507910.4494
        40.2504         23.5004
   -236531.641 5                  22300173.078
        31.250
    122469.81346     72836.18043  22427557.0944                   22427551.4654
        37.2504         19.2504
   -380065.85246   -267082.14142  22064748.1414                   22064746.1764
        37.2504         16.2504
    103847.031 5                  22743600.258
        33.250
 19  3  6 19 50 50.0000000  0  6G07G08G09G23G30G16
   -425959.70346   -304299.16043  20538372.7504                   20538368.3324
        40.7504         23.7504
   -402808.50446   -284760.96543  22762155.8674                   22762155.2464
        36.7504         19.0004
    -54317.46547    -36613.30144  20507632.4924                   20507629.8244
        44.5004         29.7504
    128051.97345     77185.97743  22428619.7344                   22428613.3954
        35.0004         19.7504
   -402946.95346   -284911.63743  22060393.4534                   22060391.8554
        38.2504         22.7504
    110433.62916                  22744852.391
        37.000
 19  3  6 19 50 55.0000000  0  6G07G08G09G23G30G16
   -440437.35547   -315580.43444  20535617.7894                   20535613.3484
        42.0004         25.0004
   -425609.42646   -302527.89543  22757816.8914                   22757816.0864
        37.7504         19.5004
    -55755.85547    -37734.10244  20507358.3444                   20507356.1844
        43.0004         29.2504
    133662.19145     81557.62943  22429686.1414                   22429681.2584
        34.7504         18.5004
   -425802.56646   -302721.13743  22056044.3754                   22056042.4184
        38.7504         21.5004
                                  22746109.594
        32.500
 19  3  6 19 51  0.0000000  0  6G07G08G09G23G30G16
   -454886.69947   -326839.68044  20532868.5784                   20532864.0594
        42.5004         27.0004
   -448380.293 7                  22753484.648
        42.500
    -57161.40647    -38829.37945  20507091.0164                   20507088.6254
        43.7504         31.7504
    139299.80146     85950.41843  22430759.3054                   22430754.6214
        38.2504         20.2504
   -448633.01646   -320511.13343  22051700.2274                   22051697.3594
        40.2504         22.0004
    123688.992 5                  22747374.602
        32.000
 19  3  6 19 51  5.0000000  0  5G07G08G09G23G30
   -469308.12946   -338077.12143  20530123.5944                   20530119.6294
        38.5004         22.7504
   -471121.26645   -318140.60953  22749156.9774                   22749155.5044
        33.7504         22.0004
    -58534.36746    -39899.18444  20506829.3134                   20506827.4694
        40.2504         28.7504
    144964.54345     90364.44543  22431837.3674                   22431832.2504
        34.2504         19.0004
   -471438.65646   -338281.73443  22047359.9534                   22047357.8054
        36.5004         23.5004
 19  3  6 19 51 30.0000000  0  1G09
                                  20505605.047
        39.500
 19  3  6 19 51 35.0000000  0  1G09
     -1849.32047    -41672.60255  20505376.2344                   20505374.6094
        42.0004         34.2504
 19  3  6 19 51 40.0000000  0  1G09
      -562.75815                  20505149.859
        35.500
 19  3  6 19 51 45.0000000  0  1G09
     -1700.695 6                  20504935.477
        41.750
 19  3  6 19 51 50.0000000  0  1G09
                                  20504725.6024                   20504724.3554
        41.2504         32.5004
 19  3  6 19 51 55.0000000  0  1G09
                                  20504522.2734                   20504520.9694
        31.7504         26.0004
 19  3  6 19 52  0.0000000  0  3G07G09G30
                                  20500247.8054                   20500243.7464
        41.2504         30.0004
                                  20504325.156
        40.000
                                  21999894.4304                   21999892.4884
        37.5004         24.2504
 19  3  6 19 52  5.0000000  0  6G07G08G09G23G30G16
    -49216.85546   -364191.57045  20497563.3134                   20497558.6254
        40.5004         30.0004
                                  22697625.430
        34.750
     -5916.11346    -44499.74655  20504133.7274                   20504132.2704
        39.5004         32.0004
                                  22445131.203
        34.250
    -81231.18046   -383392.26243  21995607.0474                   21995605.1054
        36.0004         22.7504
                                  22764215.781
        31.250
 19  3  6 19 52 10.0000000  0  7G07G08G09G27G23G30G16
    -63305.85946   -375169.99244  20494882.4144                   20494878.0164
        38.5004         28.0004
    -34944.453 6                  22693368.570
        36.000
     -6897.16046    -45264.17244  20503947.7424                   20503945.0944
        37.5004         29.7504
    -22338.10216                  22255253.320
        37.750
      9074.406 6                  22446270.234
        36.750
   -103744.99645   -400935.51643  21991323.2274                   21991320.6134
        35.7504         22.5004
     10869.582 5                  22765549.797
        34.500
 19  3  6 19 52 15.0000000  0  7G07G08G09G27G23G30G16
    -77373.68046   -386131.94944  20492205.3054                   20492200.7154
        39.0004         27.0004
    -57303.402 5                  22689114.492
        32.250
     -7852.48846    -46008.60544  20503765.6334                   20503763.2814
        39.2504         29.2504
    -35920.82846     -8469.05953  22252668.1724                   22252666.6414
        36.5004         19.7504
     15080.781 5                  22447414.617
        34.750
   -126240.69946   -418464.66043  21987042.1024                   21987040.3054
        36.0004         21.2504
     17871.574 5                  22766881.086
        32.500
 19  3  6 19 52 20.0000000  0  7G07G08G09G27G23G30G16
    -91419.97345   -397077.10943  20489532.2034                   20489527.9734
        34.0004         22.5004
    -79638.801 5                  22684862.859
        32.250
     -8781.82046    -46732.78945  20503588.3054                   20503586.3014
        38.5004         30.7504
    -49474.09845    -19030.03143  22250089.5704                   22250087.3204
        35.2504         19.0004
     21107.566 5                  22448559.734
        34.500
   -148718.17246   -435979.50043  21982764.8674                   21982762.5044
        37.0004         20.5004
     24893.563 5                  22768217.234
        35.000
 19  3  6 19 52 25.0000000  0  7G07G08G09G27G23G30G16
   -105444.60946   -408005.42643  20486863.2424                   20486859.2624
        37.7504         21.7504
   -101950.309 5                  22680617.680
        34.000
     -9684.93446    -47436.51645  20503416.9614                   20503414.4534
        39.5004         30.7504
    -62997.40646    -29567.68443  22247515.9064                   22247513.8984
        36.7504         18.2504
     27155.227 6                  22449710.180
        36.000
   -171176.89146   -453479.80543  21978491.0554                   21978488.7584
        36.5004         20.5004
     31935.770 5                  22769557.781
        35.500
 19  3  6 19 52 30.0000000  0  7G07G08G09G27G23G30G16
   -119446.94546   -418916.32843  20484199.1414                   20484194.5984
        37.2504         22.0004
   -124237.480 5                  22676376.188
        33.500
    -10561.20746    -48119.34045  20503250.0634                   20503247.6764
        39.0004         31.0004
    -76490.21545    -40081.56243  22244948.6804                   22244946.5124
        35.5004         18.5004
     33224.145 5                  22450866.586
        35.250
   -193616.48845   -470965.21943  21974220.5944                   21974219.0784
        35.5004         21.2504
     38998.723 5                  22770902.164
        35.000
 19  3  6 19 52 35.0000000  0  7G07G08G09G27G23G30G16
   -133426.66446   -429809.62544  20481538.3594                   20481534.6524
        39.0004         24.5004
   -146499.770 6                  22672140.594
        36.000
    -11410.45346    -48781.09045  20503088.4064                   20503086.1954
        39.0004         30.2504
    -89952.31245    -50571.49243  22242386.1954                   22242384.9224
        35.2504         18.5004
     39314.719 6                  22452024.672
        36.500
   -216036.51246   -488435.36743  21969954.3984                   21969952.5904
        37.0004         22.0004
     46082.770 6                  22772249.492
        36.000
 19  3  6 19 52 40.0000000  0  7G07G08G09G27G23G30G16
   -147384.03546   -440685.45343  20478883.4774                   20478878.5314
        38.2504         22.0004
   -168737.750 5                  22667909.609
        34.750
    -12232.85546    -49421.91844  20502932.0474                   20502929.6804
        39.0004         29.7504
   -103384.391 4                  22239829.664
        28.500
     45426.594 5                  22453188.211
        35.000
   -238437.39845   -505890.69143  21965690.7114                   21965689.7304
        35.5004         20.0004
     53187.434 5                  22773602.000
        32.000
 19  3  6 19 52 45.0000000  0  6G07G08G09G23G30G16
   -161319.41446   -451544.23044  20476230.4614                   20476226.5634
        38.5004         26.2504
   -190951.500 5                  22663682.633
        32.750
    -13028.77746    -50042.09443  20502781.0474                   20502778.1374
        36.5004         22.7504
     51559.578 5                  22454355.281
        33.500
   -260819.35946   -523331.06243  21961432.7424                   21961430.6564
        37.0004         20.7504
     60312.727 5                  22774958.570
        32.750
 19  3  6 19 52 50.0000000  0  6G07G08G09G23G30G16
   -175232.81246   -462385.82443  20473582.3524                   20473579.1294
        37.0004         22.5004
   -213140.992 5                  22659457.805
        32.250
    -13798.16446    -50641.60244  20502634.1414                   20502631.7074
        39.2504         26.7504
     57713.527 5                  22455527.336
        35.250
   -283182.398 5                  21957174.750
        33.000
     67458.348 6                  22776317.266
        36.750
 19  3  6 19 52 55.0000000  0  6G07G08G09G23G30G16
   -189124.30146   -473210.34444  20470939.7424                   20470935.5824
        38.5004         27.0004
   -235306.570 5                  22655239.922
        34.250
    -14541.23846    -51220.64544  20502492.2894                   20502490.2584
        38.7504         26.5004
     63888.246 6                  22456701.234
        36.000
   -305526.582 5                  21952923.242
        31.500
     74624.203 5                  22777680.664
        35.000
 19  3  6 19 53  0.0000000  0  6G07G08G09G23G30G16
   -202994.16446   -484018.05144  20468300.2194                   20468296.3164
        39.7504         27.5004
   -257448.176 5                  22651027.188
        35.250
    -15258.25846    -51779.34844  20502356.0474                   20502353.8054
        40.2504         29.2504
     70083.613 5                  22457880.430
        35.250
   -327852.324 5                  21948676.453
        34.500
     81810.063 5                  22779048.266
        34.500
 19  3  6 19 53  5.0000000  0  6G07G08G09G23G30G16
   -216842.21546   -494808.73044  20465665.3524                   20465661.0434
        38.5004         27.2504
   -279565.891 5                  22646819.305
        35.500
    -15949.00046    -52317.59844  20502224.8674                   20502222.6644
        38.5004         29.0004
     76299.734 5                  22459064.352
        35.500
   -350159.211 5                  21944432.898
        31.500
     89016.137 5                  22780420.148
        34.250
 19  3  6 19 53 10.0000000  0  6G07G08G09G23G30G16
   -230669.32846   -505583.11744  20463034.1334                   20463029.8714
        39.5004         25.5004
   -301660.336 6                  22642614.625
        36.500
    -16614.24646    -52836.00444  20502098.3984                   20502095.6414
        40.0004         29.5004
     82535.828 6                  22460250.125
        36.250
   -372448.395 5                  21940189.758
        34.000
     96241.543 5                  22781794.773
        35.500
 19  3  6 19 53 15.0000000  0  6G07G08G09G23G30G16
   -244475.35546   -516341.05544  20460406.9614                   20460402.7274
        38.7504         25.2504
   -323731.469 5                  22638414.055
        34.750
    -17253.97746    -53334.48444  20501975.9304                   20501974.2034
        39.7504         28.2504
     88792.023 5                  22461439.781
        32.500
   -394719.53515                  21935951.781
        30.750
    103486.340 5                  22783174.523
        35.500
 19  3  6 19 53 20.0000000  0  6G07G08G09G23G30G16
   -258260.59046   -527082.81244  20457783.4384                   20457779.5394
        39.2504         28.5004
   -345779.590 6                  22634218.008
        36.250
    -17868.56246    -53813.36744  20501859.4924                   20501857.2114
        39.5004         29.2504
     95067.777 5                  22462634.695
        35.500
   -416972.848 5                  21931716.328
        34.250
    110750.242 5                  22784556.188
        35.500
 19  3  6 19 53 25.0000000  0  6G07G08G09G23G30G16
   -272025.77346   -537808.93444  20455164.3524                   20455159.7154
        38.5004         25.7504
   -367805.363 5                  22630027.766
        35.750
    -18458.59846    -54273.16844  20501746.9384                   20501744.7194
        40.7504         29.0004
    101362.574 5                  22463831.867
        35.750
   -439209.219 5                  21927484.117
        32.000
    118032.559 6                  22785941.641
        36.000
 19  3  6 19 53 30.0000000  0  6G07G08G09G23G30G16
   -285771.10246   -548519.57444  20452548.5084                   20452544.3204
        40.7504         28.2504
   -389809.113 5                  22625840.031
        35.250
    -19024.44546    -54714.05544  20501639.6024                   20501637.0314
        40.7504         28.2504
    107676.043 5                  22465033.859
        35.500
   -461428.910 6                  21923257.977
        37.000
    125332.902 6                  22787330.820
        36.250
 19  3  6 19 53 35.0000000  0  6G07G08G09G23G30G16
   -299496.75446   -559214.88744  20449936.4454                   20449932.3444
        39.5004         28.2504
   -411790.949 5                  22621656.813
        35.750
    -19566.19546    -55136.20344  20501536.6414                   20501534.0634
        39.0004         26.7504
    114008.039 6                  22466238.938
        36.000
   -483631.953 6                  21919032.555
        36.750
    132651.152 5                  22788723.016
        34.000
 19  3  6 19 53 40.0000000  0  1G07
                                  20447331.2664                   20447324.3524
        29.7504         24.5004
 19  3  6 19 53 45.0000000  0  5G07G08G09G23G16
   -326889.30556   -580559.74654  20444723.5164                   20444719.6024
        39.5004         28.2504
    -17545.72315                  22613301.422
        33.250
    -20582.62116                  20501342.570
        40.000
    126724.77715                  22468658.586
        35.250
    147341.36715                  22791519.773
        35.000
 19  3  6 19 53 50.0000000  0  5G07G08G09G23G16
   -340556.25446   -591209.31244  20442122.8204                   20442119.0784
        38.7504         27.5004
    -39462.000 5                  22609131.992
        34.500
    -21052.50846    -55750.49654  20501254.1094                   20501251.9454
        39.2504         27.7504
    133112.156 5                  22469874.219
        35.250
    154713.082 5                  22792922.977
        35.000
 19  3  6 19 53 55.0000000  0  6G07G08G09G27G23G16
   -354203.85246   -601843.80544  20439525.8594                   20439522.0474
        37.7504         27.5004
                                  22604963.547
        27.500
    -21498.64546    -56098.13744  20501168.7344                   20501167.2304
        38.7504         28.5004
                                  22202160.852
        35.250
    139517.773 5                  22471091.727
        33.500
    162102.332 5                  22794328.008
        34.750
 19  3  6 19 54  0.0000000  0  6G07G09G27G23G30G16
   -367832.36346   -612463.41444  20436932.1954                   20436928.7464
        36.7504         25.7504
    -21921.45746    -56427.62144  20501088.3444                   20501086.7774
        38.0004         28.2504
    -24420.75045    -64265.50453  22199693.0394                   22199690.9184
        35.5004         20.2504
    145940.988 5                  22472316.000
        34.250
                                  21897952.656
        36.750
    169508.719 5                  22795736.563
        33.000
 19  3  6 19 54  5.0000000  0  6G07G09G27G23G30G16
   -381442.12146   -623068.42244  20434342.1954                   20434338.4494
        38.0004         26.2504
    -22320.98446    -56738.94144  20501012.8284                   20501010.5594
        39.0004         29.0004
    -37365.16446    -74352.10943  22197229.7974                   22197228.2034
        36.2504         19.0004
    152382.156 5                  22473542.781
        34.500
    -38916.14846   -535839.66453  21893746.5944                   21893744.4454
        36.0004         22.2504
    176932.297 5                  22797150.227
        35.000
 19  3  6 19 54 10.0000000  0  6G07G09G27G23G30G16
   -395032.87146   -633658.62144  20431755.4924                   20431752.3954
        37.5004         24.5004
    -22697.18746    -57032.09044  20500940.8204                   20500939.0554
        40.0004         27.5004
    -50282.45346    -84417.50843  22194771.5234                   22194769.8594
        36.0004         19.0004
    158841.066 5                  22474770.523
        34.000
    -61005.79746   -553052.34043  21889543.3524                   21889541.5124
        36.2504         22.0004
    184372.934 5                  22798566.680
        35.000
 19  3  6 19 54 15.0000000  0  6G07G09G27G23G30G16
   -408604.79746   -644234.16044  20429173.4844                   20429169.8954
        40.7504         26.0004
    -23050.12146    -57307.10544  20500874.0164                   20500871.8834
        41.0004         29.2504
    -63172.62146    -94461.78543  22192319.2424                   22192317.2424
        36.2504         18.5004
    165317.738 5                  22476004.125
        34.250
    -83079.53146   -570252.69143  21885342.6254                   21885341.1174
        37.0004         22.5004
    191830.602 5                  22799985.000
        34.750
 19  3  6 19 54 20.0000000  0  6G07G09G27G23G30G16
   -422157.91446   -654794.99644  20426594.2664                   20426590.5514
        39.5004         26.2504
    -23379.96146    -57564.10944  20500810.9304                   20500808.9184
        38.5004         27.7504
    -76035.83245   -104485.10542  22189871.0084                   22189869.3634
        35.7504         17.7504
    171811.941 5                  22477239.703
        33.500
   -105137.59045   -587440.73443  21881146.0474                   21881144.0354
        35.2504         21.5004
    199305.219 5                  22801407.648
        34.500
 19  3  6 19 54 25.0000000  0  6G07G09G27G23G30G16
   -435692.44946   -665341.41044  20424018.5314                   20424015.0634
        37.0004         24.2504
    -23686.83646    -57803.26244  20500752.6724                   20500750.6994
        38.5004         26.5004
    -88872.12145   -114487.35943  22187428.6954                   22187426.9454
        35.7504         18.5004
    178323.555 5                  22478478.555
        33.750
   -127180.09045   -604616.68743  21876950.8914                   21876949.0984
        35.5004         21.0004
    206796.563 5                  22802833.859
        34.500
 19  3  6 19 54 30.0000000  0  6G07G09G27G23G30G16
   -449208.88346   -675873.68744  20421447.0164                   20421442.9494
        38.0004         25.5004
    -23971.30546    -58024.91444  20500698.7034                   20500696.8484
        39.0004         25.7504
   -101682.05945   -124469.15643  22184991.2584                   22184989.6024
        35.5004         19.0004
    184852.004 5                  22479719.578
        33.500
   -149207.53946   -621780.95343  21872758.6334                   21872757.4454
        36.2504         19.5004
    214304.094 5                  22804261.648
        34.750
 19  3  6 19 54 35.0000000  0  6G07G09G27G23G30G16
   -462706.91046   -686391.64144  20418878.0394                   20418874.5314
        37.5004         25.5004
    -24233.04346    -58228.87944  20500648.7974                   20500647.0164
        38.7504         27.5004
   -114465.44946   -134430.22343  22182558.5784                   22182557.1254
        36.5004         18.2504
    191397.637 5                  22480965.633
        34.750
   -171219.62546   -638933.22743  21868570.2974                   21868569.0204
        36.5004         19.7504
    221828.098 5                  22805694.008
        34.500
 19  3  6 19 54 40.0000000  0  6G07G09G27G23G30G16
   -476187.15646   -696895.71544  20416312.7274                   20416309.2344
        38.5004         27.2504
    -24472.67646    -58415.58244  20500603.3204                   20500601.1334
        39.5004         28.2504
   -127222.71546   -144370.97343  22180130.5784                   22180129.1414
        36.0004         19.2504
    197959.816 5                  22482214.961
        35.000
   -193216.93046   -656073.98843  21864384.4454                   21864382.9344
        37.2504         20.0004
    229368.016 5                  22807127.469
        35.250
 19  3  6 19 54 45.0000000  0  6G07G09G27G23G30G16
   -489649.75046   -707386.03944  20413751.4694                   20413747.4024
        36.2504         26.0004
    -24690.32046    -58585.18044  20500561.4534                   20500560.1804
        38.2504         26.7504
   -139954.04746   -154291.50043  22177708.2034                   22177706.2974
        36.0004         20.0004
    204538.445 5                  22483466.984
        34.250
   -215199.59446   -673203.33243  21860201.1094                   21860199.5004
        36.2504         20.2504
    236923.645 5                  22808566.203
        34.750
 19  3  6 19 54 50.0000000  0  6G07G09G27G23G30G16
   -503094.71546   -717862.66444  20411192.6724                   20411188.5434
        37.2504         25.5004
    -24885.96546    -58737.64544  20500524.6804                   20500522.8524
        38.7504         27.5004
   -152659.51246   -164191.83243  22175291.1564                   22175288.9614
        36.5004         20.2504
    211133.441 5                  22484721.414
        34.500
   -237167.54745   -690321.17243  21856021.2734                   21856019.9104
        32.2504         19.2504
    244494.977 5                  22810006.938
        35.000
 19  3  6 19 54 55.0000000  0  6G07G09G27G23G30G16
   -516522.23846   -728325.66844  20408637.1954                   20408633.7464
        37.2504         24.5004
    -25059.93446    -58873.21544  20500490.6884                   20500489.7304
        39.0004         26.7504
   -165339.32445   -174072.24243  22172876.1414                   22172875.9184
        35.5004         19.5004
    217744.594 5                  22485979.297
        34.250
   -259121.34046   -707428.06243  21851842.4774                   21851842.0704
        37.2504         20.2504
    252081.84415                  22811449.375
        31.000
 19  3  6 19 55  0.0000000  0  6G07G09G27G23G30G16
   -529932.59046   -738775.27744  20406085.7664                   20406082.0664
        37.7504         25.5004
    -25212.45346    -58992.05544  20500462.4144                   20500460.5594
        38.5004         26.5004
   -177993.70345   -183932.72342  22170469.3204                   22170467.9104
        35.5004         17.7504
    224371.602 5                  22487241.359
        35.000
   -281060.89846   -724523.83243  21847668.6564                   21847667.4064
        36.5004         20.7504
    259683.645 5                  22812897.633
        35.250
 19  3  6 19 55  5.0000000  0  6G07G09G27G23G30G16
   -543325.44546   -749211.27344  20403537.1254                   20403533.3754
        37.7504         25.0004
    -25343.20346    -59093.93444  20500436.8524                   20500435.3954
        38.5004         27.2504
   -190622.32846   -193773.23443  22168065.8914                   22168064.5944
        36.0004         18.2504
    231014.789 5                  22488505.227
        33.750
   -302985.97746   -741608.30143  21843496.1094                   21843495.1054
        36.5004         20.2504
    267301.066 5                  22814346.031
        35.250
 19  3  6 19 55 10.0000000  0  6G07G09G27G23G30G16
   -556700.80146   -759633.61744  20400991.7344                   20400987.8754
        37.2504         25.5004
    -25452.21146    -59178.89144  20500416.3594                   20500415.2624
        38.2504         26.5004
   -203225.25046   -203593.67643  22165668.3834                   22165666.4774
        36.0004         18.2504
    237674.08215                  22489772.141
        34.500
   -324896.65246   -758681.57443  21839327.7504                   21839325.4384
        36.5004         19.2504
    274933.980 5                  22815798.234
        35.000
 19  3  6 19 55 15.0000000  0  6G07G09G27G23G30G16
   -570058.72346   -770042.40244  20398449.4614                   20398445.5314
        37.0004         24.7504
    -25539.49246    -59246.89544  20500400.7584                   20500398.4454
        38.2504         27.0004
   -215802.42246   -213394.08643  22163274.6094                   22163273.2894
        36.2504         18.2504
    244349.594 5                  22491043.180
        33.500
   -346792.84846   -775743.53143  21835159.8054                   21835159.0274
        36.5004         19.5004
    282582.270 5                  22817254.289
        35.500
 19  3  6 19 55 20.0000000  0  6G07G09G27G23G30G16
   -583399.23046   -780437.59444  20395911.2584                   20395907.0704
        37.5004         25.2504
    -25605.10246    -59298.02044  20500388.6414                   20500385.8754
        38.7504         27.0004
   -228354.00046   -223174.53543  22160885.8284                   22160884.8484
        36.0004         18.2504
                                  22492314.984
        32.500
   -368674.71146   -792794.32043  21830997.0004                   21830995.0044
        36.7504         20.0004
    290245.895 5                  22818713.063
        35.000
 19  3  6 19 55 25.0000000  0  6G07G09G27G23G30G16
   -596722.30545   -790819.19143  20393374.2114                   20393372.0234
        34.5004         22.7504
    -25649.17646    -59332.36344  20500378.1254                   20500377.1214
        36.0004         24.5004
   -240880.03945   -232935.05943  22158501.1334                   22158501.2074
        33.5004         18.2504
    257748.60514                  22493588.844
        29.000
   -390542.06245   -809833.80143  21826834.3134                   21826833.8834
        34.5004         19.7504
    297924.820 5                  22820174.523
        32.750
 19  3  6 19 58  0.0000000  0  6G07G08G09G27G16G30
                                  20616127.719
        41.750
                                  22705236.867
        36.250
                                  20801852.141
        41.750
                                  22386729.430
        39.000
                                  23166600.813
        38.500
                                  21998905.7734                   21998906.3364
        38.5004         24.5004
 19  3  6 19 58  5.0000000  0  6G07G08G09G27G16G30
   1519564.49646    428725.09054  20613694.5394                   20613690.7384
        41.2504         28.5004
   1523480.754 6                  22701259.164
        36.500
   1576644.17646   1168536.03955  20801970.8984                   20801970.2194
        40.7504         30.5004
   1551937.05546    986840.46553  22384497.5864                   22384496.3714
        37.5004         22.0004
   1595515.262 6                  23168150.070
        37.000
   1487091.27046    386318.13343  21994828.4064                   21994828.1054
        38.2504         22.7504
 19  3  6 19 58 10.0000000  0  6G07G08G09G27G16G30
   1506794.14846    418774.16844  20611263.5234                   20611260.6644
        39.2504         26.7504
   1502586.539 5                  22697282.094
        32.750
   1577284.54746   1169035.01244  20802091.7274                   20802091.8674
        38.0004         29.5004
   1540230.78545    977718.68043  22382268.9304                   22382268.9104
        33.2504         21.5004
   1603665.883 5                  23169701.070
        34.500
   1465681.80145    369635.41043  21990753.1024                   21990754.0554
        34.7504         22.5004
 19  3  6 19 58 15.0000000  0  6G07G08G09G27G16G30
   1494041.84846    408837.31644  20608837.3134                   20608834.4494
        39.5004         26.7504
                                  22693307.797
        31.750
   1577941.30146   1169546.73044  20802217.6954                   20802216.3954
        38.2504         29.0004
   1528538.30945    968607.65243  22380044.9304                   22380044.2504
        33.5004         19.7504
   1611822.613 6                  23171253.344
        36.750
   1444294.36746    352969.89143  21986683.3754                   21986683.8094
        36.2504         22.2504
 19  3  6 19 58 20.0000000  0  6G07G08G09G27G16G30
   1481305.39146    398912.80944  20606412.9064                   20606410.3244
        41.0004         27.7504
   1460828.90215                  22689336.695
        35.500
   1578617.10246   1170073.35944  20802346.0314                   20802345.1454
        40.0004         27.5004
   1516868.00846    959513.92243  22377823.4064                   22377822.9064
        38.0004         19.2504
   1619991.078 6                  23172807.352
        36.250
   1422921.18446    336315.44143  21982616.0634                   21982616.2934
        36.2504         22.5004
 19  3  6 19 58 50.0000000  0  1G27
                                  22364567.023
        31.500
 19  3  6 19 59 40.0000000  0  2G07G27
                                  20567937.211
        34.750
                                  22342820.727
        33.000
 19  3  6 20  0  0.0000000  0  1G30
                                  21901635.156
        37.750
 19  3  6 20  0  5.0000000  0  4G07G09G27G30
                                  20556055.5554                   20556053.3594
        44.2504         35.5004
                                  20805750.727
        43.500
                                  22332106.375
        38.750
                                  21897610.8754                   21897609.7504
        41.2504         26.0004
 19  3  6 20  0 10.0000000  0  3G07G27G16
   1556006.52756    375525.89154  20553685.9614                   20553685.8634
        37.0004         25.5004
                                  22329975.445
        32.500
                                  23207486.578
        33.250
 19  3  6 20  0 15.0000000  0  6G07G08G09G27G16G30
   1565483.06657    369719.30554  20551324.4614                   20551321.0204
        44.5004         28.0004
   1559039.71716                  22598802.555
        38.000
   1578041.61757   1172181.94554  20806156.0554                   20806156.4304
        42.0004         27.5004
   1548133.68316                  22327852.328
        40.250
   1593578.56616                  23209089.398
        37.250
   1495024.99617                  21889567.859
        42.500
 19  3  6 20  0 20.0000000  0  6G07G08G09G27G16G30
   1553072.07847    360048.39854  20548961.1804                   20548959.4024
        42.0004         27.7504
   1538563.805 6                  22594904.609
        36.750
   1579132.18046   1173031.87544  20806361.4534                   20806363.8794
        41.5004         27.7504
   1536990.34446    949008.07453  22325730.5634                   22325732.1764
        39.5004         21.5004
   1602009.227 6                  23210692.461
        37.000
   1473908.06646    302045.77053  21885548.1024                   21885549.2194
        38.5004         22.5004
 19  3  6 20  0 25.0000000  0  6G07G08G09G27G16G30
   1540674.68447    350388.07444  20546603.5474                   20546598.6994
        44.5004         26.5004
   1518104.898 6                  22591012.586
        36.250
   1580240.18846   1173895.22744  20806573.8984                   20806573.7544
        41.5004         26.7504
   1525869.27746    940342.30543  22323614.8444                   22323614.4064
        40.5004         22.0004
   1610450.813 6                  23212300.742
        38.500
   1452801.74647    285599.24644  21881532.5314                   21881532.0634
        42.0004         24.0004
 19  3  6 20  0 30.0000000  0  5G07G09G27G16G30
   1528290.51447    340738.14344  20544246.4224                   20544240.5234
        42.2504         26.2504
                                  20806787.3834                   20806785.5664
        40.2504         27.0004
                                  22321501.8914                   22321499.8524
        39.7504         22.7504
                                  23213907.813
        32.250
   1431705.46146    269160.62944  21877516.6884                   21877517.0554
        36.5004         24.2504
 19  3  6 20  0 35.0000000  0  4G07G08G09G16
                                  20541893.6884                   20541891.3484
        46.5004         21.5004
                                  22583236.250
        37.000
                                  20807006.8594                   20807002.7734
        45.0004         26.2504
                                  23215520.703
        33.750
 19  3  6 20  0 40.0000000  0  6G07G08G09G27G16G30
   1503564.18047    321470.91443  20539540.0164                   20539537.8284
        47.2504         23.2504
   1456820.27346   1224983.78953  22579350.6414                   22579343.8794
        40.0004         20.2504
   1583664.00447   1176419.10554  20807225.7424                   20807222.8634
        46.5004         25.0004
   1563009.65217                  22317289.414
        44.500
   1635835.567 6                  23217129.773
        38.000
   1548418.62957    254757.17654  21869494.5554                   21869493.4344
        43.0004         24.2504
 19  3  6 20  0 45.0000000  0  6G07G08G09G27G16G30
   1491205.79747    311841.03943  20537188.1644                   20537186.6334
        46.2504         22.7504
   1436413.85946   1209082.71543  22575467.3914                   22575461.8594
        40.0004         19.0004
   1584826.39147   1177324.92243  20807447.1254                   20807445.7304
        45.5004         22.5004
   1551961.930 7                  22315187.391
        44.000
   1644304.590 6                  23218741.508
        37.000
   1527339.19947    238331.68043  21865483.6484                   21865483.1094
        44.7504         21.0004
 19  3  6 20  0 50.0000000  0  6G07G08G09G27G16G30
   1478860.10947    302220.96143  20534836.7584                   20534837.3404
        44.5004         22.0004
   1416025.551 5                  22571585.570
        33.250
   1586005.57046   1178243.70743  20807668.9224                   20807670.9844
        41.5004         22.7504
   1540938.055 6                  22313086.961
        38.000
   1652785.88316                  23220353.492
        36.750
   1506267.78146    221912.37943  21861470.9384                   21861474.3324
        41.5004         20.7504
 19  3  6 20  0 55.0000000  0  6G07G08G09G27G16G30
   1466527.93047    292611.49244  20532492.0314                   20532491.4534
        46.7504         24.5004
   1395652.234 6                  22567710.516
        38.000
   1587201.58647   1179175.70743  20807898.8674                   20807899.9494
        44.7504         23.2504
   1529934.172 6                  22310994.922
        39.750
   1661276.133 6                  23221970.469
        39.000
   1485208.71947    205502.77343  21857466.1644                   21857467.5274
        42.5004         20.5004
 19  3  6 20  1  0.0000000  0  6G07G08G09G27G16G30
   1454213.73047    283016.00443  20530148.2344                   20530148.7464
        45.7504         22.5004
   1375298.941 6                  22563838.125
        36.000
   1588419.11747   1180124.40243  20808130.4844                   20808132.8674
        43.0004         23.2504
   1518955.339 6                  22308905.273
        38.250
   1669779.410 6                  23223588.125
        37.750
   1464164.43547    189104.59443  21853461.2274                   21853464.2584
        42.5004         21.0004
 19  3  6 20  1  5.0000000  0  6G07G08G09G27G16G30
   1441914.82847    273432.43444  20527806.6174                   20527808.7584
        42.5004         24.2504
   1354963.805 6                  22559966.938
        36.750
   1589655.44947   1181087.74643  20808364.6094                   20808368.5634
        42.0004         22.7504
   1507999.746 6                  22306820.375
        37.000
   1678295.109 6                  23225207.375
        36.750
   1443133.88346    172717.10543  21849458.1954                   21849462.0904
        38.7504         21.0004
 19  3  6 20  1 10.0000000  0  7G07G08G09G27G16G28G30
   1429629.56347    263859.52044  20525469.4224                   20525471.4224
        45.0004         27.0004
   1334643.906 6                  22556101.000
        38.000
   1590908.61347   1182064.27744  20808602.8054                   20808607.0474
        43.7504         24.2504
   1497064.484 6                  22304739.547
        39.500
   1686819.488 6                  23226830.305
        38.500
   1385110.73415                  24215188.750
        35.250
   1422114.52347    156338.44943  21845458.8674                   21845462.5124
        43.0004         21.5004
 19  3  6 20  1 15.0000000  0  7G07G08G09G27G16G28G30
   1417354.40247    254294.45744  20523133.6644                   20523135.6214
        44.7504         25.7504
   1314339.445 6                  22552235.891
        38.250
   1592176.41047   1183052.11743  20808844.4924                   20808848.4494
        43.5004         22.5004
   1486149.801 6                  22302662.492
        38.750
   1695352.789 6                  23228453.914
        38.000
   1358859.379 6                  24210193.023
        36.250
   1401101.85947    139964.88743  21841459.9694                   21841464.2734
        42.5004         22.2504
 19  3  6 20  1 20.0000000  0  7G07G08G09G27G16G28G30
   1405089.37947    244737.32444  20520799.2894                   20520802.1024
        43.7504         25.5004
   1294046.156 6                  22548374.477
        38.500
   1593457.07847   1184050.07043  20809087.5634                   20809092.1884
        43.2504         22.7504
   1475251.719 6                  22300587.797
        39.500
   1703891.680 6                  23230079.375
        38.500
   1332612.660 6                  24205198.188
        38.750
   1380097.50846    123597.91043  21837462.5004                   21837467.2304
        40.2504         21.7504
 19  3  6 20  1 25.0000000  0  7G07G08G09G27G16G28G30
   1392837.49247    235190.38344  20518468.2034                   20518470.0904
        44.5004         24.0004
   1273770.727 6                  22544516.336
        38.750
   1594754.51247   1185061.04743  20809334.7424                   20809339.0984
        43.5004         22.7504
   1464377.410 6                  22298518.641
        39.000
   1712442.668 6                  23231706.648
        37.750
   1306370.363 6                  24200204.836
        37.000
   1359101.47346    107237.35943  21833467.5084                   21833472.2544
        41.2504         21.5004
 19  3  6 20  1 30.0000000  0  7G07G08G09G27G16G28G30
   1380598.24647    225653.28944  20516139.7814                   20516141.3204
        45.0004         25.0004
   1253511.258 6                  22540661.867
        38.500
   1596068.57047   1186084.98844  20809585.5004                   20809589.2504
        43.5004         24.0004
   1453523.691 6                  22296454.344
        39.500
   1721002.449 6                  23233336.156
        37.750
   1280135.781 6                  24195212.961
        36.500
   1338115.57446     90884.69943  21829475.0084                   21829479.2194
        41.5004         22.0004
 19  3  6 20  1 35.0000000  0  7G07G08G09G27G16G28G30
   1368368.70747    216123.79744  20513812.3204                   20513813.6914
        45.5004         25.0004
   1233265.531 6                  22536809.344
        37.500
   1597396.38747   1187119.64143  20809837.7344                   20809842.2304
        44.5004         22.5004
   1442688.648 6                  22294391.734
        39.750
   1729569.301 6                  23234965.484
        39.500
   1253906.387 6                  24190222.242
        38.500
   1317136.80546     74537.61743  21825482.3834                   21825486.4574
        41.5004         21.5004
 19  3  6 20  1 40.0000000  0  7G07G08G09G27G16G28G30
   1356149.30147    206602.18843  20511486.6484                   20511488.4734
        42.7504         22.5004
   1213034.195 5                  22532959.078
        34.500
   1598738.62946   1188165.52343  20810092.6414                   20810097.5274
        40.5004         22.2504
   1431872.684 6                  22292333.695
        36.500
   1738143.031 5                  23236597.711
        35.250
   1227681.207 5                  24185231.141
        33.000
   1296164.47746     58195.53943  21821491.7194                   21821496.1294
        40.2504         20.2504
 19  3  6 20  1 45.0000000  0  7G07G08G09G27G16G28G30
   1343940.01647    197088.43043  20509163.9614                   20509166.0124
        44.0004         23.0004
   1192814.516 6                  22529111.766
        38.500
   1600093.95347   1189221.60943  20810351.0164                   20810356.3444
        42.5004         21.2504
   1421073.738 6                  22290278.703
        39.500
   1746722.656 6                  23238229.188
        38.750
   1201461.148 5                  24180241.727
        32.500
   1275200.71946     41860.11743  21817502.6484                   21817507.5004
        40.5004         19.5004
 19  3  6 20  1 50.0000000  0  7G07G08G09G27G16G28G30
   1331741.19557    187582.93054  20506841.4924                   20506844.6684
        45.2504         24.7504
   1172610.12016                  22525266.547
        39.250
   1601463.67747   1190288.97643  20810610.9924                   20810617.7544
        43.7504         22.0004
   1410295.391 6                  22288226.711
        40.250
   1755311.14516                  23239863.117
        37.750
   1175243.24615                  24175250.914
        33.500
   1254243.17646     25529.63343  21813512.8984                   21813519.4304
        40.7504         19.7504
 19  3  6 20  1 55.0000000  0  7G07G08G09G27G16G28G30
   1319550.22747    178083.46944  20504521.7114                   20504524.9964
        46.0004         24.5004
   1152417.605 6                  22521423.758
        39.500
   1602845.22347   1191365.49243  20810874.0634                   20810881.0394
        43.7504         22.5004
   1399533.816 6                  22286178.719
        40.000
   1763904.602 6                  23241498.766
        40.000
   1149029.996 6                  24170263.406
        38.000
   1233291.01246      9203.26243  21809525.3524                   21809532.1294
        41.7504         20.7504
 19  3  6 20  2  0.0000000  0  7G07G08G09G27G16G28G30
   1307370.27347    168592.58644  20502204.3674                   20502207.7114
        47.0004         24.5004
   1132238.199 6                  22517583.477
        38.750
   1604241.01247   1192453.14143  20811139.9844                   20811146.5274
        44.0004         22.5004
   1388790.516 6                  22284134.414
        40.500
   1772504.766 6                  23243135.641
        40.250
   1122821.352 6                  24165276.195
        38.250
   1212347.10947     -7116.64543  21805540.4454                   21805547.1334
        42.2504         21.5004
 19  3  6 20  2  5.0000000  0  7G07G08G09G27G16G28G30
   1295201.29347    159110.22744  20499889.1334                   20499891.8984
        47.0004         24.0004
   1112072.664 6                  22513747.109
        40.750
   1605651.07847   1193551.82443  20811408.3674                   20811414.7814
        44.7504         22.7504
   1378066.195 6                  22282094.750
        41.500
   1781112.508 6                  23244774.172
        41.000
   1096618.699 6                  24160291.453
        39.000
   1191412.04746    -23429.71943  21801557.5944                   21801563.8594
        41.2504         21.0004
 19  3  6 20  2 10.0000000  0  7G07G08G09G27G16G28G30
   1283044.70747    149637.55143  20497575.3524                   20497578.8834
        46.5004         22.5004
   1091921.594 6                  22509911.586
        39.750
   1607077.17647   1194663.04743  20811680.0234                   20811685.9304
        45.2504         22.5004
   1367360.754 6                  22280057.430
        40.250
   1789727.074 6                  23246413.789
        40.500
   1070423.418 6                  24155305.289
        37.500
   1170487.03147    -39734.93443  21797575.9774                   21797581.6134
        42.2504         21.5004
 19  3  6 20  2 15.0000000  0  7G07G08G09G27G16G28G30
   1270896.43447    140171.37144  20495263.7664                   20495265.5314
        46.5004         25.2504
   1071784.023 6                  22506079.578
        40.000
   1608515.21547   1195783.64543  20811953.7424                   20811959.4844
        45.0004         22.5004
   1356674.684 6                  22278024.016
        41.250
   1798349.637 6                  23248054.055
        40.250
   1044229.793 6                  24150321.109
        37.750
   1149566.60547    -56036.53143  21793594.5944                   21793600.2274
        42.0004         21.5004
 19  3  6 20  2 20.0000000  0  7G07G08G09G27G16G28G30
   1258757.25047    130712.28544  20492953.6644                   20492956.0554
        47.0004         24.2504
   1051658.324 6                  22502250.641
        38.750
   1609965.46947   1196913.66843  20812229.1884                   20812235.4574
        44.5004         22.7504
   1346005.910 6                  22275993.008
        40.000
   1806978.055 6                  23249696.250
        40.250
   1018038.953 6                  24145336.617
        38.500
   1128652.45347    -72333.31243  21789614.4694                   21789620.0474
        42.2504         21.5004
 19  3  6 20  2 25.0000000  0  7G07G08G09G27G16G28G30
   1246627.68447    121260.70344  20490645.5234                   20490647.4924
        47.2504         25.5004
   1031546.484 6                  22498422.938
        38.000
   1611428.68847   1198053.91843  20812508.4144                   20812513.2814
        45.0004         22.7504
   1335356.754 6                  22273967.367
        40.000
   1815614.598 6                  23251339.461
        39.500
    991850.777 6                  24140353.695
        38.500
   1107744.30147    -88625.30543  21785635.6804                   21785641.3554
        43.2504         21.5004
 19  3  6 20  2 30.0000000  0  7G07G08G09G27G16G28G30
   1234507.63748    111816.51244  20488339.4144                   20488341.1214
        48.0004         25.2504
   1011448.031 6                  22494597.773
        38.500
   1612905.51647   1199204.66443  20812789.0784                   20812793.5704
        45.0004         22.7504
   1324725.371 6                  22271943.805
        39.750
   1824256.902 6                  23252983.453
        40.750
    965667.699 5                  24135372.063
        35.500
