     2.11           OBSERVATION DATA    G (GPS)             RINEX VERSION / TYPE
teqc  2019Feb25     Martin Truffer      20190308 01:05:21UTCPGM / RUN BY / DATE
Linux 2.6.32-573.12.1.x86_64|x86_64|gcc|Linux 64|=+         COMMENT
BIT 2 OF LLI FLAGS DATA COLLECTED UNDER A/S CONDITION       COMMENT
51890650                                                    MARKER NAME
5189                                                        MARKER NUMBER
-Unknown-           -Unknown-                               OBSERVER / AGENCY
0220315189          TRIMBLE 5700        2.30                REC # / TYPE / VERS
-Unknown-           TRM41249.00     NONE                    ANT # / TYPE
 -1795171.1300 -3484394.5896  5017485.7904                  APPROX POSITION XYZ
        0.0530        0.0000        0.0000                  ANTENNA: DELTA H/E/N
     1     1                                                WAVELENGTH FACT L1/2
     7    L1    L2    C1    P1    P2    S1    S2            # / TYPES OF OBSERV
    18                                                      LEAP SECONDS
 SNR is mapped to RINEX snr flag value [0-9]                COMMENT
  L1 & L2: min(max(int(snr_dBHz/6), 0), 9)                  COMMENT
  2019     3     6     0     0   25.0000000     GPS         TIME OF FIRST OBS
                                                            END OF HEADER
 19  3  6  0  0 25.0000000  0  7G11G13G17G18G19G01G28
    -27323.14556  -7909050.41453  22892086.6094                   22892084.8164
        41.5004         20.0004
    198369.92616                  22615065.281
        39.500
  -8172269.80557 -18183914.73454  20893050.9454                   20893050.3324
        45.0004         26.2504
    -60556.80156  -4536175.07853  23504401.6334                   23504402.9574
        39.0004         19.2504
  -1054443.27356  -9103069.80152  21989656.5234                   21989654.6214
        39.7504         17.7504
  -5164502.34856  -5754450.46953  22579724.6804                   22579727.8054
        41.7504         22.7504
  -2428393.53957 -10335072.08254  21041586.9144                   21041585.4414
        44.0004         24.5004
 19  3  6  0  0 30.0000000  0  7G11G13G17G18G19G01G28
    -27748.18747  -7909381.71143  22892006.9454                   22892003.1334
        43.7504         19.7504
    200793.088 6                  22615527.539
        39.000
  -8189108.37947 -18197035.73844  20889848.5004                   20889844.9964
        44.5004         26.5004
    -61775.98047  -4537125.11743  23504171.5864                   23504170.2194
        43.7504         19.7504
  -1081451.51846  -9124115.28142  21984518.6884                   21984514.6294
        39.0004         16.7504
  -5174969.12147  -5762606.44544  22577734.6644                   22577735.0634
        45.0004         25.7504
  -2432879.64547 -10338567.81244  21040734.7734                   21040730.1374
        46.2504         27.5004
 19  3  6  0  0 35.0000000  0  7G11G13G17G18G19G01G28
    -28161.86846  -7909704.08243  22891927.0634                   22891923.9614
        40.2504         19.7504
    203220.531 6                  22615987.859
        41.250
  -8205938.01647 -18210149.76644  20886645.0554                   20886642.0164
        46.5004         27.7504
    -62983.00746  -4538065.66943  23503940.5784                   23503939.9144
        39.5004         18.5004
  -1108455.51647  -9145157.38742  21979379.5234                   21979375.7384
        42.7504         17.2504
  -5185420.60746  -5770750.48244  22575745.3914                   22575746.6484
        41.5004         24.0004
  -2437362.18447 -10342060.70044  21039880.6804                   21039877.0474
        44.5004         26.0004
 19  3  6  0  0 40.0000000  0  7G11G13G17G18G19G01G28
    -28564.24246  -7910017.58243  22891850.8834                   22891847.5944
        41.7504         19.0004
    205655.449 6                  22616452.063
        41.000
  -8222759.19947 -18223257.14144  20883444.3204                   20883441.2584
        46.7504         29.7504
    -64176.57446  -4538995.73043  23503713.6414                   23503712.6564
        41.2504         18.2504
  -1135454.36346  -9166195.42643  21974241.2814                   21974237.3874
        40.7504         18.2504
  -5195857.91047  -5778883.37943  22573758.8674                   22573759.8324
        43.7504         22.7504
  -2441841.88747 -10345551.34044  21039028.0944                   21039024.5354
        45.7504         28.5004
 19  3  6  0  0 45.0000000  0  7G11G13G17G18G19G01G28
    -28958.30547  -7910324.60543  22891775.5394                   22891772.0204
        42.2504         18.5004
    208096.375 6                  22616916.797
        39.500
  -8239572.13747 -18236358.11744  20880244.6414                   20880241.8954
        46.5004         29.7504
    -65360.77346  -4539918.43443  23503489.1334                   23503487.7934
        39.5004         18.5004
  -1162447.98046  -9187229.35543  21969104.5784                   21969100.7344
        40.0004         18.5004
  -5206282.97347  -5787006.79343  22571775.2974                   22571776.0474
        43.5004         22.2504
  -2446320.21547 -10349040.92244  21038175.9224                   21038172.5634
        45.5004         28.5004
 19  3  6  0  0 50.0000000  0  7G11G13G17G18G19G01G28
    -29336.81647  -7910619.60242  22891703.3914                   22891700.6174
        42.5004         17.2504
    210544.875 6                  22617381.156
        37.000
  -8256373.31947 -18249449.94944  20877046.8594                   20877044.4964
        44.7504         26.2504
    -66528.324 6                  23503265.742
        41.000
  -1189434.26146  -9208257.69243  21963969.1954                   21963965.0984
        38.2504         19.5004
  -5216688.84047  -5795115.30143  22569794.3524                   22569795.8324
        43.2504         22.5004
  -2450791.48147 -10352525.03043  21037324.5704                   21037321.5594
        44.7504         23.2504
 19  3  6  0  0 55.0000000  0  7G11G13G17G18G19G01G28
    -29706.28946  -7910907.48843  22891633.0004                   22891630.1994
        41.0004         18.2504
    213009.668 6                  22617851.352
        38.750
  -8273159.71947 -18262530.27344  20873852.7424                   20873850.8914
        45.5004         27.2504
    -67685.852 6                  23503045.500
        41.250
  -1216406.33246  -9229274.80543  21958836.1484                   21958832.5164
        39.0004         19.2504
  -5227081.48447  -5803213.44544  22567817.7194                   22567818.6254
        43.0004         25.0004
  -2455258.30547 -10356005.70744  21036474.8594                   21036471.3984
        45.2504         28.5004
 19  3  6  0  1  0.0000000  0  7G11G13G17G18G19G01G28
    -30059.84447  -7911182.97943  22891566.2734                   22891562.6454
        42.5004         19.0004
    215482.711 6                  22618322.109
        40.250
  -8289933.02747 -18275600.38344  20870661.6414                   20870659.2194
        45.2504         27.7504
    -68826.629 7                  23502829.313
        42.000
  -1243369.75846  -9250285.27343  21953705.8594                   21953701.5354
        40.0004         18.2504
  -5237454.15247  -5811296.07444  22565843.8444                   22565844.7974
        43.0004         26.5004
  -2459716.98047 -10359480.00444  21035626.7584                   21035623.1994
        45.5004         29.2504
 19  3  6  0  1  5.0000000  0  7G11G13G17G18G19G01G28
    -30402.90647  -7911450.32843  22891501.5554                   22891498.1844
        43.5004         19.5004
    217970.996 6                  22618795.555
        36.500
  -8306694.04347 -18288660.88344  20867472.5704                   20867469.4184
        45.0004         29.0004
    -69954.47747  -4541472.94355  23502614.5554                   23502611.4144
        43.0004         31.0004
  -1270322.67246  -9271287.52343  21948576.1094                   21948572.3954
        38.0004         18.2504
  -5247813.78947  -5819368.49644  22563872.3524                   22563872.9574
        45.2504         24.7504
  -2464171.76647 -10362951.25044  21034778.9774                   21034775.2424
        46.0004         28.7504
 19  3  6  0  1 10.0000000  0  7G11G13G17G18G19G01G28
    -30734.34847  -7911708.53943  22891437.9924                   22891434.2584
        43.5004         20.0004
    220463.80916                  22619269.859
        38.750
  -8323445.59047 -18301714.02044  20864284.5944                   20864280.7344
        46.0004         28.0004
    -71070.363 7                  23502402.125
        43.500
  -1297269.82446  -9292285.28142  21943449.5394                   21943444.2344
        39.5004         17.7504
  -5258157.11747  -5827428.20344  22561905.0864                   22561904.2894
        45.5004         26.5004
  -2468622.77347 -10366419.53544  21033932.3524                   21033927.8364
        46.5004         29.2504
 19  3  6  0  1 15.0000000  0  7G11G13G17G18G19G01G28
    -31050.73057  -7911955.12153  22891376.6334                   22891374.5744
        42.5004         19.0004
    222959.801 5                  22619744.156
        35.750
  -8340188.46647 -18314760.42344  20861097.3364                   20861094.8484
        44.5004         28.2504
    -72169.395 6                  23502191.570
        41.250
  -1324213.85546  -9313280.71943  21938320.7344                   21938316.2624
        37.5004         20.0004
  -5268482.26647  -5835473.77743  22559937.9304                   22559939.6804
        42.7504         23.7504
  -2473068.31457 -10369883.55854  21033085.2424                   21033081.8984
        44.5004         27.0004
 19  3  6  0  1 20.0000000  0  7G11G13G17G18G19G01G28
    -31355.54747  -7912192.60543  22891320.4614                   22891315.6914
        43.5004         18.2504
    225469.070 6                  22620221.797
        39.250
  -8356915.90247 -18327794.80344  20857915.3134                   20857911.0744
        44.5004         25.2504
    -73256.898 7                  23501986.438
        44.500
  -1351144.06646  -9334265.16442  21933196.3834                   21933191.9454
        41.5004         17.7504
  -5278790.70347  -5843506.33643  22557977.8054                   22557977.4344
        44.5004         23.0004
  -2477507.31647 -10373342.57044  21032241.8674                   21032236.5274
        46.0004         27.7504
 19  3  6  0  1 25.0000000  0  7G11G13G17G18G19G01G28
    -31648.56247  -7912420.95743  22891264.6644                   22891260.2464
        43.0004         19.5004
    227984.248 6                  22620700.602
        39.500
  -8373635.24247 -18340822.88444  20854733.2894                   20854730.1684
        45.5004         29.0004
    -74330.527 7                  23501781.977
        42.750
  -1378070.31246  -9355246.77043  21928072.9454                   21928068.4344
        40.0004         19.5004
  -5289084.42247  -5851527.43044  22556018.6174                   22556018.6094
        43.5004         26.0004
  -2481943.30447 -10376799.20044  21031397.3914                   21031392.7034
        45.7504         28.7504
 19  3  6  0  1 30.0000000  0  7G11G13G17G18G19G01G28
    -31930.84046  -7912640.88743  22891210.5394                   22891206.4694
        41.5004         20.2504
    230506.414 6                  22621180.953
        39.500
  -8390344.34047 -18353842.91044  20851553.8364                   20851551.5394
        45.2504         28.5004
    -75392.45347  -4542185.35555  23501579.9224                   23501575.2894
        42.5004         31.5004
  -1404989.73446  -9376222.86743  21922950.3284                   21922946.1604
        40.2504         20.0004
  -5299363.36747  -5859536.95344  22554062.8594                   22554063.6134
        43.2504         27.5004
  -2486375.47347 -10380252.80944  21030553.5554                   21030549.8634
        45.2504         29.7504
 19  3  6  0  1 35.0000000  0  7G11G13G17G18G19G01G28
    -32205.08247  -7912854.60943  22891158.1644                   22891154.0744
        42.0004         20.0004
    233036.789 6                  22621662.992
        38.500
  -8407044.19947 -18366855.81244  20848375.6954                   20848373.2234
        45.2504         28.2504
    -76445.16447  -4543005.65643  23501379.4774                   23501376.0784
        43.0004         22.5004
  -1431902.14846  -9397193.59843  21917830.0314                   21917824.8014
        40.0004         19.5004
  -5309630.26647  -5867537.13744  22552109.6414                   22552109.9654
        44.5004         28.5004
  -2490806.05547 -10383705.21145  21029710.8054                   21029707.4454
        45.7504         30.0004
 19  3  6  0  1 40.0000000  0  7G11G13G17G18G19G01G28
    -32468.00047  -7913059.50843  22891108.9774                   22891102.6134
        45.7504         21.5004
    235571.008 7                  22622145.063
        42.000
  -8423736.15647 -18379862.52344  20845200.7274                   20845195.0904
        47.0004         28.5004
    -77485.31647  -4543816.18043  23501182.1484                   23501178.1254
        44.2504         21.7504
  -1458811.11346  -9418161.66043  21912708.6724                   21912703.0314
        40.0004         19.2504
  -5319882.17347  -5875525.66044  22550159.3834                   22550156.7194
        45.2504         25.7504
  -2495233.69547 -10387155.34844  21028869.1954                   21028862.6724
        47.0004         29.2504
 19  3  6  0  1 45.0000000  0  7G11G13G17G18G19G01G28
    -32723.855 7                  22891060.609
        45.000
    238111.234 6                  22622627.703
        40.000
  -8440420.44547 -18392863.31243  20842025.9064                   20842019.0944
        46.0004         23.0004
    -78517.238 7                  23500985.711
        44.500
  -1485714.95347  -9439125.90253  21907588.7194                   21907582.7304
        42.5004         19.5004
  -5330123.15647  -5883505.65243  22548210.1724                   22548206.8054
        46.2504         21.7504
  -2499660.88347 -10390605.21143  21028026.7344                   21028019.7344
        46.7504         22.2504
 19  3  6  0  1 50.0000000  0  7G11G13G17G18G19G01G28
    -32971.99047  -7913437.14753  22891011.6954                   22891007.8834
        42.5004         22.7504
    240661.779 6                  22623113.602
        38.500
  -8457094.38647 -18404816.84355  20838850.5314                   20838847.2274
        46.7504         35.5004
    -79539.97747  -4545257.05554  23500790.2504                   23500782.6994
        42.0004         25.2504
  -1512610.315 6                  21902470.445
        40.000
  -5340352.58447  -5891476.64844  22546262.0784                   22546261.6954
        43.7504         29.2504
  -2504086.21447 -10394053.41445  21027182.5004                   21027178.4384
        46.0004         32.0004
 19  3  6  0  1 55.0000000  0  7G11G13G17G18G19G01G28
    -33209.10557  -7913621.92254  22890966.9774                   22890962.6564
        44.7504         27.7504
    243218.04716                  22623599.664
        36.250
  -8473758.50647 -18417801.93355  20835680.5004                   20835675.3404
        44.7504         30.0004
    -80551.05557  -4546045.00454  23500597.7344                   23500591.5704
        44.2504         25.7504
  -1539499.72956  -9457563.83253  21897353.1334                   21897347.5044
        39.7504         20.7504
  -5350566.81657  -5899435.69555  22544318.8674                   22544318.5904
        46.2504         32.2504
  -2508507.62847 -10397498.60345  21026341.9534                   21026337.7894
        46.5004         31.5004
 19  3  6  0  2  0.0000000  0  7G11G13G17G18G19G01G28
    -33439.52746  -7913801.48843  22890923.8284                   22890918.5984
        41.5004         22.5004
    245781.668 6                  22624089.039
        37.750
  -8490415.16447 -18430781.19145  20832511.8284                   20832507.0274
        44.2504         30.0004
    -81553.57046  -4546826.23443  23500407.3444                   23500401.8674
        40.5004         22.2504
  -1566383.45746  -9478512.20743  21892238.7194                   21892232.0434
        38.2504         21.0004
  -5360770.57847  -5907386.73844  22542378.1414                   22542376.6994
        42.0004         27.7504
  -2512929.33247 -10400944.12944  21025502.0084                   21025496.0164
        43.7504         28.5004
 19  3  6  0  2  5.0000000  0  7G11G13G17G18G19G01G28
    -33662.97747  -7913975.63343  22890879.4774                   22890874.5864
        44.2504         22.7504
    248344.567 6                  22624575.102
        38.250
  -8507067.85547 -18443757.30545  20829341.4224                   20829336.5744
        46.0004         31.5004
    -82548.10947  -4547601.16843  23500217.3594                   23500212.9144
        43.0004         21.5004
  -1593267.75046  -9499461.01243  21887121.9614                   21887115.3554
        40.7504         21.7504
  -5370963.47747  -5915329.27345  22540436.8364                   22540436.2234
        45.5004         30.0004
  -2517352.02047 -10404390.38344  21024658.5314                   21024653.5004
        46.5004         29.5004
 19  3  6  0  2 10.0000000  0  7G11G13G17G18G19G01G28
    -33879.00447  -7914143.95743  22890839.6094                   22890834.5864
        43.7504         22.7504
    250913.883 6                  22625064.414
        38.750
  -8523712.27747 -18456727.00845  20826174.5164                   20826170.1954
        47.0004         31.5004
    -83534.09047  -4548369.52343  23500030.0394                   23500026.1134
        44.0004         21.2504
  -1620146.51246  -9520405.52043  21882007.0784                   21882001.0904
        40.5004         21.7504
  -5381144.86347  -5923262.82044  22538499.7894                   22538499.3324
        45.0004         28.5004
  -2521773.83647 -10407835.98445  21023817.5314                   21023812.8834
        46.5004         30.5004
 19  3  6  0  2 15.0000000  0  7G11G13G17G18G19G01G28
    -34086.09047  -7914305.33643  22890799.4304                   22890795.9184
        44.0004         22.5004
    253490.359 6                  22625555.023
        38.750
  -8540347.89847 -18469689.78145  20823008.3524                   20823005.3324
        46.7504         31.2504
    -84509.61747  -4549129.67643  23499844.1644                   23499840.8284
        42.0004         20.7504
  -1647019.48846  -9541345.47343  21876893.8984                   21876888.0744
        41.0004         21.5004
  -5391313.69147  -5931186.58645  22536564.5084                   22536564.5704
        46.0004         32.0004
  -2526193.60247 -10411279.92645  21022975.9924                   21022971.9924
        45.7504         31.0004
 19  3  6  0  2 20.0000000  0  7G11G13G17G18G19G01G28
    -34287.59847  -7914462.35244  22890762.3594                   22890756.3674
        45.0004         24.5004
    256071.918 6                  22626045.977
        39.500
  -8556979.06247 -18482649.18045  20819844.4844                   20819839.4344
        47.5004         34.0004
    -85476.90247  -4549883.39143  23499661.0164                   23499656.3554
        43.5004         21.2504
  -1673890.41446  -9562283.88343  21871780.9144                   21871773.6524
        41.5004         22.7504
  -5401474.30547  -5939103.93745  22534632.4064                   22534630.3834
        46.7504         32.5004
  -2530615.89547 -10414725.90245  21022135.7504                   21022129.2304
        47.2504         33.5004
 19  3  6  0  2 25.0000000  0  7G11G13G17G18G19G01G28
    -34481.89847  -7914613.75844  22890724.6174                   22890719.5124
        44.7504         25.0004
    258654.422 6                  22626537.359
        37.250
  -8573605.64847 -18495604.93445  20816680.3674                   20816675.7704
        47.0004         31.2504
    -86435.64847  -4550630.45343  23499478.2114                   23499474.0514
        43.0004         22.0004
  -1700760.89846  -9583221.91444  21866667.2814                   21866660.8244
        41.2504         24.0004
  -5411624.05547  -5947012.83245  22532700.6334                   22532699.1484
        47.0004         31.2504
  -2535038.86747 -10418172.35245  21021293.2974                   21021288.4574
        47.0004         31.5004
 19  3  6  0  2 30.0000000  0  7G11G13G17G18G19G01G28
    -34669.91847  -7914760.26643  22890689.1334                   22890684.7584
        44.2504         22.7504
    261248.922 6                  22627032.195
        40.750
  -8590220.61748 -18508551.62545  20813519.7504                   20813514.2464
        48.0004         31.7504
    -87387.11747  -4551342.86654  23499297.2504                   23499293.7114
        44.0004         29.2504
  -1727620.99246  -9604151.89543  21861556.0314                   21861549.4264
        41.5004         21.5004
  -5421763.29747  -5954913.52045  22530770.4454                   22530769.5474
        46.7504         30.5004
  -2539459.95347 -10421617.36745  21020452.2814                   21020446.6294
        47.0004         31.5004
 19  3  6  0  2 35.0000000  0  7G11G13G17G18G19G01G28
    -34846.72747  -7914898.05543  22890655.5704                   22890650.7344
        43.5004         22.7504
    263852.613 6                  22627527.219
        37.750
  -8606826.09447 -18521491.01245  20810358.2974                   20810354.8754
        46.2504         30.7504
    -88325.02047  -4552073.70743  23499118.2894                   23499115.6254
        42.0004         21.2504
  -1754474.19146  -9625076.43043  21856445.9384                   21856439.8984
        41.0004         22.0004
  -5431888.27747  -5962803.14544  22528843.6094                   22528842.6564
        46.0004         28.2504
  -2543878.08247 -10425060.07044  21019611.0004                   21019606.4574
        46.0004         29.5004
 19  3  6  0  2 40.0000000  0  7G11G13G17G18G19G01G28
    -35027.55147  -7915038.89144  22890621.0864                   22890616.3634
        45.2504         26.2504
    266451.109 6                  22628022.109
        38.750
  -8623435.35248 -18534433.21145  20807198.4224                   20807194.5664
        48.7504         33.0004
    -89265.34447  -4552806.37143  23498940.1884                   23498936.7704
        44.0004         22.2504
  -1781334.12947  -9646006.19943  21851334.5784                   21851328.7034
        42.5004         22.5004
  -5442013.72347  -5970693.03145  22526917.2734                   22526916.4454
        47.5004         33.0004
  -2548307.01247 -10428511.12145  21018768.8984                   21018764.4614
        47.7504         33.2504
 19  3  6  0  2 45.0000000  0  7G11G13G17G18G19G01G28
    -35202.24247  -7915175.11743  22890587.2974                   22890583.1684
        45.0004         22.0004
    269048.641 6                  22628515.445
        38.500
  -8640040.69547 -18547372.53144  20804038.0004                   20804034.1454
        47.0004         29.0004
    -90198.98847  -4553533.91453  23498761.2114                   23498759.3914
        43.0004         20.7504
  -1808193.76247  -9666935.84843  21846223.2344                   21846217.3284
        42.0004         22.5004
  -5452128.43047  -5978574.70744  22524991.8444                   22524991.4144
        47.0004         28.0004
  -2552737.58647 -10431963.57044  21017925.1954                   21017920.8554
        47.5004         28.5004
 19  3  6  0  2 50.0000000  0  7G11G13G17G18G19G01G28
    -35363.949 7                  22890557.594
        45.000
    271648.777 6                  22629009.625
        37.500
  -8656635.80947 -18558235.71556  20800880.5784                   20800861.3634
        47.0004         38.2504
    -91120.03947  -4554224.38353  23498587.7344                   23498586.0124
        43.5004         21.5004
  -1835047.363 7                  21841113.406
        42.250
  -5462224.633 7                  22523071.344
        46.500
  -2557162.79347 -10434859.82856  21017083.9774                   21017062.1644
        47.5004         38.5004
 19  3  6  0  2 55.0000000  0  7G11G13G17G18G19G01G28
    -35506.187 7                  22890531.172
        45.500
    274264.203 6                  22629508.086
        38.000
  -8673212.36747 -18571152.58655  20797726.4454                   20797719.4804
        47.0004         31.2504
    -92020.453 7                  23498416.258
        43.750
  -1861885.945 6                  21836006.602
        41.500
  -5472297.352 7                  22521155.094
        46.000
  -2561575.64847 -10438298.41455  21016244.3984                   21016237.4734
        47.2504         30.5004
 19  3  6  0  3  0.0000000  0  7G11G13G17G18G19G01G28
    -35634.93447  -7915299.20755  22890504.8834                   22890504.1414
        43.5004         33.0004
    276895.551 6                  22630008.773
        37.500
  -8689773.01647 -18581474.97554  20794573.6804                   20794569.9184
        44.0004         28.7504
    -92905.863 7                  23498246.500
        42.500
  -1888710.10946  -9684506.90653  21830901.0314                   21830892.8284
        39.7504         22.0004
  -5482352.51647  -5984549.88254  22519240.8754                   22519240.4574
        45.5004         29.7504
  -2565981.00147 -10441456.14255  21015405.2114                   21015399.1294
        44.7504         30.7504
 19  3  6  0  3  5.0000000  0  7G11G13G17G18G19G01G28
    -35756.48447  -7915393.89553  22890483.0554                   22890477.9024
        42.7504         22.5004
    279536.363 6                  22630512.273
        40.000
  -8706322.27747 -18594370.45345  20791425.1024                   20791421.1134
        47.7504         34.0004
    -93783.863 6                  23498080.273
        38.500
  -1915524.40647  -9705401.06644  21825799.4384                   21825791.0354
        42.2504         25.5004
  -5492395.58647  -5992375.66045  22517329.8364                   22517329.3914
        45.7504         31.7504
  -2570384.00047 -10444886.97345  21014567.7034                   21014563.0124
        46.2504         32.5004
 19  3  6  0  3 10.0000000  0  7G11G13G17G18G19G01G28
    -35874.09847  -7915485.53943  22890460.0944                   22890454.8404
        42.0004         22.5004
    282190.42646  -7687372.68053  22631016.0944                   22631012.3984
        40.5004         20.2504
  -8722860.41448 -18607257.28945  20788278.4224                   20788274.1884
        48.7504         34.5004
    -94656.844 6                  23497914.070
        39.750
  -1942327.28147  -9726286.43444  21820698.5314                   21820691.6844
        43.0004         26.0004
  -5502430.03147  -6000194.70345  22515420.6564                   22515419.1334
        46.2504         31.0004
  -2574786.86747 -10448317.79345  21013730.4924                   21013724.5904
        47.0004         32.7504
 19  3  6  0  3 15.0000000  0  7G11G13G17G18G19G01G28
    -35985.42246  -7915572.28143  22890439.1804                   22890434.6414
        41.5004         22.0004
    284861.50846  -7685291.27043  22631523.5234                   22631521.3954
        38.2504         19.2504
  -8739383.23448 -18620132.19945  20785133.5084                   20785129.2074
        49.2504         34.7504
    -95522.844 6                  23497748.859
        38.500
  -1969114.83647  -9747159.81244  21815600.2814                   21815594.5514
        43.2504         27.0004
  -5512453.52347  -6008005.18445  22513512.5164                   22513511.5514
        45.7504         30.5004
  -2579186.09847 -10451745.74645  21012892.4774                   21012887.3164
        46.5004         32.7504
 19  3  6  0  3 20.0000000  0  7G11G13G17G18G19G01G28
    -36086.86746  -7915651.29343  22890419.8834                   22890414.7344
        39.5004         21.2504
    287542.68046  -7683202.03543  22632035.0314                   22632031.0664
        41.5004         19.5004
  -8755896.04448 -18632999.29645  20781991.3914                   20781986.6054
        49.5004         34.2504
    -96376.875 6                  23497586.523
        37.000
  -1995894.44547  -9768027.07044  21810504.9534                   21810498.2814
        44.5004         27.7504
  -5522463.78947  -6015805.35944  22511608.8594                   22511606.0944
        43.7504         28.7504
  -2583582.68847 -10455171.64245  21012056.4384                   21012049.8754
        46.5004         31.2504
 19  3  6  0  3 25.0000000  0  7G11G13G17G18G19G01G28
    -36186.19147  -7915728.70343  22890400.6884                   22890395.5124
        42.0004         19.7504
    290235.46546  -7681103.77143  22632546.2274                   22632543.4924
        39.0004         20.0004
  -8772399.45748 -18645859.12145  20778850.8364                   20778846.8404
        49.0004         34.0004
    -97227.605 6                  23497424.211
        39.500
  -2022664.63747  -9788886.98444  21805409.7894                   21805404.5904
        43.2504         27.0004
  -5532467.62147  -6023600.59044  22509704.0944                   22509703.3364
        44.5004         27.2504
  -2587980.95747 -10458598.88745  21011218.7664                   21011213.8674
        46.7504         31.0004
 19  3  6  0  3 30.0000000  0  7G11G13G17G18G19G01G28
    -36278.68046  -7915800.75843  22890383.3984                   22890378.1604
        39.5004         18.2504
    292938.19946  -7678997.71943  22633061.6024                   22633057.9574
        41.0004         20.2504
  -8788893.25848 -18658711.38745  20775712.6884                   20775708.0084
        48.7504         33.0004
    -98069.711 6                  23497264.109
        36.500
  -2049426.87947  -9809740.64144  21800317.8834                   21800311.8054
        44.0004         28.0004
  -5542460.82047  -6031387.45344  22507802.5864                   22507802.1024
        43.0004         26.2504
  -2592378.15647 -10462025.23045  21010382.1644                   21010376.8714
        45.7504         30.0004
 19  3  6  0  3 35.0000000  0  7G11G13G17G18G19G01G28
    -36360.89546  -7915864.79342  22890365.7584                   22890362.7234
        36.0004         17.7504
    295651.19547  -7676883.73443  22633576.2034                   22633574.4024
        42.2504         22.5004
  -8805376.14847 -18671555.21545  20772574.4454                   20772573.2274
        47.7504         34.5004
    -98899.672 5                  23497105.328
        34.750
  -2076180.52047  -9830587.63344  21795225.3444                   21795222.0354
        43.7504         29.7504
  -5552440.32446  -6039163.69144  22505902.0164                   22505903.2774
        40.5004         26.5004
  -2596771.90247 -10465448.93044  21009544.2894                   21009542.2624
        43.7504         29.7504
 19  3  6  0  3 40.0000000  0  7G11G13G17G18G19G01G28
    -36435.828 6                  22890353.000
        40.500
    298374.10547  -7674761.96543  22634095.7424                   22634092.0434
        43.7504         22.5004
  -8821848.59048 -18684390.86745  20769441.1564                   20769437.7854
        49.0004         33.5004
    -99720.887 6                  23496949.359
        38.500
  -2102925.75847  -9851428.06244  21790137.8594                   21790132.4064
        45.0004         29.0004
  -5562408.43047  -6046931.03944  22504006.7974                   22504006.7464
        42.5004         25.5004
  -2601163.64847 -10468871.07045  21008709.8204                   21008706.1054
        45.5004         31.0004
 19  3  6  0  3 45.0000000  0  7G11G13G17G18G19G01G28
    -36494.578 6                  22890342.320
        40.500
    301100.61747  -7672637.43443  22634614.2424                   22634611.2114
        44.0004         22.7504
  -8838312.83248 -18697220.15645  20766307.9774                   20766304.9884
        49.0004         35.2504
   -100523.504 6                  23496797.219
        38.000
  -2129668.10547  -9872266.28545  21785048.3284                   21785043.2074
        44.7504         30.5004
  -5572357.66047  -6054683.70344  22502113.6724                   22502113.2194
        42.2504         24.5004
  -2605550.08247 -10472289.09445  21007875.5164                   21007871.4144
        45.7504         31.7504
 19  3  6  0  3 50.0000000  0  7G11G13G17G18G19G01G28
    -36548.863 6                  22890330.828
        40.000
    303837.30547  -7670504.94144  22635135.1484                   22635131.9264
        43.5004         25.5004
  -8854767.53548 -18710042.00045  20763176.3984                   20763173.1524
        49.0004         35.7504
   -101320.379 6                  23496645.828
        38.250
  -2156401.85247  -9893097.77744  21779961.1884                   21779955.9574
        44.7504         29.2504
  -5582298.10947  -6062429.51244  22500221.5704                   22500221.3674
        42.0004         24.5004
  -2609936.71147 -10475707.24645  21007040.1094                   21007036.2894
        45.7504         31.5004
 19  3  6  0  3 55.0000000  0  7G11G13G17G18G19G01G28
    -36588.816 6                  22890323.805
        39.500
    306579.88747  -7668367.86744  22635657.0234                   22635653.8324
        44.0004         25.7504
  -8871211.73048 -18722855.65245  20760047.5554                   20760043.6994
        49.2504         35.5004
   -102101.406 6                  23496496.773
        37.000
  -2183129.55547  -9913924.53544  21774874.8524                   21774870.0634
        44.5004         29.5004
  -5592220.49247  -6070161.23044  22498333.4534                   22498333.2424
        42.2504         25.5004
  -2614317.52347 -10479120.85945  21006206.6024                   21006202.7624
        45.7504         31.5004
 19  3  6  0  4  0.0000000  0  7G11G13G17G18G19G01G28
    -36617.887 6                  22890318.906
        40.250
    309331.42247  -7666223.76243  22636180.3754                   22636177.5474
        44.0004         22.5004
  -8887645.24648 -18735660.94145  20756920.0394                   20756916.6454
        49.7504         34.5004
   -102870.223 5                  23496350.289
        35.750
  -2209848.78947  -9934744.67244  21769790.2974                   21769785.4064
        45.2504         28.0004
  -5602127.91847  -6077881.24644  22496448.3754                   22496448.1454
        42.5004         26.2504
  -2618694.59047 -10482531.50844  21005373.8134                   21005369.8094
        45.7504         29.7504
 19  3  6  0  4  5.0000000  0  7G11G13G17G18G19G01G28
    -36642.281 6                  22890313.313
        40.750
    312083.65547  -7664079.19543  22636704.3914                   22636701.1214
        43.7504         22.2504
  -8904075.14548 -18748463.45345  20753793.6644                   20753790.4614
        48.5004         33.7504
   -103632.801 6                  23496204.406
        37.250
  -2236567.66447  -9955564.55544  21764705.2734                   21764700.8244
        44.7504         29.5004
  -5612026.70347  -6085594.59044  22494564.7194                   22494564.4184
        43.7504         25.5004
  -2623074.27347 -10485944.25045  21004540.7584                   21004536.8014
        46.0004         31.0004
 19  3  6  0  4 10.0000000  0  7G11G13G17G18G19G01G28
    -36658.738 6                  22890310.188
        39.000
    314842.12546  -7661929.75043  22637228.1564                   22637226.5704
        40.5004         23.5004
  -8920497.02748 -18761259.73046  20750667.6954                   20750666.8404
        48.0004         36.2504
   -104385.914 6                  23496060.766
        36.000
  -2263281.29347  -9976380.40245  21759621.8054                   21759619.2464
        43.2504         30.2504
  -5621913.77347  -6093298.80544  22492682.1884                   22492683.9384
        42.5004         28.0004
  -2627452.95347 -10489356.21545  21003706.4694                   21003705.0124
        45.0004         33.5004
 19  3  6  0  4 15.0000000  0  7G11G13G17G18G19G01G28
    -36666.613 6                  22890307.922
        39.250
    317596.50847  -7659783.46944  22637752.9064                   22637751.3444
        43.5004         25.7504
  -8936916.77748 -18774054.35245  20747543.5234                   20747542.2624
        48.0004         35.7504
   -105129.148 6                  23495919.398
        36.500
  -2289997.71147  -9997198.37544  21754537.2734                   21754535.1724
        44.2504         29.5004
  -5631788.28546  -6100993.23844  22490803.2814                   22490805.1844
        40.5004         25.2504
  -2631832.74647 -10492769.05545  21002873.2034                   21002872.2734
        44.7504         31.2504
 19  3  6  0  4 20.0000000  0  7G11G13G17G18G19G01G28
    -36669.941 6                  22890308.820
        41.000
    320359.10547  -7657630.79344  22638279.7034                   22638277.7624
        43.7504         24.0004
  -8953327.09848 -18786841.61345  20744421.9304                   20744419.4804
        49.5004         35.0004
   -105867.113 6                  23495781.039
        39.500
  -2316706.26247 -10018010.22744  21749456.3834                   21749452.7424
        45.2504         29.2504
  -5641653.54747  -6108680.45344  22488926.3914                   22488927.9844
        43.7504         28.0004
  -2636212.32847 -10496181.70345  21002041.1334                   21002037.5234
        46.5004         31.5004
 19  3  6  0  4 25.0000000  0  7G11G13G17G18G19G01G28
    -36657.434 6                  22890310.297
        39.250
    323130.45347  -7655471.28944  22638805.5004                   22638803.9614
        42.5004         26.0004
  -8969725.07048 -18799619.23846  20741299.8524                   20741298.3794
        48.2504         36.0004
   -106587.535 6                  23495641.508
        37.000
  -2343406.08647 -10038815.29345  21744374.1094                   21744370.7734
        44.2504         30.0004
  -5651499.20347  -6116352.39143  22487052.3134                   22487053.9454
        42.2504         23.7504
  -2640584.74247 -10499588.78145  21001207.5084                   21001205.1884
        45.7504         31.2504
 19  3  6  0  4 30.0000000  0  7G11G13G17G18G19G01G28
    -36637.87516                  22890315.156
        41.500
    325905.98457  -7653308.81553  22639335.1564                   22639332.6684
        42.5004         22.5004
  -8986115.74648 -18812391.34445  20738182.7344                   20738179.9064
        49.5004         35.5004
   -107300.01216                  23495508.516
        36.500
  -2370100.59857 -10059616.20354  21739296.4304                   21739291.2584
        44.7504         29.5004
  -5661332.31257  -6124014.30454  22485182.7814                   22485182.5354
        43.5004         27.7504
  -2644956.51657 -10502995.35555  21000377.6174                   21000372.1914
        46.5004         31.5004
 19  3  6  0  4 35.0000000  0  7G11G13G17G18G19G01G28
    -36605.227 6                  22890320.180
        39.000
    328687.36747  -7651141.46544  22639863.2034                   22639862.9384
        42.5004         25.2504
  -9002496.12158 -18825155.09855  20735064.0234                   20735063.0274
        48.5004         35.0004
   -107997.738 6                  23495373.742
        36.500
  -2396789.78947 -10080412.98044  21734215.8594                   21734213.8364
        43.5004         28.5004
  -5671149.59447  -6131664.13744  22483312.8134                   22483314.9534
        42.0004         25.0004
  -2649323.88747 -10506398.49245  20999544.7034                   20999543.0944
        45.5004         30.7504
 19  3  6  0  4 40.0000000  0  7G11G13G17G18G19G01G28
    -36568.527 6                  22890328.477
        39.500
    331479.03147  -7648966.16843  22640396.4844                   22640394.6604
        43.0004         23.0004
  -9018867.13748 -18837911.78145  20731950.3364                   20731948.5314
        48.0004         35.2504
   -108690.17646  -4555125.62953  23495244.1804                   23495243.5474
        37.5004         19.2504
  -2423470.05147 -10101202.79344  21729140.4304                   21729137.1884
        44.2504         29.7504
  -5680958.27047  -6139307.32044  22481448.0004                   22481449.3134
        42.0004         27.0004
  -2653691.26647 -10509801.68745  20998714.8364                   20998712.6764
        45.0004         31.7504
 19  3  6  0  4 45.0000000  0  7G11G13G17G18G19G01G28
    -36514.605 6                  22890340.000
        40.000
    334282.32847  -7646781.76244  22640931.4384                   22640928.2584
        44.5004         27.0004
  -9035223.64548 -18850657.07045  20728839.1334                   20728835.7814
        49.5004         35.5004
   -109363.69946  -4555650.48842  23495116.6954                   23495115.5084
        38.7504         16.7504
  -2450139.01247 -10121983.78145  21724066.9384                   21724062.3164
        45.5004         30.0004
  -5690746.01247  -6146934.09443  22479586.4774                   22479586.0554
        42.5004         22.7504
  -2658049.79347 -10513197.91045  20997886.1954                   20997882.6914
        46.2504         30.7504
 19  3  6  0  4 50.0000000  0  6G11G13G17G19G01G28
                                  22890351.258
        41.500
                                  22641464.1484                   22641463.1994
        42.0004         24.7504
                                  20725727.1414                   20725726.1214
        49.7504         34.5004
  -2476799.97347 -10142758.55944  21718991.6954                   21718988.8284
        45.2504         29.2504
                                  22477725.5234                   22477727.0864
        43.0004         24.0004
  -2662406.05157 -10516592.38755  20997056.6484                   20997053.8204
        46.7504         30.5004
 19  3  6  0  4 55.0000000  0  7G11G13G17G18G19G01G28
    -36376.891 6                  22890362.773
        37.500
    339910.58647  -7642396.12544  22641999.3364                   22641998.5084
        43.7504         25.0004
  -9067906.82848 -18876124.74645  20722617.1724                   20722616.6484
        48.5004         35.7504
   -110680.91815                  23494865.156
        35.500
  -2503454.06247 -10163527.97744  21713918.9534                   21713916.2194
        44.5004         28.7504
  -5710279.01646  -6162154.61744  22475867.6644                   22475869.7934
        38.7504         24.7504
  -2666757.13747 -10519982.87145  20996227.6724                   20996226.0634
        44.2504         30.5004
 19  3  6  0  5  0.0000000  0  7G11G13G17G18G19G01G28
    -36289.328 6                  22890380.047
        38.500
    342734.10546  -7640195.96543  22642536.4774                   22642535.5554
        41.7504         22.5004
  -9084232.84848 -18888846.28145  20719510.2274                   20719508.5354
        48.2504         32.5004
   -111317.121 6                  23494743.492
        37.500
  -2530101.85947 -10184292.49244  21708847.4454                   21708844.4264
        43.7504         27.2504
  -5720020.40646  -6169745.30143  22474012.7344                   22474015.8554
        41.0004         22.2504
  -2671103.85547 -10523369.91444  20995400.4454                   20995398.2194
        45.0004         28.5004
 19  3  6  0  5  5.0000000  0  7G11G13G17G18G19G01G28
    -36188.629 6                  22890399.422
        39.750
    345561.50847  -7637992.78543  22643075.3134                   22643073.1914
        44.0004         22.5004
  -9100549.78548 -18901560.76645  20716406.0234                   20716402.9304
        49.5004         34.0004
   -111938.684 6                  23494625.219
        39.000
  -2556745.07047 -10205053.41044  21703777.5474                   21703774.0824
        44.5004         27.5004
  -5729744.82847  -6177322.78943  22472163.2114                   22472165.0434
        42.0004         22.2504
  -2675445.98047 -10526753.37944  20994574.9384                   20994570.9844
        46.0004         29.5004
 19  3  6  0  5 10.0000000  0  7G11G13G17G18G19G01G28
    -36077.801 6                  22890419.039
        40.750
    348406.27747  -7635776.08244  22643616.2734                   22643614.2154
        44.5004         24.5004
  -9116850.64148 -18914262.74646  20713303.4064                   20713301.4774
        49.2504         36.5004
   -112548.836 6                  23494508.195
        37.250
  -2583372.47747 -10225802.05945  21698710.7114                   21698706.4964
        45.5004         30.0004
  -5739454.59446  -6184888.85544  22470315.4384                   22470316.6604
        41.7504         25.0004
  -2679782.29747 -10530132.33245  20993749.0164                   20993745.8484
        46.0004         32.0004
 19  3  6  0  5 15.0000000  0  7G11G13G17G18G19G01G28
    -35954.395 6                  22890444.336
        40.500
    351263.85547  -7633549.43744  22644160.9304                   22644158.4774
        44.2504         25.2504
  -9133136.82448 -18926953.29346  20710204.8674                   20710202.7114
        49.5004         36.0004
   -113145.422 6                  23494395.336
        38.000
  -2609987.05547 -10246540.69544  21693646.5474                   21693643.3484
        45.0004         29.7504
  -5749147.23847  -6192441.51244  22468471.5864                   22468472.5824
        42.5004         24.5004
  -2684111.92247 -10533506.06645  20992925.4614                   20992923.0514
        45.7504         30.5004
 19  3  6  0  5 20.0000000  0  7G11G13G17G18G19G01G28
    -35820.262 6                  22890469.461
        40.500
    354130.47347  -7631315.70744  22644705.2114                   22644704.0274
        43.0004         24.2504
  -9149411.22748 -18939634.64845  20707107.2584                   20707106.0474
        49.2504         35.2504
   -113729.984 6                  23494283.133
        36.500
  -2636592.55947 -10267272.26244  21688583.0234                   21688580.2114
        44.5004         29.0004
  -5758824.83647  -6199982.57043  22466629.5394                   22466631.0004
        42.2504         22.7504
  -2688436.97747 -10536876.26645  20992101.9224                   20992100.0354
        46.0004         30.0004
 19  3  6  0  5 25.0000000  0  7G11G13G17G18G19G01G28
    -35668.828 6                  22890498.547
        39.250
    357003.63747  -7629076.86344  22645252.2034                   22645250.7814
        44.0004         26.0004
  -9165673.58648 -18952306.61745  20704013.3524                   20704011.2974
        49.0004         35.5004
   -114295.871 6                  23494176.063
        37.500
  -2663190.33247 -10287997.80144  21683522.1174                   21683518.5354
        44.2504         29.0004
  -5768481.10247  -6207506.92244  22464791.9774                   22464793.4384
        42.0004         24.5004
  -2692754.02047 -10540240.19945  20991280.7274                   20991278.4614
        45.7504         31.5004
 19  3  6  0  5 30.0000000  0  7G11G13G17G18G19G01G28
    -35500.493 6                  22890529.563
        38.250
    359882.11247  -7626833.90644  22645799.3054                   22645798.7664
        43.2504         26.0004
  -9181925.02148 -18964970.05545  20700920.2034                   20700918.6724
        49.0004         35.2504
   -114843.133 6                  23494071.891
        36.500
  -2689781.97347 -10308718.53744  21678461.7274                   21678458.6294
        44.2504         28.7504
  -5778116.83646  -6215015.23844  22462957.4844                   22462959.8014
        41.2504         24.2504
  -2697063.74247 -10543598.40245  20990459.6724                   20990458.4844
        45.0004         31.5004
 19  3  6  0  5 35.0000000  0  7G11G13G17G18G19G01G28
    -35321.254 6                  22890565.320
        40.750
    362765.56647  -7624587.02743  22646348.8524                   22646347.3874
        42.0004         22.5004
  -9198167.39148 -18977626.42645  20697829.9454                   20697827.4694
        48.5004         33.0004
   -115378.289 6                  23493970.188
        41.250
  -2716367.85247 -10329434.76544  21673402.6644                   21673399.1214
        43.5004         26.0004
  -5787737.23447  -6222511.64843  22461127.1954                   22461129.0634
        42.7504         22.5004
  -2701370.16047 -10546954.02744  20989641.2344                   20989638.0394
        46.0004         29.2504
 19  3  6  0  5 40.0000000  0  7G11G13G17G18G19G01G28
    -35122.414 6                  22890602.484
        38.250
    365660.17247  -7622331.55143  22646899.5394                   22646898.6994
        42.5004         21.7504
  -9214394.17648 -18990270.72745  20694741.8134                   20694740.0824
        48.5004         34.5004
   -115891.703 6                  23493872.234
        37.000
  -2742942.77747 -10350142.55544  21668345.7584                   21668341.8754
        44.0004         27.7504
  -5797334.75046  -6229990.27044  22459301.1334                   22459302.0824
        41.2504         24.0004
  -2705665.66847 -10550301.22345  20988823.6564                   20988820.7344
        44.5004         30.5004
 19  3  6  0  5 45.0000000  0  7G11G13G17G18G19G01G28
    -34909.664 6                  22890642.547
        39.000
    368557.13747  -7620074.07443  22647450.4614                   22647449.1764
        42.7504         22.0004
  -9230613.37547 -19002908.98845  20691655.1334                   20691653.7774
        47.0004         33.0004
   -116389.559 6                  23493778.367
        37.750
  -2769514.48447 -10370847.70744  21663289.2194                   21663285.1914
        43.0004         27.0004
  -5806914.65246  -6237455.11743  22457477.9924                   22457479.4064
        40.2504         22.0004
  -2709957.29347 -10553645.27344  20988006.7194                   20988003.9574
        43.7504         29.7504
 19  3  6  0  5 50.0000000  0  7G11G13G17G18G19G01G28
    -34696.301 6                  22890682.922
        40.000
    371459.47046  -7617812.58543  22648002.8594                   22648000.9884
        41.2504         22.2504
  -9246826.22347 -19015542.39845  20688570.1564                   20688567.8794
        47.5004         33.2504
   -116886.352 6                  23493683.023
        38.250
  -2796080.43747 -10391548.47344  21658233.7274                   21658230.1884
        43.0004         27.7504
  -5816488.69946  -6244915.39344  22455655.5234                   22455657.0864
        40.7504         24.5004
  -2714252.25847 -10556992.03145  20987189.0004                   20987186.4224
        44.2504         30.7504
 19  3  6  0  5 55.0000000  0  6G11G13G17G19G01G28
    -34473.68416                  22890726.289
        39.000
    374375.10257  -7615540.53153  22648558.1564                   22648556.1684
        42.5004         22.5004
  -9263024.69158 -19028164.82455  20685488.8054                   20685486.3204
        49.0004         32.2504
  -2822638.14517                  21653183.750
        46.000
  -5826048.07057  -6252363.99253  22453837.3674                   22453838.4614
        43.2504         22.2504
                                  20986368.297
        44.000
 19  3  6  0  6  0.0000000  0  6G11G13G17G18G19G01
    -34238.816 6                  22890770.727
        39.250
    377295.88347  -7613264.46144  22649113.9924                   22649112.1134
        45.7504         26.0004
  -9279214.29348 -19037752.47156  20682406.9534                   20682395.2234
        50.2504         38.0004
   -117852.13716                  23493500.914
        38.000
  -2849185.55547 -10410586.68055  21648129.0784                   21648124.8634
        46.2504         31.0004
  -5835591.84447  -6259800.47743  22452021.3204                   22452021.8134
        43.2504         22.5004
 19  3  6  0  6  5.0000000  0  7G11G13G17G18G19G01G28
    -33993.738 6                  22890815.578
        39.000
    380229.11747  -7610978.91844  22649672.1884                   22649670.7384
        43.2504         24.0004
  -9295391.35258 -19050357.94155  20679327.4924                   20679325.8794
        48.2504         34.7504
   -118312.52316                  23493413.086
        38.250
  -2875722.02357 -10431264.53555  21643078.9224                   21643075.6024
        44.0004         30.0004
  -5845121.47757  -6267226.20753  22450206.5704                   22450209.0314
        42.0004         22.0004
                                  20984741.2194                   20984737.4454
        44.7504         34.7504
 19  3  6  0  6 10.0000000  0  7G11G13G17G18G19G01G28
    -33734.957 6                  22890866.219
        40.250
    383172.02047  -7608685.70743  22650231.7894                   22650230.4734
        44.0004         23.2504
  -9311554.92648 -19062952.91045  20676252.4534                   20676250.7344
        49.0004         34.5004
   -118758.004 6                  23493326.820
        38.500
  -2902248.14847 -10451934.21945  21638030.6484                   21638028.4694
        43.7504         30.5004
  -5854633.03146  -6274637.86343  22448397.3364                   22448398.9384
        41.5004         22.5004
     -6158.28547 -10563698.00454  20983928.6334                   20983926.5634
        45.2504         29.0004
 19  3  6  0  6 15.0000000  0  7G11G13G17G18G19G01G28
    -33464.441 6                  22890917.094
        39.250
    386126.94147  -7606383.17643  22650793.7584                   22650792.8484
        42.0004         22.5004
  -9327705.22348 -19075537.57445  20673179.0084                   20673177.3834
        48.7504         33.7504
   -119189.988 6                  23493246.148
        37.750
  -2928763.00447 -10472595.16044  21632985.3674                   21632983.1334
        44.2504         29.0004
  -5864128.79747  -6282037.15643  22446589.7974                   22446591.8984
        42.0004         22.5004
    -10427.91847 -10567025.01644  20983116.1724                   20983114.2234
        45.2504         28.0004
 19  3  6  0  6 20.0000000  0  6G11G13G17G19G01G28
    -33184.126 6                  22890970.516
        40.500
    389085.55147  -7604077.75443  22651357.0944                   22651355.7544
        42.2504         22.2504
  -9343849.27048 -19088117.32845  20670107.0394                   20670105.3714
        49.0004         33.0004
  -2955275.09447 -10493253.88745  21627940.5864                   21627937.4804
        45.5004         31.2504
  -5873611.60246  -6289426.37143  22444784.9304                   22444787.7154
        41.7504         22.5004
    -14696.59447 -10570351.22344  20982304.0784                   20982301.5314
        45.0004         26.2504
 19  3  6  0  6 25.0000000  0  7G11G13G17G18G19G01G28
    -32896.750 6                  22891025.578
        36.500
    392044.92247  -7601771.74643  22651919.5704                   22651918.8404
        42.0004         22.5004
  -9359989.60248 -19100694.18445  20667035.3914                   20667033.5784
        48.5004         33.2504
   -120022.29714                  23493089.359
        29.500
  -2981787.09047 -10513912.54345  21622895.2734                   21622892.0704
        45.5004         30.7504
  -5883084.24647  -6296807.59843  22442983.1804                   22442985.4964
        42.5004         22.7504
    -18967.12147 -10573678.87944  20981491.4144                   20981488.9344
        45.0004         26.5004
 19  3  6  0  6 30.0000000  0  7G11G13G17G18G19G01G28
    -32595.000 5                  22891082.484
        35.500
    395004.84047  -7599465.31243  22652482.7424                   22652481.6644
        42.2504         22.7504
  -9376122.86748 -19113265.56245  20663964.9534                   20663963.6294
        48.0004         33.0004
   -120416.133 6                  23493012.750
        37.000
  -3008297.30147 -10534569.87945  21617850.6644                   21617847.6294
        44.7504         30.7504
  -5892538.59446  -6304174.62143  22441183.7504                   22441186.4734
        39.0004         21.5004
    -23233.33247 -10577003.20744  20980679.1174                   20980677.0124
        44.2504         26.5004
 19  3  6  0  6 35.0000000  0  7G11G13G17G18G19G01G28
    -32277.367 6                  22891143.344
        40.000
    397968.69947  -7597155.81243  22653046.9844                   22653046.1454
        44.0004         22.2504
  -9392245.16048 -19125828.35945  20660897.4064                   20660895.2894
        48.7504         32.5004
   -120793.324 6                  23492941.625
        38.000
  -3034801.37147 -10555222.35544  21612807.0864                   21612803.2894
        45.2504         29.7504
  -5901972.85946  -6311525.94943  22439388.5554                   22439390.3714
        39.5004         21.5004
    -27492.45347 -10580321.96544  20979869.3594                   20979866.4414
        45.5004         28.2504
 19  3  6  0  6 40.0000000  0  7G11G13G17G18G19G01G28
    -31945.566 6                  22891206.961
        38.500
    400946.01647  -7594835.79743  22653614.4064                   22653612.5394
        43.0004         22.7504
  -9408352.93447 -19138379.87545  20657832.2894                   20657830.2814
        47.0004         32.2504
   -121154.203 6                  23492872.773
        36.000
  -3061293.13347 -10575865.29745  21607765.5474                   21607762.2734
        44.0004         30.2504
  -5911389.26246  -6318863.35243  22437597.2584                   22437598.9064
        37.5004         19.7504
    -31744.50847 -10583635.27044  20979060.1724                   20979057.8404
        42.7504         26.2504
 19  3  6  0  6 45.0000000  0  7G11G13G17G18G19G01G28
    -31606.980 6                  22891271.023
        37.000
    403923.68847  -7592515.53544  22654180.5164                   22654179.2934
        43.7504         25.0004
  -9424456.08648 -19150927.78545  20654767.6564                   20654765.8204
        48.0004         33.0004
   -121506.832 5                  23492805.703
        34.750
  -3087783.39147 -10596507.03945  21602724.9384                   21602721.5164
        45.2504         30.7504
  -5920794.37546  -6326192.07843  22435807.1484                   22435809.2234
        39.5004         22.2504
    -35997.61347 -10586949.36344  20978250.4144                   20978248.1604
        44.2504         26.5004
 19  3  6  0  6 50.0000000  0  7G11G13G17G18G19G01G28
    -31251.844 6                  22891337.641
        38.250
    406902.12147  -7590194.69943  22654746.4614                   22654745.6484
        42.5004         22.0004
  -9440549.34847 -19163467.99245  20651704.8674                   20651703.2384
        47.7504         30.5004
   -121842.680 6                  23492739.914
        36.750
  -3114269.25847 -10617145.39844  21597684.4304                   21597681.4304
        44.5004         29.0004
  -5930178.19146  -6333504.16443  22434021.1174                   22434023.6764
        41.0004         23.7504
    -40243.46547 -10590257.85544  20977442.2344                   20977439.8634
        44.5004         25.0004
 19  3  6  0  6 55.0000000  0  7G11G13G17G18G19G01G28
    -30875.148 6                  22891409.531
        38.500
    409888.83247  -7587867.38343  22655315.1174                   22655313.9924
        42.0004         22.2504
  -9456625.67648 -19175994.99645  20648646.1174                   20648644.2854
        48.0004         32.0004
   -122156.773 6                  23492681.578
