     2.11           OBSERVATION DATA    G (GPS)             RINEX VERSION / TYPE
teqc  2019Feb25     Martin Truffer      20190308 01:05:55UTCPGM / RUN BY / DATE
Linux 2.6.32-573.12.1.x86_64|x86_64|gcc|Linux 64|=+         COMMENT
BIT 2 OF LLI FLAGS DATA COLLECTED UNDER A/S CONDITION       COMMENT
51890660                                                    MARKER NAME
5189                                                        MARKER NUMBER
-Unknown-           -Unknown-                               OBSERVER / AGENCY
0220315189          TRIMBLE 5700        2.30                REC # / TYPE / VERS
-Unknown-           TRM41249.00     NONE                    ANT # / TYPE
 -1794246.2707 -3484120.7656  5017913.8116                  APPROX POSITION XYZ
        0.0530        0.0000        0.0000                  ANTENNA: DELTA H/E/N
     1     1                                                WAVELENGTH FACT L1/2
     7    L1    L2    C1    P1    P2    S1    S2            # / TYPES OF OBSERV
    18                                                      LEAP SECONDS
 SNR is mapped to RINEX snr flag value [0-9]                COMMENT
  L1 & L2: min(max(int(snr_dBHz/6), 0), 9)                  COMMENT
  2019     3     7     0     0   25.0000000     GPS         TIME OF FIRST OBS
                                                            END OF HEADER
 19  3  7  0  0 25.0000000  0  3G01G17G13
    -50944.50057  -2338318.91055  22472007.2194                   22472006.9614
        46.7504         30.2504
   -431473.81658  -4646474.99655  20725948.3914                   20725945.1884
        48.2504         33.0004
    116223.75956    466881.75853  22628011.9614                   22628011.4264
        40.0004         18.2504
 19  3  7  0  0 30.0000000  0  3G01G17G13
    -59054.61347  -2344638.51644  22470463.8674                   22470464.3484
        46.0004         29.2504
   -446197.34848  -4657947.93045  20723146.6644                   20723143.9384
        48.7504         34.0004
    120649.17246    470330.16442  22628853.9064                   22628853.5204
        41.5004         17.2504
 19  3  7  0  0 35.0000000  0  3G01G17G13
    -67155.80947  -2350951.12145  22468921.6484                   22468923.0944
        46.0004         30.5004
   -460914.54348  -4669415.85945  20720345.9224                   20720343.7734
        48.5004         34.0004
    125080.03546    473782.72742  22629697.0634                   22629695.8484
        40.5004         17.2504
 19  3  7  0  0 40.0000000  0  3G01G17G13
    -75247.35947  -2357256.22745  22467382.2274                   22467384.5164
        46.0004         31.5004
   -475628.44148  -4680881.24245  20717546.0704                   20717544.5664
        48.7504         35.5004
    129509.72346    477234.48443  22630540.0784                   22630538.9774
        40.2504         18.2504
 19  3  7  0  0 45.0000000  0  3G01G17G13
    -83325.15647  -2363550.62144  22465844.8834                   22465847.6954
        46.2504         29.5004
   -490333.38748  -4692339.64845  20714747.6884                   20714747.4694
        49.0004         34.7504
    133944.91046    480690.43443  22631384.0084                   22631383.0864
        41.7504         18.5004
 19  3  7  0  0 50.0000000  0  3G01G17G13
    -91387.81247  -2369833.19145  22464308.8284                   22464314.2704
        44.7504         30.7504
   -505026.49247  -4703788.80545  20711951.0164                   20711951.7624
        47.0004         34.0004
    138389.71546    484153.92242  22632229.9384                   22632229.5664
        38.5004         17.7504
 19  3  7  0  0 55.0000000  0  3G01G17G13
    -99432.14847  -2376101.51644  22462779.8674                   22462782.7304
        45.2504         29.5004
   -519706.96148  -4715228.13745  20709157.9534                   20709156.9964
        48.5004         34.0004
    142844.10546    487624.91042  22633077.5394                   22633077.1414
        41.0004         17.2504
 19  3  7  0  1  0.0000000  0  3G01G17G13
   -107462.84047  -2382359.18445  22461251.8674                   22461253.3524
        46.2504         31.0004
   -534378.97347  -4726660.85945  20706366.4224                   20706364.8444
        47.7504         34.2504
    147302.87146    491099.20342  22633926.3134                   22633924.9384
        40.2504         17.2504
 19  3  7  0  1  5.0000000  0  3G01G17G13
   -115477.50447  -2388604.37145  22459726.2584                   22459728.2854
        46.2504         30.0004
   -549038.88748  -4738084.16445  20703576.4224                   20703575.6334
        48.5004         34.5004
    151771.68046    494581.45743  22634775.9694                   22634775.2194
        41.2504         18.5004
 19  3  7  0  1 10.0000000  0  3G01G17G13
   -123481.13747  -2394840.98044  22458203.4224                   22458205.5394
        45.7504         28.5004
   -563692.04348  -4749502.22345  20700787.6724                   20700786.4774
        48.5004         34.0004
    156244.40646    498066.68042  22635627.7114                   22635626.3594
        40.7504         17.7504
 19  3  7  0  1 15.0000000  0  3G01G17G13
   -131475.93747  -2401070.69945  22456682.0704                   22456684.0824
        46.0004         30.5004
   -578340.05148  -4760916.26646  20698000.7894                   20697999.2234
        49.0004         36.0004
    160719.76246    501553.93443  22636479.1334                   22636478.1174
        40.5004         18.2504
 19  3  7  0  1 20.0000000  0  3G01G17G13
                                  22455163.5004                   22455165.6484
        44.5004         30.5004
                                  20695215.9064                   20695213.8914
        48.0004         35.5004
                                  22637333.0864                   22637330.9734
        41.2504         19.7504
 19  3  7  0  1 25.0000000  0  3G01G17G13
   -147413.10557  -2413489.27054  22453648.8914                   22453651.3914
        45.2504         29.5004
   -607599.71948  -4783715.99645  20692432.4064                   20692431.4534
        48.7504         34.5004
    169696.22757    508548.59853  22638186.9614                   22638186.4304
        42.0004         19.2504
 19  3  7  0  1 30.0000000  0  3G01G17G13
   -155348.60247  -2419672.77345  22452139.2034                   22452142.2544
        46.5004         30.5004
   -622200.52748  -4795093.25845  20689654.3364                   20689653.5234
        48.7504         35.0004
    174210.92646    512066.52043  22639046.4304                   22639045.9344
        40.7504         20.0004
 19  3  7  0  1 35.0000000  0  3G01G17G13
   -163272.03547  -2425846.87144  22450631.1334                   22450634.3754
        45.2504         29.0004
   -636793.39148  -4806464.31245  20686877.2344                   20686875.8284
        48.0004         34.5004
                                  22639905.9454                   22639905.1684
        40.7504         19.2504
 19  3  7  0  1 40.0000000  0  3G01G17G13
   -171169.99257  -2431262.19955  22449126.9384                   22449129.0664
        45.7504         31.5004
   -651370.48458  -4816458.77056  20684102.2504                   20684101.0124
        48.2504         39.2504
    183260.05957    519117.96153  22640767.2504                   22640767.4774
        42.2504         18.5004
 19  3  7  0  1 45.0000000  0  3G01G17G13
   -179062.89247  -2437412.43345  22447625.1484                   22447628.2544
        45.7504         32.2504
   -665944.39358  -4827815.00956  20681329.1254                   20681327.6134
        49.5004         38.7504
    187790.78957    522648.32053  22641629.9304                   22641629.7194
        42.2504         19.2504
 19  3  7  0  1 50.0000000  0  3G01G17G13
   -186940.41447  -2443550.76245  22446125.2814                   22446128.1414
        46.2504         33.0004
   -680505.34858  -4839160.99656  20678557.6484                   20678557.6254
        48.5004         36.5004
    192330.84856    526186.03553  22642493.5084                   22642493.2624
        41.0004         19.2504
 19  3  7  0  1 55.0000000  0  3G01G17G13
   -194797.16047  -2449672.91444  22444630.5314                   22444632.4454
        44.7504         28.5004
   -695051.75047  -4850495.88745  20675789.6334                   20675787.6724
        47.7504         34.2504
    196882.98846    529733.12943  22643359.2114                   22643359.1134
        40.5004         18.5004
 19  3  7  0  2  0.0000000  0  2G17G13
                                  20673024.2974                   20673023.2114
        46.7504         33.5004
                                  22644228.8524                   22644226.9064
        41.0004         18.5004
 19  3  7  0  2 10.0000000  0  1G01
                                  22440159.5004                   22440164.4304
        44.5004         29.2504
 19  3  7  0  2 15.0000000  0  1G01
    -22786.47757  -2470069.02956  22438675.2114                   22438677.5204
        47.0004         36.0004
 19  3  7  0  2 20.0000000  0  3G01G17G13
    -30571.05447  -2476134.85755  22437193.2894                   22437197.5164
        45.7504         30.5004
    -17076.48458  -4879530.43056  20661975.6804                   20661974.2344
        48.7504         36.0004
      5138.24616                  22647709.578
        41.000
 19  3  7  0  2 25.0000000  0  1G17
                                  20659222.2814                   20659216.2774
        30.5004         32.0004
 19  3  7  0  2 30.0000000  0  1G01
                                  22434239.727
        41.750
 19  3  7  0  2 35.0000000  0  3G01G17G13
                                  22432763.984
        44.250
                                  20653708.4924                   20653702.9964
        47.7504         38.7504
                                  22650335.0944                   22650331.1764
        43.0004         31.5004
 19  3  7  0  2 45.0000000  0  1G17
                                  20648201.2584                   20648200.5634
        48.7504         32.7504
 19  3  7  0  2 50.0000000  0  3G01G17G13
    -16448.91457  -2504682.78155  22428348.6564                   22428347.9144
        46.0004         31.5004
    -50338.45758  -4930974.08956  20645450.8674                   20645444.5354
        48.5004         36.7504
      5349.59817                  22652960.273
        43.000
 19  3  7  0  2 55.0000000  0  3G01G17G13
    -24151.37547  -2510684.75445  22426883.6484                   22426884.2424
        45.0004         30.0004
    -64784.12948  -4942230.50446  20642701.9614                   20642698.9344
        48.2504         37.5004
      9964.551 7                  22653838.398
        42.250
 19  3  7  0  3  0.0000000  0  3G01G17G13
    -31842.99847  -2516678.18545  22425420.2664                   22425420.1334
        45.5004         30.2504
    -79223.42248  -4953481.89546  20639954.3834                   20639950.9574
        48.2504         36.7504
     14582.971 6                  22654717.961
        40.750
 19  3  7  0  3  5.0000000  0  3G01G17G13
                                  22423960.4064                   22423959.2624
        45.5004         32.2504
    -93644.06658  -4963820.31656  20637209.5554                   20637204.6764
        48.5004         39.0004
                                  22655599.0394                   22655595.0904
        43.0004         32.2504
 19  3  7  0  3 10.0000000  0  3G01G17G13
    -14097.51647  -2526229.60944  22422505.0634                   22422504.9344
        44.2504         28.0004
                                  20634468.8524                   20634465.4144
        48.0004         34.5004
     23853.83646    548346.23853  22656483.9774                   22656482.3634
        41.2504         22.0004
 19  3  7  0  3 15.0000000  0  3G01G17G13
    -21733.88357  -2532180.00855  22421050.6564                   22421051.1174
        45.0004         30.5004
   -122449.78148  -4986266.32846  20631728.1644                   20631724.8324
        48.2504         36.7504
     28504.59857    551970.23053  22657366.6414                   22657365.7074
        42.0004         21.5004
 19  3  7  0  3 20.0000000  0  3G01G17G13
    -29354.91047  -2538118.53944  22419600.3834                   22419601.0634
        44.5004         29.0004
   -136833.13317                  20628990.313
        47.500
     33164.30916                  22658253.922
        40.750
 19  3  7  0  3 25.0000000  0  3G01G17G13
     -3952.37957  -2541201.02555  22418153.2034                   22418151.4064
        45.2504         35.5004
   -150460.84418                  20626255.438
        48.750
     37828.13717                  22659142.883
        43.000
 19  3  7  0  3 30.0000000  0  3G01G17G13
    -11540.09847  -2547113.53145  22416710.4144                   22416710.4454
        47.0004         33.2504
   -164822.64548  -5013910.42155  20623522.9614                   20623520.3794
        48.2504         34.7504
     42503.988 6                  22660032.820
        40.500
 19  3  7  0  3 35.0000000  0  3G01G17G13
                                  22415270.1724                   22415267.1374
        43.2504         30.2504
                                  20620795.1414                   20620787.5314
        44.5004         34.2504
                                  22660925.148
        37.250
 19  3  7  0  3 40.0000000  0  3G01G17G13
    -26685.17257  -2558443.25955  22413827.2424                   22413825.7274
        46.2504         33.5004
    -12075.67658  -5030947.29356  20618059.8594                   20618056.3634
        48.5004         38.0004
     51862.19517                  22661813.344
        42.000
 19  3  7  0  3 45.0000000  0  3G01G17G13
    -34253.21557  -2564340.17255  22412387.4534                   22412385.8014
        45.0004         30.5004
    -26433.15648  -5042134.98845  20615328.7194                   20615323.3954
        48.7504         35.7504
     56532.809 7                  22662703.422
        42.500
 19  3  7  0  3 50.0000000  0  3G01G17G13
    -41813.28957  -2570231.12155  22410947.7504                   22410949.7504
        45.7504         32.2504
                                  20612610.336
        47.000
     61203.73857    560115.70353  22663590.2114                   22663587.1024
        42.5004         21.2504
 19  3  7  0  3 55.0000000  0  3G01G17G13
    -49352.46947  -2576105.83245  22409513.0634                   22409514.8714
        45.7504         30.2504
                                  20609922.328
        45.500
     65888.91446    563766.52043  22664482.2894                   22664480.5434
        41.5004         22.5004
 19  3  7  0  4  0.0000000  0  3G01G17G13
    -56878.48047  -2581970.25444  22408081.1254                   22408083.0864
        45.2504         29.5004
                                  20607238.805
        45.000
     70580.15647    567422.02343  22665375.6564                   22665373.3754
        42.2504         23.5004
 19  3  7  0  4  5.0000000  0  3G01G17G13
    -64392.82047  -2587825.56244  22406650.6414                   22406652.9734
        44.5004         29.0004
                                  20604559.477
        44.000
     75281.70347    571085.55943  22666269.9224                   22666268.0204
        43.0004         23.0004
 19  3  7  0  4 10.0000000  0  3G01G17G13
    -71885.98847  -2593664.41445  22405225.3054                   22405227.0784
        44.5004         30.2504
                                  20601880.523
        41.750
     79997.94147    574760.53543  22667167.1724                   22667165.8364
        42.7504         23.0004
 19  3  7  0  4 15.0000000  0  2G01G13
    -79357.93447  -2599486.71144  22403803.4844                   22403804.8204
        44.7504         29.5004
     84727.16447    578445.63343  22668067.7734                   22668065.6604
        42.7504         22.5004
 19  3  7  0  4 20.0000000  0  2G01G13
    -86805.86347  -2605290.28545  22402385.9064                   22402387.4264
        46.0004         31.5004
     89467.22346    582139.16843  22668969.1094                   22668967.7544
        40.0004         22.5004
 19  3  7  0  4 25.0000000  0  3G01G17G13
    -94231.51647  -2611076.49645  22400973.3524                   22400974.5084
        46.0004         33.5004
   -139390.93458  -5059920.57455  20593551.8444                   20593549.6914
        48.0004         35.2504
     94220.85946    585843.28143  22669873.8364                   22669872.6254
        40.2504         21.2504
 19  3  7  0  4 30.0000000  0  3G01G17G13
   -101637.27747  -2616847.20745  22399563.3444                   22399564.7114
        45.0004         31.0004
   -153625.55948  -5071012.49245  20590843.1024                   20590841.5514
        48.5004         35.0004
     98982.69546    589553.89143  22670779.7664                   22670778.3204
        41.2504         19.7504
 19  3  7  0  4 35.0000000  0  3G01G17G13
   -109037.59847  -2622613.70745  22398155.7034                   22398156.5594
        45.5004         30.0004
   -167856.83648  -5082101.79545  20588135.2584                   20588133.4384
        49.5004         35.5004
    103743.87047    593263.82343  22671686.3594                   22671684.8484
        42.2504         20.5004
 19  3  7  0  4 40.0000000  0  3G01G17G13
   -116436.44547  -2628379.06244  22396746.8834                   22396750.5124
        43.5004         29.2504
   -182091.19948  -5093193.53146  20585425.7114                   20585426.0904
        49.7504         38.0004
    108499.65646    596969.62543  22672589.7974                   22672590.1374
        41.7504         23.0004
 19  3  7  0  4 45.0000000  0  3G01G17G13
   -123834.77747  -2634143.92644  22395339.2974                   22395342.4384
        43.5004         25.0004
   -196323.41048  -5104283.51246  20582717.9534                   20582717.2304
        50.0004         36.5004
    113256.70747    600676.48043  22673495.6414                   22673495.5474
        42.2504         22.5004
 19  3  7  0  4 50.0000000  0  3G01G17G13
   -131225.87147  -2639903.21544  22393933.6414                   22393935.7034
        43.5004         27.0004
   -210542.58248  -5115363.38346  20580012.5784                   20580010.8054
        50.0004         36.2504
    118029.39146    604395.44543  22674405.2814                   22674403.9734
        41.7504         22.7504
 19  3  7  0  4 55.0000000  0  3G01G17G13
   -138602.05947  -2645650.87544  22392529.8364                   22392529.6954
        43.7504         27.0004
   -224746.71148  -5126431.50446  20577309.9614                   20577305.7894
        50.2504         36.7504
    122817.60947    608126.53143  22675316.2894                   22675313.5744
        42.5004         22.5004
 19  3  7  0  5  0.0000000  0  3G01G17G13
   -145969.51646  -2651391.75843  22391128.5474                   22391128.2034
        41.2504         22.7504
   -238941.89548  -5137492.68746  20574608.6954                   20574605.5204
        50.5004         37.0004
    127615.75847    611865.34044  22676229.4454                   22676225.8984
        44.5004         26.5004
 19  3  7  0  5  5.0000000  0  3G01G17G13
   -153324.25847  -2657122.74243  22389728.2584                   22389728.7974
        42.0004         23.0004
   -253127.03548  -5148546.02346  20571909.5004                   20571906.1214
        50.5004         36.5004
    132422.52747    615610.89544  22677143.1884                   22677140.6334
        43.2504         25.2504
 19  3  7  0  5 10.0000000  0  3G01G17G13
   -160667.93746  -2662845.07044  22388330.9144                   22388332.0514
        41.5004         27.0004
   -267304.17248  -5159593.14146  20569211.4384                   20569210.1994
        50.0004         36.0004
    137234.62147    619360.60243  22678059.6564                   22678056.9144
        44.0004         22.5004
 19  3  7  0  5 15.0000000  0  3G01G17G13
   -168004.76647  -2668562.08643  22386934.7894                   22386937.0824
        42.0004         22.5004
   -281475.11448  -5170635.43845  20566514.5784                   20566515.0274
        49.7504         35.5004
    142052.96147    623115.14543  22678976.0234                   22678974.9184
        43.0004         23.2504
 19  3  7  0  5 20.0000000  0  3G01G17G13
   -175326.64546  -2674267.46543  22385541.3524                   22385544.5744
        40.2504         22.5004
   -295638.91848  -5181672.17645  20563819.3134                   20563820.5124
        49.7504         35.0004
    146872.54747    626870.64843  22679893.5084                   22679892.9184
        44.5004         22.5004
 19  3  7  0  5 25.0000000  0  3G01G17G13
   1392780.42247  -1452365.84444  22683941.8524                   22683945.6994
        43.5004         24.5004
   1265623.52048  -3965104.04746  20860917.2664                   20860918.4694
        50.0004         36.0004
   1727112.55947   1858226.49243  22980602.9924                   22980602.6254
        43.5004         22.7504
 19  3  7  0  5 30.0000000  0  3G01G17G13
   1385472.47747  -1458060.38344  22682551.0004                   22682555.6764
        44.2504         26.0004
   1251470.60948  -3976132.31645  20858224.3674                   20858225.2544
        50.0004         35.2504
   1731941.24647   1861989.09043  22981521.5784                   22981521.9534
        43.5004         22.7504
 19  3  7  0  5 35.0000000  0  3G01G17G13
   1378181.41447  -1463741.69544  22681164.0234                   22681167.8284
        44.2504         26.0004
   1237333.52348  -3987148.19545  20855533.9304                   20855534.9774
        50.0004         35.2504
   1736784.30947   1865762.91843  22982443.6024                   22982443.7504
        43.5004         22.7504
 19  3  7  0  5 40.0000000  0  3G01G17G13
   1370911.38756  -1469406.66853  22679783.0004                   22679785.5704
        41.5004         23.0004
   1223201.94557  -3998159.81255  20852849.4144                   20852847.5984
        47.7504         33.7504
   1741622.10956   1869532.64153  22983365.6724                   22983364.4304
        41.5004         22.5004
 19  3  7  0  5 45.0000000  0  3G01G17G13
   1363652.57047  -1475062.84844  22678399.2734                   22678405.3554
        43.5004         24.7504
   1209076.20348  -4009166.88345  20850156.5234                   20850159.6024
        50.0004         35.5004
   1746461.59047   1873303.66443  22984285.2504                   22984286.3594
        44.0004         22.5004
 19  3  7  0  5 50.0000000  0  3G01G17G13
   1356398.05547  -1480715.78544  22677018.2274                   22677025.3954
        42.2504         24.0004
   1194952.57448  -4020172.35545  20847468.7894                   20847473.5864
        49.5004         34.0004
   1751299.86747   1877073.69143  22985205.4224                   22985207.9304
        44.7504         23.0004
 19  3  7  0  5 55.0000000  0  3G01G17G13
   1349155.09447  -1486359.61343  22675640.5084                   22675647.1954
        42.7504         22.7504
   1180828.94548  -4031177.76645  20844781.6484                   20844784.9304
        50.0004         35.0004
   1756131.11747   1880838.30944  22986124.8594                   22986127.2114
        43.5004         24.0004
 19  3  7  0  6  0.0000000  0  3G01G17G13
   1341925.81547  -1491992.83543  22674264.5164                   22674270.7344
        43.0004         23.7504
   1166714.11748  -4042176.33246  20842095.0004                   20842096.5434
        49.5004         36.0004
   1760966.98047   1884606.50844  22987044.1414                   22987046.6724
        43.0004         26.2504
 19  3  7  0  6  5.0000000  0  3G01G17G13
   1334698.13347  -1497624.77044  22672889.8284                   22672894.7234
        43.0004         24.7504
   1152604.05148  -4053171.16046  20839410.8834                   20839411.2074
        51.2504         36.5004
   1765808.81347   1888379.37943  22987966.6564                   22987967.9144
        44.5004         23.7504
 19  3  7  0  6 10.0000000  0  3G01G17G13
   1327490.79746  -1503240.84843  22671517.8204                   22671523.6174
        39.0004         22.5004
   1138496.90247  -4064163.73845  20836726.1644                   20836730.4614
        46.5004         35.0004
   1770641.84846   1892145.39843  22988886.5634                   22988888.7154
        39.5004         23.2504
 19  3  7  0  6 15.0000000  0  3G01G17G13
   1320275.83247  -1508862.92243  22670144.4694                   22670151.7274
        43.0004         22.7504
   1124391.13348  -4075155.25045  20834041.4304                   20834046.1764
        49.7504         34.5004
   1775482.12147   1895917.02743  22989807.0554                   22989810.8954
        43.5004         22.7504
 19  3  7  0  6 20.0000000  0  3G01G17G13
   1313066.28546  -1514480.74643  22668772.8984                   22668779.5784
        41.2504         23.5004
   1110280.36848  -4086150.64845  20831355.9694                   20831359.2384
        48.0004         34.7504
   1780310.51347   1899679.35644  22990726.0944                   22990729.1454
        42.5004         24.5004
 19  3  7  0  6 25.0000000  0  3G01G17G13
   1305867.12556  -1520090.23053  22667402.2974                   22667408.8284
        41.7504         21.7504
   1096177.39858  -4097139.94155  20828672.3914                   20828673.0704
        49.2504         35.5004
   1785144.65657   1903446.03554  22991645.7194                   22991648.6914
        45.0004         25.5004
 19  3  7  0  6 30.0000000  0  3G01G17G13
   1298690.03047  -1525682.74943  22666036.9534                   22666042.0084
        43.0004         22.7504
   1082086.25448  -4108120.03546  20825991.1954                   20825992.7504
        49.5004         36.7504
   1789983.23447   1907216.35545  22992567.2424                   22992569.3014
        45.0004         30.5004
 19  3  7  0  6 35.0000000  0  3G01G17G13
   1291533.32047  -1531259.39143  22664674.3284                   22664679.3204
        42.0004         23.7504
   1068005.45348  -4119092.07845  20823311.6414                   20823312.2504
        49.0004         35.0004
   1794827.21946   1910990.86743  22993488.4924                   22993489.9884
        41.0004         22.7504
 19  3  7  0  6 40.0000000  0  3G01G17G13
   1284389.89347  -1536825.69544  22663315.8914                   22663319.3054
        45.0004         27.7504
   1053929.19548  -4130060.58645  20820635.0004                   20820633.5554
        49.7504         35.5004
   1799670.37546   1914764.76243  22994410.7194                   22994411.1484
        41.2504         22.5004
 19  3  7  0  6 45.0000000  0  3G01G17G13
   1277278.37147  -1542367.14544  22661962.3134                   22661965.5044
        44.2504         26.7504
   1039872.21948  -4141014.05945  20817957.9144                   20817957.7384
        49.0004         34.0004
   1804520.25846   1918543.94543  22995333.2034                   22995334.1914
        41.7504         20.7504
 19  3  7  0  6 50.0000000  0  3G01G17G13
   1270197.50447  -1547884.69944  22660615.2114                   22660617.6334
        44.2504         26.7504
   1025839.50048  -4151948.65245  20815287.8364                   20815286.6884
        49.0004         34.5004
   1809385.31347   1922334.86743  22996258.8914                   22996259.3204
        42.0004         19.7504
 19  3  7  0  6 55.0000000  0  3G01G17G13
   1263142.18847  -1553382.34444  22659272.1804                   22659274.6214
        44.5004         27.0004
   1011827.82448  -4162866.84045  20812621.5394                   20812620.5984
        48.7504         34.5004
   1814267.31347   1926139.03143  22997188.7584                   22997187.7624
        42.0004         19.7504
 19  3  7  0  7  0.0000000  0  3G01G17G13
   1256114.46947  -1558858.49244  22657934.9454                   22657937.4184
        44.5004         28.5004
    997839.26648  -4173767.01245  20809959.4924                   20809958.7894
        49.0004         34.5004
   1819168.39847   1929958.05543  22998120.6804                   22998120.2234
        42.2504         20.0004
 19  3  7  0  7  5.0000000  0  3G01G17G13
   1249113.22347  -1564314.00044  22656602.7274                   22656604.8874
        44.2504         26.7504
    983872.68048  -4184650.06645  20807301.6414                   20807300.8754
        49.0004         34.7504
   1824087.35247   1933790.98443  22999056.9774                   22999056.1844
        42.0004         19.7504
 19  3  7  0  7 10.0000000  0  3G01G17G13
   1242136.54347  -1569750.37944  22655275.1414                   22655277.4064
        44.2504         28.5004
    969926.18048  -4195517.47345  20804647.9384                   20804646.7194
        49.0004         34.2504
   1829022.24646   1937636.38743  22999995.9774                   22999994.6954
        41.7504         19.0004
 19  3  7  0  7 15.0000000  0  3G01G17G13
   1235182.43847  -1575169.16444  22653951.3754                   22653954.2664
        44.2504         27.7504
    955997.86748  -4206370.69545  20801997.3364                   20801996.1374
        49.0004         34.2504
   1833971.16447   1941492.66443  23000937.3204                   23000936.3984
        42.5004         18.2504
 19  3  7  0  7 20.0000000  0  3G01G17G13
   1228249.82047  -1580571.19944  22652632.6564                   22652635.0984
        44.0004         27.7504
    942086.48448  -4217210.73045  20799350.1024                   20799349.1804
        48.7504         34.5004
   1838932.92647   1945358.96543  23001881.4924                   23001880.7074
        42.0004         18.2504
 19  3  7  0  7 25.0000000  0  3G01G17G13
   1221337.50447  -1585957.42244  22651317.4844                   22651319.4574
        44.2504         27.2504
    928190.94948  -4228038.42245  20796705.9614                   20796704.9184
        48.7504         34.2504
   1843906.39147   1949234.39143  23002827.8594                   23002827.0944
        42.0004         19.0004
 19  3  7  0  7 30.0000000  0  3G01G17G13
   1214444.32447  -1591328.72744  22650005.7034                   22650007.8794
        42.2504         26.7504
    914310.17248  -4238854.61745  20794064.5234                   20794063.3524
        48.7504         34.5004
   1848890.39846   1953118.03543  23003776.7814                   23003775.6254
        41.7504         19.2504
 19  3  7  0  7 35.0000000  0  3G01G17G13
   1207569.99246  -1596685.34843  22648695.9924                   22648700.6844
        37.0004         21.5004
    900443.63348  -4249659.76646  20791425.0944                   20791425.1024
        49.2504         36.7504
   1853884.49646   1957009.48043  23004725.8444                   23004726.0864
        40.7504         21.5004
 19  3  7  0  7 40.0000000  0  3G01G17G13
   1200714.21946  -1602027.62943  22647392.4534                   22647396.5084
        40.7504         21.7504
    886591.17648  -4260453.86745  20788789.2274                   20788789.0164
        48.2504         35.2504
   1858888.61746   1960908.81343  23005678.0784                   23005678.6454
        41.2504         20.2504
 19  3  7  0  7 45.0000000  0  3G01G17G13
   1193874.72747  -1607357.11343  22646090.3524                   22646094.8634
        42.2504         19.7504
    872750.52048  -4271238.76245  20786155.5864                   20786154.3324
        48.0004         34.2504
   1863900.35246   1964814.08243  23006632.1804                   23006631.6564
        41.5004         19.7504
 19  3  7  0  7 50.0000000  0  3G01G17G13
   1187052.69146  -1612672.93443  22644792.7584                   22644796.4614
        39.7504         18.5004
    858922.74647  -4282013.64545  20783524.4224                   20783524.1914
        47.2504         33.2504
   1868920.80947   1968726.15643  23007587.6564                   23007587.5044
        43.0004         19.5004
 19  3  7  0  7 55.0000000  0  3G01G17G13
   1180247.97346  -1617975.25043  22643497.2894                   22643501.2704
        41.0004         19.2504
    845107.84048  -4292778.51245  20780895.4694                   20780894.4804
        49.5004         35.5004
   1873950.07046   1972645.01643  23008544.6254                   23008543.9024
        40.5004         20.5004
 19  3  7  0  8  0.0000000  0  3G01G17G13
   1173460.96546  -1623263.90643  22642206.3674                   22642209.7934
        39.7504         20.5004
    831306.21948  -4303533.03946  20778269.4774                   20778269.2384
        49.0004         37.0004
   1878988.25046   1976570.92643  23009503.9534                   23009503.2814
        41.0004         20.5004
 19  3  7  0  8  5.0000000  0  3G01G17G13
                                  22640917.406
        36.500
    817517.51647  -4314277.46145  20775644.7344                   20775644.6174
        46.0004         30.7504
   1884035.15246   1980503.52343  23010463.5634                   23010463.8204
        40.0004         20.5004
 19  3  7  0  8 10.0000000  0  3G01G17G13
   1159937.336 6                  22639633.008
        40.000
    803739.93048  -4325013.26645  20773023.6804                   20773022.8594
        48.0004         33.0004
   1889088.80546   1984441.49243  23011425.9614                   23011424.7704
        41.5004         21.0004
 19  3  7  0  8 15.0000000  0  3G01G17G13
   1153198.152 6                  22638350.422
        38.750
    789972.74648  -4335740.93045  20770403.4534                   20770402.2774
        48.5004         35.0004
   1894148.67247   1988384.15643  23012388.5474                   23012387.8674
        43.0004         19.5004
 19  3  7  0  8 20.0000000  0  3G01G17G13
   1146474.047 7                  22637071.109
        42.500
    776216.08648  -4346460.39545  20767785.7504                   20767784.6994
        49.5004         35.2504
   1899214.79346   1992331.82843  23013352.1724                   23013352.0944
        41.0004         19.2504
 19  3  7  0  8 25.0000000  0  3G01G17G13
   1139766.438 7                  22635794.648
        43.750
    762471.59048  -4357170.41045  20765170.4924                   20765169.2894
        49.0004         35.5004
   1904288.73046   1996285.43843  23014317.7584                   23014317.5784
        40.7504         19.2504
 19  3  7  0  8 30.0000000  0  3G01G17G13
   1133073.33247  -1635009.74255  22634521.0474                   22634519.8914
        44.0004         30.0004
    748737.20348  -4367872.52345  20762557.0084                   20762555.6134
        49.0004         34.5004
   1909368.40646   2000243.71143  23015284.9694                   23015284.5314
        40.0004         18.5004
 19  3  7  0  8 35.0000000  0  3G01G17G13
   1126394.87547  -1640213.73444  22633250.5784                   22633251.9534
        44.2504         28.0004
    735012.95748  -4378566.74245  20759944.9454                   20759943.9184
        48.7504         34.0004
   1914453.96946   2004206.42642  23016252.2664                   23016252.0664
        39.5004         17.7504
 19  3  7  0  8 40.0000000  0  3G01G17G13
   1119731.46547  -1645406.00444  22631982.2664                   22631984.1844
        43.2504         28.0004
    721299.18448  -4389252.79745  20757335.2584                   20757334.2344
        48.2504         34.0004
   1919545.65646   2008174.03142  23017221.1254                   23017221.2194
        40.2504         17.2504
 19  3  7  0  8 45.0000000  0  3G01G17G13
   1113084.53947  -1650585.41844  22630717.1954                   22630719.8794
        44.5004         29.2504
    707597.63348  -4399929.33245  20754727.9614                   20754727.2344
        48.0004         34.0004
   1924645.23846   2012147.67242  23018191.8204                   23018191.3524
        40.7504         17.7504
 19  3  7  0  8 50.0000000  0  3G01G17G13
   1106452.93447  -1655752.90244  22629455.3134                   22629457.8874
        44.7504         27.7504
    693906.87548  -4410597.43745  20752123.2114                   20752121.8164
        48.0004         33.7504
   1929751.25846   2016126.41443  23019163.4384                   23019163.0984
        41.0004         18.2504
 19  3  7  0  8 55.0000000  0  3G01G17G13
   1099835.07447  -1660909.69544  22628196.0004                   22628198.3954
        45.0004         28.5004
    680225.43048  -4421258.32045  20749519.5004                   20749518.2154
        48.5004         34.5004
   1934862.19546   2020108.94943  23020136.5004                   23020135.6094
        41.2504         18.2504
 19  3  7  0  9  0.0000000  0  3G01G17G13
   1093232.30547  -1666054.73044  22626939.3134                   22626942.1804
        45.5004         28.5004
    666554.62148  -4431910.89845  20746918.1644                   20746917.2074
        48.2504         33.7504
   1939979.39846   2024096.36742  23021109.0704                   23021109.3794
        41.2504         17.7504
 19  3  7  0  9  5.0000000  0  3G01G17G13
   1086645.06647  -1671187.63744  22625685.8284                   22625688.4654
        45.2504         28.2504
    652894.89548  -4442554.83645  20744318.8834                   20744317.8014
        48.7504         34.0004
   1945103.32847   2028089.07042  23022085.1334                   23022084.5594
        42.0004         17.7504
 19  3  7  0  9 10.0000000  0  3G01G17G13
   1080073.98447  -1676307.96144  22624435.1024                   22624438.1804
        45.2504         28.5004
    639246.85248  -4453189.67645  20741721.4534                   20741720.3554
        48.5004         35.0004
   1950234.52046   2032087.33242  23023061.0864                   23023061.0434
        41.5004         16.7504
 19  3  7  0  9 15.0000000  0  3G01G17G13
   1073519.30547  -1681415.49244  22623187.9614                   22623190.6804
        44.7504         27.5004
    625610.81348  -4463815.14145  20739126.6334                   20739125.0044
        48.7504         34.7504
   1955373.23846   2036091.55942  23024039.1724                   23024039.2704
        40.7504         17.2504
 19  3  7  0  9 20.0000000  0  3G01G17G13
   1066981.59447  -1686509.79344  22621943.6174                   22621946.2384
        42.5004         26.2504
    611987.35548  -4474430.84045  20736534.2734                   20736532.4144
        49.2504         34.5004
   1960520.08246   2040102.10542  23025017.8204                   23025018.4414
        40.0004         16.7504
 19  3  7  0  9 25.0000000  0  3G01G17G13
   1060459.71147  -1691591.78144  22620702.8674                   22620705.3444
        42.0004         27.5004
    598375.30948  -4485037.62945  20733943.8594                   20733942.2074
        48.7504         35.0004
   1965673.87946   2044118.00842  23025999.2664                   23025998.9494
        40.0004         16.2504
 19  3  7  0  9 30.0000000  0  3G01G17G13
   1053954.34047  -1696660.89844  22619464.9534                   22619467.0594
        44.0004         28.5004
    584775.32848  -4495635.00045  20731355.6094                   20731354.6174
        48.5004         35.0004
   1970835.28946   2048139.91042  23026982.0004                   23026981.7154
        40.5004         16.2504
 19  3  7  0  9 35.0000000  0  3G01G17G13
   1047465.53147  -1701717.12944  22618230.3444                   22618232.3094
        44.0004         28.7504
    571187.47348  -4506222.93745  20728770.4304                   20728768.6684
        48.5004         35.2504
   1976004.34446   2052167.70342  23027965.2894                   23027965.3954
        39.5004         16.7504
 19  3  7  0  9 40.0000000  0  3G01G17G13
   1040993.18447  -1706760.52044  22616998.5864                   22617000.8134
        43.7504         28.5004
    557611.64148  -4516801.50445  20726187.1094                   20726185.4304
        49.0004         35.0004
   1981180.94146   2056201.48042  23028951.1094                   23028950.2464
        41.0004         16.7504
 19  3  7  0  9 45.0000000  0  3G01G17G13
   1034537.14847  -1711791.18744  22615770.0704                   22615772.1414
        43.7504         28.5004
    544047.94548  -4527370.61745  20723605.7664                   20723604.5204
        48.7504         35.5004
   1986364.91846   2060240.92642  23029935.9614                   23029936.2114
        39.7504         16.2504
 19  3  7  0  9 50.0000000  0  3G01G17G13
   1028097.43047  -1716809.15244  22614544.5864                   22614546.6254
        44.0004         28.2504
    530496.14548  -4537930.46545  20721026.8444                   20721025.6764
        48.5004         34.5004
   1991556.29346   2064286.12942  23030924.4694                   23030923.9614
        40.0004         16.7504
 19  3  7  0  9 55.0000000  0  3G01G17G13
   1021674.73447  -1721813.86345  22613322.4144                   22613324.7234
        43.7504         30.0004
    516956.87948  -4548480.54746  20718450.4224                   20718449.4064
        48.7504         36.2504
   1996755.77046   2068337.65643  23031913.9614                   23031913.7894
        41.7504         18.2504
 19  3  7  0 10  0.0000000  0  3G01G17G13
   1015269.07047  -1726805.28945  22612102.9774                   22612105.8984
        43.5004         30.2504
    503430.35548  -4559020.69946  20715876.3524                   20715875.2934
        49.2504         36.5004
   2001963.29747   2072395.44543  23032905.3444                   23032904.7274
        42.5004         18.2504
 19  3  7  0 10  5.0000000  0  3G01G17G13
   1008877.18047  -1731785.98044  22610887.1254                   22610889.2704
        43.5004         29.7504
    489913.19148  -4569553.56246  20713304.3364                   20713303.0984
        48.7504         36.5004
   2007175.68047   2076457.02343  23033897.1174                   23033896.3554
        42.0004         18.2504
 19  3  7  0 10 10.0000000  0  3G01G17G13
   1002500.43847  -1736754.82444  22609673.7504                   22609675.9304
        43.2504         29.5004
    476406.71148  -4580078.07846  20710734.2974                   20710732.8554
        48.7504         37.0004
   2012394.23046   2080523.40243  23034889.9774                   23034889.5514
        41.0004         18.2504
 19  3  7  0 10 15.0000000  0  3G01G17G13
    996140.17647  -1741710.90244  22608463.3204                   22608465.7384
        43.0004         28.5004
    462912.24648  -4590593.24245  20708166.1024                   20708165.3914
        48.7504         35.5004
   2017620.19547   2084595.59042  23035884.2114                   23035883.7854
        42.0004         17.7504
 19  3  7  0 10 20.0000000  0  3G01G17G13
    989796.99247  -1746653.62944  22607256.2274                   22607259.0164
        43.0004         27.0004
    449430.52348  -4601098.48446  20705600.6804                   20705599.5274
        49.0004         36.2504
   2022854.25046   2088674.12143  23036880.7114                   23036879.8484
        41.7504         18.2504
 19  3  7  0 10 25.0000000  0  3G01G17G13
    983469.32047  -1751584.28144  22606051.9454                   22606054.5314
        44.2504         26.5004
    435959.94548  -4611595.04345  20703037.3444                   20703036.3874
        48.5004         35.7504
   2028094.90647   2092757.72342  23037877.6564                   23037876.8634
        42.0004         17.7504
 19  3  7  0 10 30.0000000  0  3G01G17G13
    977155.25847  -1756504.35944  22604851.0784                   22604852.7424
        42.7504         25.2504
    422498.51248  -4622084.46945  20700475.6094                   20700474.9494
        48.7504         35.7504
   2033340.04746   2096844.84043  23038875.8674                   23038875.2424
        41.2504         18.2504
 19  3  7  0 10 35.0000000  0  3G01G17G13
    970857.05147  -1761412.02344  22603652.2894                   22603654.4964
        43.7504         25.0004
    409048.55148  -4632564.94945  20697916.2814                   20697915.1684
        49.2504         34.2504
   2038592.03947   2100937.32843  23039875.5554                   23039874.9654
        42.2504         18.5004
 19  3  7  0 10 40.0000000  0  3G01G17G13
    964575.47347  -1766306.75443  22602456.8444                   22602459.5864
        43.2504         23.0004
    395610.84048  -4643035.89845  20695359.0474                   20695358.2584
        48.5004         33.7504
   2043851.63746   2105035.71542  23040875.5394                   23040875.3714
        41.5004         17.7504
 19  3  7  0 10 45.0000000  0  3G01G17G13
    958308.56347  -1771190.09044  22601263.9924                   22601266.5354
        43.0004         26.5004
    382183.43048  -4653498.82046  20692803.6954                   20692803.0944
        48.7504         36.5004
   2049116.88746   2109138.44943  23041878.6174                   23041877.3914
        41.2504         18.5004
 19  3  7  0 10 50.0000000  0  3G01G17G13
    952057.26647  -1776061.22743  22600075.5944                   22600077.6024
        42.5004         23.7504
    368767.26647  -4663952.95345  20690251.1414                   20690249.5554
        47.5004         31.0004
   2054388.71146   2113246.45742  23042882.1254                   23042880.9064
        41.5004         17.7504
 19  3  7  0 10 55.0000000  0  3G01G17G13
    945821.80946  -1780920.03943  22598888.6254                   22598890.7664
        38.0004         21.7504
    355362.38748  -4674398.30545  20687699.6484                   20687698.1604
        48.2504         32.0004
   2059667.11747   2117359.39542  23043885.6414                   23043885.1644
        42.0004         17.7504
 19  3  7  0 11  0.0000000  0  3G01G17G13
    939602.56345  -1785766.09443  22597704.5784                   22597707.1214
        35.2504         21.0004
    341969.64148  -4684834.23445  20685151.8914                   20685149.9884
        49.7504         35.5004
   2064952.78146   2121478.12142  23044891.9384                   23044890.7934
        41.5004         17.2504
 19  3  7  0 11  5.0000000  0  3G01G17G13
    933401.85946  -1790597.86743  22596524.4304                   22596527.3754
        41.2504         20.0004
    328591.01248  -4695259.12545  20682605.7814                   20682603.9734
        48.7504         34.5004
   2070247.86747   2125604.17643  23045899.6334                   23045898.8094
        43.5004         19.2504
 19  3  7  0 11 10.0000000  0  3G01G17G13
    927220.063 5                  22595348.383
        34.000
    315226.77748  -4705672.82446  20680062.7114                   20680060.9384
        49.2504         36.0004
   2075552.56347   2129737.71543  23046909.0394                   23046908.0474
        42.2504         19.2504
 19  3  7  0 11 15.0000000  0  3G01G17G13
    921056.695 7                  22594175.477
        43.750
    301876.99647  -4716075.21945  20677522.0314                   20677521.0124
        47.7504         33.5004
   2080866.94546   2133878.75843  23047919.9384                   23047919.2304
        41.2504         18.2504
 19  3  7  0 11 20.0000000  0  3G01G17G13
    914911.992 6                  22593006.695
        40.750
    288541.10247  -4726466.83645  20674984.4454                   20674983.2704
        47.0004         32.2504
   2086190.53946   2138027.04343  23048933.7814                   23048932.1844
        41.2504         19.0004
 19  3  7  0 11 25.0000000  0  3G01G17G13
    908785.15646  -1800186.65653  22591839.5944                   22591840.5704
        41.5004         22.0004
    275218.86748  -4736847.81245  20672449.2424                   20672447.8204
        48.5004         32.2504
   2091522.87947   2142182.09443  23049947.8204                   23049947.0784
        42.0004         19.2504
 19  3  7  0 11 30.0000000  0  3G01G17G13
    902675.98047  -1804947.09843  22590678.3834                   22590678.7734
        42.5004         23.7504
    261909.96948  -4747218.39545  20669917.0164                   20669915.0514
        50.2504         35.5004
   2096863.78147   2146343.78543  23050964.9224                   23050963.5434
        43.2504         18.5004
 19  3  7  0 11 35.0000000  0  3G01G17G13
    896584.44946  -1809693.71943  22589519.1954                   22589520.1174
        38.7504         21.2504
    248614.44148  -4757578.52345  20667386.7894                   20667385.5634
        49.5004         35.0004
   2102213.16847   2150512.18043  23051982.6024                   23051981.5004
        43.0004         20.2504
 19  3  7  0 11 40.0000000  0  3G01G17G13
    890510.37547  -1814426.77343  22588362.5864                   22588363.9774
        43.5004         22.0004
    235332.06648  -4767928.44545  20664858.5864                   20664857.2464
        49.2504         33.0004
   2107571.00046   2154687.03943  23053001.7274                   23053001.1884
        41.5004         19.2504
 19  3  7  0 11 45.0000000  0  3G01G17G13
    884453.10546  -1819146.66843  22587210.0164                   22587211.6804
        37.7504         21.5004
    222061.98848  -4778268.73845  20662334.0084                   20662332.6214
        48.5004         32.2504
   2112936.14546   2158867.74242  23054022.6564                   23054021.8444
        41.2504         17.7504
 19  3  7  0 11 50.0000000  0  3G01G17G13
    878412.86746  -1823853.41843  22586060.7894                   22586062.3954
        40.7504         19.2504
    208804.82448  -4788599.00045  20659811.0784                   20659809.1294
        49.2504         33.0004
   2118309.30946   2163054.58642  23055045.8284                   23055044.7034
        41.2504         17.2504
 19  3  7  0 11 55.0000000  0  3G01G17G13
    872389.55947  -1828546.89844  22584914.2814                   22584916.0274
        44.7504         29.5004
    195560.26248  -4798919.45345  20657290.9454                   20657288.8484
        49.0004         33.7504
   2123690.30546   2167247.55142  23056068.3674                   23056068.2234
        41.2504         15.5004
 19  3  7  0 12  0.0000000  0  3G01G17G13
    866383.41447  -1833226.98845  22583771.3524                   22583772.8674
        45.0004         31.0004
    182328.45348  -4809229.94545  20654772.9144                   20654771.1844
        49.2504         34.0004
   2129079.12546   2171446.63742  23057094.7894                   23057093.7704
        41.0004         16.2504
 19  3  7  0 12  5.0000000  0  3G01G17G13
    860394.30547  -1837893.83245  22582632.0944                   22582633.4304
        45.2504         31.0004
    169109.34848  -4819530.54745  20652257.2584                   20652255.3484
        49.5004         34.0004
   2134475.73846   2175651.77743  23058121.9064                   23058120.5944
        41.5004         18.2504
 19  3  7  0 12 10.0000000  0  3G01G17G13
    854422.22747  -1842547.39545  22581495.4304                   22581496.9304
        45.2504         30.7504
    155903.00848  -4829821.20745  20649744.0944                   20649742.2114
        49.5004         34.0004
   2139880.18446   2179863.02742  23059149.7034                   23059149.0434
        41.5004         17.7504
 19  3  7  0 12 15.0000000  0  3G01G17G13
    848467.46547  -1847187.47745  22580362.5554                   22580364.1484
        45.0004         30.0004
    142709.70348  -4840101.69545  20647233.6334                   20647231.9184
        49.5004         34.2504
   2145292.72346   2184080.61343  23060180.0554                   23060178.9184
        41.2504         18.2504
 19  3  7  0 12 20.0000000  0  3G01G17G13
    842529.54347  -1851814.42645  22579232.5944                   22579233.7464
        45.2504         31.0004
    129528.88348  -4850372.46945  20644725.3674                   20644723.2854
        49.5004         34.2504
   2150712.76246   2188303.99242  23061211.1564                   23061210.1914
        41.2504         17.2504
 19  3  7  0 12 25.0000000  0  3G01G17G13
    836608.72747  -1856428.05145  22578105.7584                   22578107.1764
        45.2504         31.2504
    116360.84448  -4860633.27345  20642219.7504                   20642217.6484
        49.5004         33.7504
   2156140.64546   2192533.52343  23062244.6024                   23062242.9694
        41.5004         18.5004
 19  3  7  0 12 30.0000000  0  3G01G17G13
    830704.95747  -1861028.39545  22576982.0164                   22576983.7894
        45.0004         31.0004
    103205.56348  -4870884.14145  20639716.1954                   20639714.3634
        49.5004         33.7504
   2161576.29746   2196769.05542  23063278.4224                   23063277.5234
        40.7504         17.7504
 19  3  7  0 12 35.0000000  0  3G01G17G13
    824817.73047  -1865615.84045  22575862.2274                   22575863.2344
        45.5004         30.7504
     90062.48848  -4881125.50045  20637215.1884                   20637213.1804
        49.5004         34.0004
   2167019.18446   2201010.30142  23064314.3444                   23064313.6954
        40.5004         17.2504
 19  3  7  0 12 40.0000000  0  3G01G17G13
    818947.35947  -1870190.15645  22574744.3444                   22574746.0824
        45.0004         31.2504
     76931.97348  -4891357.07045  20634716.6884                   20634714.8324
        49.5004         33.5004
   2172469.69547   2205257.41443  23065351.6804                   23065350.4224
        42.0004         18.5004
 19  3  7  0 12 45.0000000  0  3G01G17G13
    813093.98047  -1874751.21544  22573630.9844                   22573632.6844
        45.0004         29.5004
     63814.16048  -4901578.73445  20632220.2194                   20632218.5084
        49.5004         34.0004
   2177927.85546   2209510.53143  23066390.4694                   23066389.2424
        41.7504         18.5004
 19  3  7  0 12 50.0000000  0  3G01G17G13
    807257.43447  -1879299.18445  22572520.3524                   22572521.7074
        45.0004         30.5004
     50708.86348  -4911790.65645  20629726.5634                   20629724.6094
        49.2504         34.0004
   2183393.51646   2213769.51242  23067430.1414                   23067429.1524
        40.7504         17.7504
 19  3  7  0 12 55.0000000  0  3G01G17G13
    801437.57047  -1883834.14145  22571412.7034                   22571414.3594
        45.2504         30.2504
     37615.94948  -4921992.93045  20627235.0474                   20627233.1294
        49.5004         34.0004
   2188866.49646   2218034.18042  23068472.1334                   23068470.3834
        40.7504         17.7504
 19  3  7  0 13  0.0000000  0  3G01G17G13
    795634.65247  -1888355.89845  22570309.3054                   22570309.8914
        45.5004         30.2504
     24535.72348  -4932185.31645  20624745.9384                   20624744.2114
        49.5004         33.7504
   2194347.12146   2222304.72742  23069514.3984                   23069513.6214
        41.2504         17.2504
 19  3  7  0 13  5.0000000  0  3G01G17G13
    789848.94147  -1892864.24245  22569207.6644                   22569208.6174
        45.2504         30.0004
     11468.46948  -4942367.58645  20622259.2894                   20622257.5664
        49.5004         34.2504
   2199835.62546   2226581.55942  23070559.0314                   23070557.8054
        40.7504         17.2504
 19  3  7  0 13 10.0000000  0  3G01G17G13
    784080.10547  -1897359.43744  22568109.9534                   22568111.2814
        45.2504         29.2504
     -1586.19148  -4952540.05145  20619775.0394                   20619773.3244
        49.5004         33.5004
   2205331.61346   2230864.08642  23071604.5394                   23071603.8094
        40.5004         16.7504
 19  3  7  0 13 15.0000000  0  3G01G17G13
    778327.93847  -1901841.63344  22567014.6564                   22567016.9104
        44.7504         29.7504
    -14628.34448  -4962702.76245  20617293.1484                   20617291.4454
        49.5004         34.2504
   2210835.23846   2235152.68042  23072651.9694                   23072650.8404
        41.0004         17.7504
 19  3  7  0 13 20.0000000  0  3G01G17G13
    772593.32447  -1906310.21144  22565923.9774                   22565925.3594
        44.5004         29.0004
    -27657.16048  -4972855.10246  20614814.0394                   20614812.2854
        50.5004         36.0004
   2216347.29746   2239447.79343  23073701.3134                   23073699.8634
        40.7504         18.5004
 19  3  7  0 13 25.0000000  0  3G01G17G13
    766878.28947  -1910763.48844  22564836.2344                   22564837.6844
        45.0004         28.5004
    -40670.81648  -4982995.60245  20612337.5634                   20612335.6804
        50.0004         35.5004
   2221868.96146   2243750.35243  23074751.9614                   23074750.8324
        41.0004         18.2504
 19  3  7  0 13 30.0000000  0  3G01G17G13
    761177.87547  -1915205.36344  22563751.1804                   22563752.9264
        45.2504         29.0004
    -53674.09448  -4993128.02345  20609863.2584                   20609861.2504
        50.0004         35.5004
   2227395.84046   2248057.03543  23075803.9534                   23075802.5864
        41.7504         18.5004
 19  3  7  0 13 35.0000000  0  3G01G17G13
    755489.31647  -1919637.93745  22562669.3984                   22562671.7274
        46.5004         31.0004
    -66672.21948  -5003256.38745  20607389.8524                   20607388.6884
        50.5004         34.7504
   2232923.77746   2252364.46942  23076856.1564                   23076854.4804
        39.0004         17.7504
 19  3  7  0 13 40.0000000  0  3G01G17G13
    749810.93447  -1924062.68044  22561589.0634                   22561590.9224
        45.5004         28.5004
    -79666.70348  -5013381.97345  20604917.6804                   20604915.9614
        51.0004         34.7504
   2238450.66846   2256671.17643  23077908.1174                   23077906.6764
        41.7504         18.2504
 19  3  7  0 13 45.0000000  0  3G01G17G13
    744143.80947  -1928478.59844  22560511.0554                   22560512.8954
        46.5004         28.5004
    -92649.64148  -5023498.55145  20602447.2974                   20602445.3284
        50.7504         33.7504
   2243987.48846   2260985.57843  23078962.0784                   23078960.0784
        41.5004         18.2504
 19  3  7  0 13 50.0000000  0  3G01G17G13
    738493.07947  -1932881.78344  22559435.2504                   22559437.9414
        46.7504         28.5004
   -105620.28148  -5033605.55145  20599978.9454                   20599977.7234
        50.2504         33.5004
   2249531.75446   2265305.75043  23080017.1174                   23080015.7034
        39.7504         18.2504
 19  3  7  0 13 55.0000000  0  3G01G17G13
    732859.53947  -1937271.54443  22558363.4774                   22558365.2074
        43.7504         22.5004
   -118577.91248  -5043702.37545  20597513.3754                   20597511.8874
        49.5004         31.7504
   2255083.93446   2269632.13343  23081073.7814                   23081072.6374
        40.0004         18.2504
 19  3  7  0 14  0.0000000  0  3G01G17G13
    727244.06847  -1941647.17044  22557294.5704                   22557296.6414
        44.5004         27.5004
   -131519.40248  -5053786.64145  20595050.5234                   20595048.9574
        50.0004         33.2504
   2260648.63046   2273968.31542  23082132.9064                   23082131.9344
        41.7504         16.7504
 19  3  7  0 14  5.0000000  0  3G01G17G13
    721647.86247  -1946007.92544  22556230.0314                   22556231.8834
        45.2504         26.5004
   -144450.43748  -5063862.78945  20592589.5554                   20592588.3914
