     2.11           OBSERVATION DATA    G (GPS)             RINEX VERSION / TYPE
teqc  2019Feb25     Martin Truffer      20190308 01:04:21UTCPGM / RUN BY / DATE
Linux 2.6.32-573.12.1.x86_64|x86_64|gcc|Linux 64|=+         COMMENT
BIT 2 OF LLI FLAGS DATA COLLECTED UNDER A/S CONDITION       COMMENT
51890631                                                    MARKER NAME
5189                                                        MARKER NUMBER
-Unknown-           -Unknown-                               OBSERVER / AGENCY
0220315189          TRIMBLE 5700        2.30                REC # / TYPE / VERS
-Unknown-           TRM41249.00     NONE                    ANT # / TYPE
 -1794950.5146 -3484299.1434  5017606.8286                  APPROX POSITION XYZ
        0.0530        0.0000        0.0000                  ANTENNA: DELTA H/E/N
     1     1                                                WAVELENGTH FACT L1/2
     7    L1    L2    C1    P1    P2    S1    S2            # / TYPES OF OBSERV
    18                                                      LEAP SECONDS
 SNR is mapped to RINEX snr flag value [0-9]                COMMENT
  L1 & L2: min(max(int(snr_dBHz/6), 0), 9)                  COMMENT
  2019     3     4    21    47   20.0000000     GPS         TIME OF FIRST OBS
                                                            END OF HEADER
 19  3  4 21 47 20.0000000  0  3G08G27G30
     -8589.04757     -2798.15255  22004599.2974                   22004599.0634
        46.0004         35.7504
      9024.70716                  23980627.625
        40.750
    -34234.38757    -10575.19955  20179483.6484                   20179484.4384
        45.0004         32.5004
 19  3  4 21 47 25.0000000  0  3G08G27G30
    -13045.41447     -6270.73046  22003751.2584                   22003752.1334
        46.7504         36.0004
     12758.97346      5468.62154  23981338.3984                   23981338.8834
        40.7504         26.5004
    -47412.68047    -20844.07445  20176976.1884                   20176976.9774
        46.0004         34.5004
 19  3  4 21 47 30.0000000  0  3G08G27G30
    -17579.70747     -9803.91045  22002887.7424                   22002888.9964
        46.2504         35.7504
     16409.20746      8312.95744  23982032.6724                   23982033.4774
        40.0004         26.7504
    -60672.29747    -31176.19945  20174452.4224                   20174453.5204
        45.0004         33.2504
 19  3  4 21 47 35.0000000  0  3G08G27G30
    -22163.06647    -13375.36746  22002015.5234                   22002017.0204
        45.5004         36.0004
     20004.02346     11114.11344  23982716.4614                   23982717.6214
        39.5004         26.2504
    -73984.54347    -41549.39846  20171918.8834                   20171920.2304
        46.7504         37.0004
 19  3  4 21 47 40.0000000  0  3G08G27G30
    -26770.89847    -16965.87546  22001138.8284                   22001140.0784
        46.5004         36.5004
     23568.20746     13891.39544  23983395.1024                   23983395.9844
        40.0004         26.7504
    -87324.62947    -51944.25446  20169380.9774                   20169381.6054
        46.0004         36.7504
 19  3  4 21 47 45.0000000  0  4G07G08G27G30
    -26358.17258    -16296.91055  21019724.4694                   21019722.4224
        48.2504         35.5004
    -31384.34447    -20560.77746  22000260.6414                   22000262.0274
        46.5004         36.7504
     27120.58246     16659.49244  23984070.5864                   23984072.2464
        39.7504         26.7504
   -100673.80547    -62346.21146  20166840.4384                   20166841.0904
        46.2504         36.2504
 19  3  4 21 47 50.0000000  0  6G07G08G13G27G28G30
    -29990.25847    -19127.12145  21019033.8364                   21019032.1604
        47.7504         34.7504
    -35989.87547    -24149.50446  21999385.0234                   21999385.7814
        47.0004         36.5004
   -211918.14856    -62421.43054  22279972.6334                   22279970.9264
        37.5004         26.5004
     30674.57446     19428.83644  23984746.9694                   23984748.5354
        40.2504         26.7504
   -138636.44956    -79747.29753  21084376.7894                   21084374.3244
        38.0004         21.5004
   -114018.55147    -72744.71545  20164301.0634                   20164301.9534
        45.7504         35.5004
 19  3  4 21 47 55.0000000  0  6G07G08G13G27G28G30
    -33610.33648    -21947.95745  21018344.8444                   21018343.0744
        48.0004         35.5004
    -40578.24647    -27724.85546  21998511.4614                   21998512.0904
        47.0004         36.7504
   -236590.66846    -81646.77744  22275278.1724                   22275276.3634
        38.2504         26.7504
     34239.44546     22206.64544  23985425.4304                   23985427.0274
        40.0004         26.7504
   -159452.93746    -95967.92243  21080415.0234                   21080413.0594
        38.7504         21.0004
   -127349.55947    -83132.51246  20161764.4144                   20161765.0514
        46.0004         36.0004
 19  3  4 21 48  0.0000000  0  6G07G08G13G27G28G30
    -37211.87147    -24754.35545  21017658.8444                   21017657.8014
        47.5004         35.2504
    -45142.97747    -31281.79746  21997642.5634                   21997643.8014
        47.0004         36.7504
   -261242.50446   -100856.01644  22270586.7344                   22270585.3754
        37.7504         24.7504
     37821.82046     24998.09044  23986107.1254                   23986108.1684
        40.5004         27.0004
   -180251.16846   -112174.36343  21076457.3444                   21076455.6764
        38.7504         21.2504
   -140660.28947    -93504.51246  20159231.1334                   20159232.1094
        46.0004         36.0004
 19  3  4 21 48  5.0000000  0  6G07G08G13G27G28G30
    -40789.93747    -27542.46545  21016978.3444                   21016976.9344
        47.7504         35.2504
    -49679.03947    -34816.38746  21996779.3364                   21996780.6134
        46.5004         36.5004
   -285868.82446   -120045.33644  22265900.2274                   22265899.3554
        38.0004         24.5004
     41426.58246     27806.98444  23986793.3834                   23986794.4614
        40.7504         27.0004
   -201026.25446   -128362.73043  21072503.7034                   21072501.8674
        38.7504         21.5004
   -153945.77747   -103856.84046  20156703.2504                   20156704.0204
        46.0004         36.0004
 19  3  4 21 48 10.0000000  0  6G07G08G13G27G28G30
    -44341.16047    -30309.64545  21016302.6804                   21016300.6684
        47.7504         35.2504
    -54183.03547    -38326.00046  21995922.4844                   21995923.7504
        47.0004         36.5004
   -310466.15246   -139212.09044  22261220.1024                   22261218.3324
        39.0004         24.5004
     45057.10246     30635.96144  23987483.6954                   23987484.9064
        40.5004         27.5004
   -221774.71546   -144530.36743  21068555.6884                   21068553.9574
        38.7504         21.2504
   -167202.60947   -114186.84445  20154180.5944                   20154181.3634
        46.0004         35.5004
 19  3  4 21 48 15.0000000  0  6G07G08G13G27G28G30
    -47862.89547    -33053.86345  21015632.1884                   21015631.0084
        47.7504         35.2504
    -58652.46547    -41808.66446  21995071.7814                   21995073.1604
        46.7504         36.7504
   -335031.92246   -158354.25044  22256545.1884                   22256543.6724
        38.0004         25.0004
     48715.98846     33487.04344  23988180.0634                   23988181.3284
        40.0004         26.5004
   -242493.96946   -160675.23843  21064612.2894                   21064611.0824
        38.5004         21.7504
   -180428.23847   -124492.52346  20151663.9694                   20151664.6804
        46.0004         36.0004
 19  3  4 21 48 20.0000000  0  6G07G08G13G27G28G30
    -51353.64147    -35773.94145  21014968.0864                   21014966.6914
        47.7504         35.2504
    -63085.73447    -45263.16446  21994228.0634                   21994229.5394
        46.7504         36.5004
   -359564.58246   -177470.60244  22251876.7344                   22251875.3554
        38.0004         24.7504
     52404.75046     36361.39544  23988882.4064                   23988883.4804
        40.5004         27.0004
   -263182.52046   -176796.17643  21060675.9844                   21060674.4224
        38.5004         21.5004
   -193621.07447   -134772.66045  20149153.4224                   20149154.1024
        46.0004         35.5004
 19  3  4 21 48 25.0000000  0  6G07G08G13G27G28G30
    -54811.64547    -38468.47345  21014310.0474                   21014308.4924
        47.7504         35.7504
    -67481.03947    -48688.08246  21993391.8204                   21993393.1414
        47.0004         36.7504
   -384062.32846   -196559.74643  22247215.1954                   22247213.3554
        37.7504         23.5004
     56125.17646     39260.42244  23989590.3914                   23989591.5904
        40.0004         27.0004
   -283838.53546   -192891.78543  21056745.7034                   21056743.5634
        39.2504         22.2504
   -206779.37147   -145025.87946  20146649.5704                   20146650.2034
        46.0004         36.2504
 19  3  4 21 48 30.0000000  0  6G07G08G13G27G28G30
    -58235.70747    -41136.58245  21013658.5634                   21013656.6524
        47.7504         35.7504
    -71837.35547    -52082.60946  21992562.9144                   21992564.0514
        46.7504         36.5004
   -408524.09446   -215620.85543  22242560.6724                   22242558.5124
        38.0004         23.0004
     59878.28546     42184.91444  23990304.5634                   23990305.7664
        40.5004         27.0004
   -304460.94146   -208961.17243  21052820.8364                   21052818.8324
        39.5004         21.5004
   -219902.02047   -155251.32046  20144152.0164                   20144152.8754
        46.0004         36.0004
 19  3  4 21 48 35.0000000  0  6G07G08G13G27G28G30
    -61625.53947    -43778.01645  21013013.6254                   21013011.7344
        47.7504         35.5004
    -76154.23447    -55446.41446  21991741.6024                   21991742.8204
        46.7504         36.5004
   -432949.39146   -234653.55544  22237912.1484                   22237910.7274
        37.7504         24.5004
     63664.55546     45135.25044  23991024.8984                   23991026.2974
        40.2504         26.2504
   -325049.32446   -225004.07443  21048903.3834                   21048901.2344
        39.0004         22.0004
   -232988.55947   -165448.62546  20141661.6334                   20141662.0944
        46.0004         36.0004
 19  3  4 21 48 40.0000000  0  6G07G08G13G27G28G30
    -64980.28147    -46392.10945  21012374.9774                   21012373.6294
        47.7504         35.2504
    -80430.85947    -58778.84846  21990927.5634                   21990928.8134
        46.5004         36.5004
   -457337.38746   -253657.18744  22233271.5784                   22233269.9144
        38.0004         25.7504
     67484.73846     48112.01644  23991751.5784                   23991752.8284
        40.5004         27.5004
   -345602.84846   -241019.81243  21044991.9454                   21044989.9924
        39.0004         22.0004
   -246038.22347   -175617.19546  20139178.6174                   20139179.2854
        46.0004         36.2504
 19  3  4 21 48 45.0000000  0  6G07G08G13G27G28G30
    -68299.50448    -48978.51645  21011743.7424                   21011741.8874
        48.0004         35.0004
    -84666.84047    -62079.61746  21990121.5004                   21990122.6454
        46.5004         36.5004
   -481687.69546   -272631.45744  22228636.9224                   22228635.7624
        38.2504         24.0004
     71339.27346     51115.55144  23992485.3594                   23992486.4884
        40.2504         26.5004
   -366121.09446   -257008.05143  21041087.9774                   21041085.8524
        39.5004         22.2504
   -259050.57047   -185756.68746  20136702.4534                   20136703.1524
        46.0004         36.0004
 19  3  4 21 48 50.0000000  0  6G07G08G13G27G28G30
    -71583.17648    -51537.21545  21011118.7814                   21011116.9574
        48.0004         35.2504
    -88862.19547    -65348.73046  21989323.4454                   21989324.1254
        46.5004         36.2504
   -506000.24646   -291576.29744  22224011.2194                   22224009.2034
        38.5004         24.0004
     75228.16846     54145.84044  23993225.4924                   23993226.9694
        41.0004         26.7504
   -386604.06246   -272968.79343  21037189.6884                   21037187.6214
        39.2504         21.2504
   -272025.57847   -195867.08645  20134233.0944                   20134233.9844
        46.0004         35.5004
 19  3  4 21 48 55.0000000  0  6G07G08G13G27G28G30
    -74830.91848    -54067.93045  21010500.9614                   21010498.7504
        48.0004         34.7504
    -93016.54347    -68585.87946  21988532.8674                   21988533.6174
        46.2504         36.0004
   -530274.68046   -310491.43444  22219391.2974                   22219390.3094
        38.2504         25.5004
     79151.78546     57203.20744  23993972.3594                   23993973.0314
        41.0004         27.0004
   -407051.39546   -288901.78543  21033298.9144                   21033296.6254
        39.7504         21.7504
   -284962.82047   -205948.05946  20131771.4144                   20131771.8754
        46.0004         36.5004
 19  3  4 21 49  0.0000000  0  6G07G08G13G27G28G30
    -78042.24647    -56570.25845  21009889.0784                   21009887.7234
        47.7504         35.5004
    -97129.40647    -71790.70746  21987749.9774                   21987750.8524
        46.5004         36.5004
   -554510.50446   -329376.49244  22214779.9844                   22214778.4534
        38.0004         25.0004
     83110.60946     60287.99644  23994725.3524                   23994726.5354
        40.5004         27.2504
   -427462.53146   -304806.56243  21029414.0314                   21029412.6174
        39.0004         21.5004
   -297861.88747   -215999.27746  20129317.1334                   20129317.4384
        46.0004         36.2504
 19  3  4 21 49  5.0000000  0  6G07G08G13G27G28G30
    -81216.92647    -59044.04345  21009285.1414                   21009283.6254
        47.7504         35.0004
   -101200.51647    -74963.00446  21986975.0164                   21986976.3594
        46.5004         36.5004
   -578707.37946   -348231.21544  22210175.2034                   22210173.8524
        38.0004         25.0004
     87104.85246     63400.39844  23995484.7504                   23995486.4534
        40.0004         26.5004
   -447837.30146   -320683.00443  21025537.4384                   21025535.5944
        39.0004         21.2504
   -310722.44147   -226020.48846  20126869.5784                   20126870.3444
        46.0004         36.0004
 19  3  4 21 49 10.0000000  0  6G07G08G13G27G28G30
    -84355.55948    -61489.72745  21008687.8984                   21008686.6884
        48.0004         35.2504
   -105230.47747    -78103.23846  21986208.2974                   21986209.3324
        46.7504         37.0004
   -602865.91446   -367056.05144  22205578.1804                   22205576.5514
        37.7504         25.0004
     91133.92246     66539.93844  23996252.1334                   23996253.0394
        41.0004         26.7504
   -468176.28146   -336531.57043  21021667.6884                   21021664.5904
        39.7504         21.5004
   -323545.13747   -236012.20746  20124429.4304                   20124430.1684
        46.2504         36.0004
 19  3  4 21 49 15.0000000  0  6G07G08G13G27G28G30
    -87458.02748    -63907.24245  21008098.0944                   21008096.1724
        48.2504         35.2504
   -109219.24247    -81211.35546  21985449.6884                   21985450.6644
        46.7504         37.0004
   -626986.09846   -385850.98844  22200988.3754                   22200987.0204
        38.2504         26.0004
     95197.91846     69706.66844  23997025.8284                   23997026.4924
        40.7504         27.2504
   -488479.30546   -352352.09443  21017803.8284                   21017801.3094
        39.5004         22.0004
   -336329.83647   -245974.29345  20121996.4774                   20121997.1684
        46.0004         35.7504
 19  3  4 21 49 20.0000000  0  6G07G08G13G27G28G30
    -90524.18748    -66296.46545  21007515.0554                   21007512.4694
        48.2504         35.5004
   -113166.55947    -84287.19146  21984698.2114                   21984699.4024
        46.5004         36.5004
   -651067.60246   -404615.82444  22196405.9064                   22196404.2304
        38.0004         25.0004
     99296.98446     72900.75444  23997805.1024                   23997806.9694
        40.5004         27.0004
   -508746.25046   -368144.53143  21013946.8594                   21013944.8634
        39.2504         22.2504
   -349076.37547   -255906.68046  20119571.1564                   20119571.5004
        46.0004         36.5004
 19  3  4 21 49 25.0000000  0  6G07G08G13G27G28G30
    -93554.10948    -68657.44145  21006938.1024                   21006935.9654
        48.2504         35.5004
   -117072.59047    -87330.85546  21983954.7344                   21983956.3204
        46.0004         36.5004
   -675110.69546   -423350.66444  22191830.3914                   22191828.5744
        38.7504         24.7504
    103430.99646     76122.05144  23998592.2274                   23998593.1524
        39.7504         27.7504
   -528977.20746   -383908.91443  21010096.8134                   21010095.0554
        39.2504         22.0004
   -361784.89147   -265809.41446  20117152.7504                   20117153.6454
        46.7504         36.7504
 19  3  4 21 49 30.0000000  0  6G07G08G13G27G28G30
    -96548.30548    -70990.59045  21006368.2664                   21006366.4184
        48.0004         35.5004
   -120937.79747    -90342.70746  21983219.2664                   21983220.4454
        46.5004         36.7504
   -699115.69546   -442055.87543  22187262.2814                   22187260.8954
        38.0004         23.7504
    107599.44546     79370.18044  23999385.1174                   23999386.5084
        40.0004         27.7504
   -549172.65246   -399645.62543  21006254.2274                   21006251.7304
        38.7504         21.2504
   -374455.79747   -275682.84446  20114741.4144                   20114742.4024
        46.0004         36.5004
 19  3  4 21 49 35.0000000  0  6G07G08G13G27G28G30
    -99506.89148    -73295.97745  21005805.4224                   21005802.7344
        48.0004         35.7504
   -124762.33647    -93322.87146  21982491.5474                   21982493.1174
        46.7504         37.0004
   -723082.73846   -460731.48044  22182701.2034                   22182700.0594
        38.2504         25.5004
    111802.24246     82645.07844  24000185.1954                   24000187.0204
        40.5004         27.0004
   -569332.64546   -415354.71543  21002417.8134                   21002415.4774
        38.7504         22.0004
   -387089.25047   -285527.09846  20112337.5474                   20112338.1884
        46.0004         36.7504
 19  3  4 21 49 40.0000000  0  6G07G08G13G27G28G30
   -102429.85248    -75573.60945  21005249.1024                   21005247.0704
        48.2504         35.7504
   -128546.13747    -96271.28946  21981771.7034                   21981772.9924
        47.0004         37.5004
   -747011.83646   -479377.52744  22178147.8364                   22178146.3714
        38.0004         24.0004
    116039.41846     85946.78144  24000991.6334                   24000993.0474
        41.0004         27.7504
   -589457.26246   -431036.22343  20998587.7814                   20998585.8284
        39.2504         22.2504
   -399685.19547   -295342.12546  20109940.5704                   20109941.1454
        46.5004         36.7504
 19  3  4 21 49 45.0000000  0  6G07G08G13G27G28G30
   -105317.25047    -77823.52745  21004699.8524                   21004697.8594
        47.7504         35.7504
   -132289.41847    -99188.12146  21981059.4064                   21981060.2704
        46.7504         37.0004
   -770903.07046   -497994.06644  22173601.6174                   22173599.6724
        38.5004         25.0004
    120310.74646     89275.08644  24001804.5474                   24001805.5354
        40.7504         27.7504
   -609546.53946   -446690.21943  20994765.3754                   20994763.2034
        39.0004         22.7504
   -412243.76647   -305128.01246  20107550.8364                   20107551.5944
        46.2504         36.5004
 19  3  4 21 49 50.0000000  0  6G07G08G13G27G28G30
   -108169.66847    -80046.19545  21004156.8834                   21004154.7464
        47.5004         34.7504
   -135992.75447   -102073.83646  21980354.5234                   21980355.6334
        46.5004         36.0004
   -794756.94546   -516581.50844  22169062.2734                   22169060.5824
        38.2504         25.5004
    124615.77046     92629.62544  24002623.4694                   24002624.4384
        41.0004         27.0004
   -629601.07446   -462317.12543  20990949.3754                   20990947.3914
        39.5004         23.7504
   -424765.48847   -314885.19946  20105167.9454                   20105168.5124
        46.2504         36.2504
 19  3  4 21 49 55.0000000  0  6G07G08G13G27G28G30
   -110987.03947    -82241.55945  21003620.2504                   21003618.5434
        47.5004         35.0004
   -139655.91447   -104928.25446  21979657.2584                   21979658.5704
        46.0004         36.2504
   -818573.37546   -535139.76244  22164530.3524                   22164528.3674
        38.7504         25.5004
    128954.52746     96010.48444  24003448.9924                   24003450.3754
        40.5004         26.5004
   -649620.74246   -477916.86743  20987139.8914                   20987137.4104
        40.0004         22.0004
   -437250.28547   -324613.62146  20102792.3054                   20102792.5394
        46.2504         36.5004
 19  3  4 21 50  0.0000000  0  6G07G08G13G27G28G30
   -113769.84848    -84409.97745  21003091.0944                   21003088.7274
        48.0004         35.0004
   -143279.51247   -107751.82846  21978968.2194                   21978969.0944
        46.0004         36.0004
   -842352.83646   -553669.21144  22160005.5394                   22160003.7664
        38.2504         25.5004
    133326.49646     99417.20344  24004281.4614                   24004282.3284
        40.5004         26.2504
   -669606.04746   -493489.82843  20983336.5084                   20983333.9694
        39.7504         21.5004
   -449698.62147   -334313.62546  20100423.4924                   20100424.0664
        46.2504         36.7504
 19  3  4 21 50  5.0000000  0  6G07G08G13G27G28G30
   -116518.40647    -86551.72745  21002567.8204                   21002566.0984
        47.5004         35.5004
   -146863.79747   -110544.78546  21978285.8284                   21978287.2234
        46.0004         36.5004
   -866095.65246   -572170.10944  22155487.1414                   22155485.2274
        38.5004         24.5004
    137731.37546    102849.57044  24005119.5314                   24005120.5004
        40.7504         27.2504
   -689557.27046   -509036.23043  20979539.6724                   20979537.5634
        40.0004         22.0004
   -462110.84447   -343985.48046  20098061.2814                   20098061.8594
        46.0004         36.5004
 19  3  4 21 50 10.0000000  0  6G07G08G13G27G28G30
   -119232.80947    -88666.84045  21002051.4694                   21002049.7584
        47.7504         34.5004
   -150408.94547   -113307.24245  21977611.4534                   21977612.3834
        46.0004         35.5004
   -889801.91046   -590642.50044  22150976.2504                   22150974.3204
        38.7504         24.0004
    142169.07046    106307.52044  24005963.7814                   24005964.8554
        40.5004         27.0004
   -709474.57446   -524556.21143  20975749.6024                   20975747.2734
        40.0004         22.5004
   -474487.02747   -353629.26246  20095706.3914                   20095706.8324
        46.0004         36.2504
 19  3  4 21 50 15.0000000  0  6G07G08G13G27G28G30
   -121913.44148    -90755.63745  21001541.2424                   21001539.4774
        48.0004         34.7504
   -153915.37147   -116039.51646  21976944.3984                   21976945.1094
        46.5004         36.2504
   -913471.90246   -609086.67244  22146471.3054                   22146470.1134
        37.2504         25.7504
    146639.13346    109790.69144  24006814.5784                   24006815.6804
        40.2504         25.2504
   -729358.18446   -540049.90643  20971965.8134                   20971963.8204
        37.5004         22.0004
   -486827.57447   -363245.29346  20093357.8204                   20093358.7154
        46.5004         37.0004
 19  3  4 21 50 20.0000000  0  6G07G08G13G27G28G30
   -124560.45348    -92818.27045  21001037.2034                   21001035.7584
        48.2504         35.2504
   -157383.12947   -118741.66846  21976283.5784                   21976285.5394
        45.7504         36.0004
   -937105.95746   -627502.75443  22141974.1644                   22141972.8014
        37.7504         22.7504
    151141.40246    113298.93844  24007670.9384                   24007672.2194
        39.7504         26.0004
   -749208.36345   -555517.57843  20968188.2664                   20968186.3914
        35.7504         21.0004
   -499132.57047   -372833.59046  20091016.3984                   20091016.9964
        46.5004         36.2504
 19  3  4 21 50 25.0000000  0  6G07G08G13G27G28G30
   -127174.25448    -94854.98845  21000539.9774                   21000538.2704
        48.0004         35.5004
   -160812.67647   -121414.04346  21975631.1954                   21975632.8834
        45.7504         36.2504
   -960704.25046   -645891.11744  22137483.4694                   22137482.1844
        39.0004         26.0004
    155675.54746    116832.01644  24008534.0864                   24008535.2384
        40.0004         27.0004
   -769025.61746   -570959.60543  20964417.0554                   20964415.1644
        38.2504         20.7504
   -511402.45747   -382394.54346  20088681.4614                   20088682.3594
        46.5004         37.0004
 19  3  4 21 50 30.0000000  0  6G07G08G13G27G28G30
   -129755.01648    -96865.96545  21000048.8204                   21000047.2344
        48.0004         35.0004
   -164204.27347   -124056.85945  21974986.1334                   21974987.3324
        46.0004         35.5004
   -984267.04346   -664251.66843  22132999.8754                   22132998.2704
        38.5004         22.7504
    160241.22746    120389.69544  24009403.2114                   24009403.8164
        40.5004         26.2504
   -788810.21946   -586376.17243  20960652.4844                   20960650.5394
        41.0004         20.2504
   -523637.42247   -391928.28946  20086353.4384                   20086353.7704
        47.5004         37.7504
 19  3  4 21 50 35.0000000  0  6G07G08G13G27G28G30
   -132302.94948    -98851.36345  20999564.1884                   20999562.1604
        48.2504         34.5004
   -167558.12147   -126670.23046  21974348.0634                   21974348.8364
        46.5004         36.7504
  -1007794.37946   -682584.71144  22128523.4144                   22128521.2624
        38.7504         26.0004
    164838.35946    123971.87144  24010278.0474                   24010279.0984
        41.2504         27.0004
   -808561.82046   -601766.96943  20956893.9144                   20956891.8554
        36.5004         18.5004
   -535837.61747   -401434.93445  20084031.4144                   20084032.3404
        46.2504         35.5004
 19  3  4 21 50 40.0000000  0  5G07G08G27G28G30
   -134818.82847   -100811.79345  20999085.1804                   20999083.8914
        47.7504         34.7504
   -170874.76247   -129254.63746  21973716.7194                   21973717.7234
        46.7504         36.7504
    169466.18046    127577.96144  24011158.1884                   24011159.2704
        41.2504         27.5004
   -828281.77746   -617133.25843  20953140.8054                   20953139.4344
        38.7504         19.0004
   -548003.91847   -410915.19145  20081716.3364                   20081717.2274
        44.5004         34.0004
 19  3  4 21 50 45.0000000  0  6G07G08G13G27G28G30
   -137302.86747   -102747.41045  20998612.8754                   20998610.8634
        47.2504         35.0004
   -174154.66047   -131810.34445  21973092.4064                   21973093.9024
        45.2504         35.5004
  -1054745.67655   -719170.22753  22119589.0554                   22119587.2304
        35.0004         18.5004
    174124.36346    131207.70344  24012044.6484                   24012045.8484
        39.5004         25.5004
   -847969.91446   -632474.63343  20949394.6414                   20949392.6174
        38.7504         20.0004
   -560136.37147   -420369.01645  20079407.4384                   20079408.9304
        45.7504         34.7504
 19  3  4 21 50 50.0000000  0  6G07G08G13G27G28G30
   -139755.28547   -104658.39145  20998146.0634                   20998144.5124
        47.5004         34.5004
   -177397.96947   -134337.61745  21972475.1174                   21972476.4774
        45.5004         35.0004
  -1078170.15246   -737422.99642  22115130.9454                   22115129.9924
        36.0004         17.7504
    178812.66846    134860.92644  24012936.9614                   24012938.2814
        40.0004         25.7504
   -867626.66846   -647791.60243  20945654.8054                   20945652.2344
        37.5004         19.7504
   -572235.31247   -429796.77045  20077105.0784                   20077106.2154
        45.5004         34.2504
 19  3  4 21 50 55.0000000  0  6G07G08G13G27G28G30
   -142176.61348   -106545.13745  20997685.6564                   20997683.4694
        48.5004         35.2504
   -180605.19947   -136836.80545  21971864.8754                   21971866.2074
        46.2504         35.2504
  -1101561.02346   -755649.57044  22110679.9224                   22110678.2934
        39.0004         24.7504
    183530.68446    138537.29344  24013834.7664                   24013835.8674
        40.5004         25.0004
   -887252.20746   -663084.19943  20941919.1484                   20941917.5904
        36.7504         18.2504
   -584301.21947   -439198.79345  20074809.3754                   20074809.9844
        45.7504         33.0004
 19  3  4 21 51  0.0000000  0  6G07G08G13G27G28G30
   -144566.70747   -108407.55545  20997230.6174                   20997228.7624
        47.7504         35.2504
   -183776.30147   -139307.78546  21971261.3834                   21971262.8054
        46.2504         36.0004
  -1124918.05546   -773849.90244  22106235.0944                   22106233.4694
        39.2504         27.0004
    188278.36746    142236.82044  24014738.3444                   24014739.6134
        40.7504         26.5004
   -906846.92646   -678352.83243  20938190.2194                   20938188.7424
        36.5004         18.5004
   -596333.98847   -448574.95745  20072519.3524                   20072520.0314
        45.0004         32.5004
 19  3  4 21 51  5.0000000  0  6G07G08G13G27G28G30
   -146926.12948   -110246.08645  20996781.5704                   20996779.7274
        48.0004         35.5004
   -186911.74647   -141750.98046  21970665.0554                   21970665.7194
        45.7504         36.0004
  -1148241.82046   -792024.25844  22101796.4534                   22101794.9184
        38.5004         26.0004
    193055.27046    145959.03944  24015647.3984                   24015648.4224
        39.7504         25.5004
   -926411.04746   -693597.62142  20934468.2344                   20934465.9064
        37.0004         17.7504
   -608334.14547   -457925.73445  20070236.3284                   20070236.9224
        44.2504         32.0004
 19  3  4 21 51 10.0000000  0  6G07G08G13G27G28G30
   -149255.30548   -112061.01645  20996338.7894                   20996336.1644
        49.2504         35.0004
   -190011.94147   -144166.72745  21970074.8674                   21970076.2734
        46.0004         35.2504
  -1171532.72346   -810173.00044  22097364.8054                   22097362.6174
        39.5004         26.7504
    197860.98046    149703.75444  24016562.2424                   24016562.7114
        40.2504         25.0004
   -945945.13345   -708818.98042  20930751.5234                   20930748.6764
        35.0004         17.7504
   -620302.05947   -467251.39145  20067958.6334                   20067959.2424
        46.2504         34.7504
 19  3  4 21 51 15.0000000  0  6G07G08G13G27G28G30
   -151554.40648   -113852.50845  20995900.9064                   20995898.7894
        48.2504         34.5004
   -193077.27047   -146555.30545  21969491.8674                   21969492.9304
        46.2504         35.2504
  -1194790.98046   -828296.33244  22092938.5634                   22092936.6564
        40.7504         27.0004
    202695.19146    153470.67244  24017481.9144                   24017482.4654
        40.5004         26.7504
   -965449.23446   -724016.96142  20927039.3284                   20927037.2154
        38.5004         17.2504
   -632238.04347   -476552.17246  20065687.3524                   20065688.1484
        46.7504         36.0004
 19  3  4 21 51 20.0000000  0  6G07G08G13G27G28G30
   -153824.02348   -115621.07845  20995468.7664                   20995467.1914
        48.0004         35.5004
   -196108.30147   -148917.12945  21968914.6024                   21968916.0554
        45.7504         35.5004
  -1218017.16046   -846394.64544  22088518.5784                   22088517.1454
        38.5004         27.5004
    207557.34446    157259.34444  24018407.1804                   24018407.6914
        40.2504         26.2504
   -984924.11746   -739192.20342  20923333.2584                   20923331.3244
        37.7504         17.2504
   -644142.54747   -485828.38745  20063422.1414                   20063422.8634
        44.5004         32.0004
 19  3  4 21 51 25.0000000  0  6G07G08G13G27G28G30
   -156064.34048   -117366.77045  20995042.1644                   20995040.5784
        48.2504         35.7504
   -199105.03547   -151252.24646  21968344.5234                   21968345.6024
        45.7504         36.0004
  -1241211.41446   -864468.09844  22084105.1484                   22084103.2034
        39.5004         27.2504
    212447.28546    161069.68444  24019337.5084                   24019338.4384
        40.0004         26.0004
  -1004369.77346   -754344.66043  20919633.4694                   20919630.8554
        38.0004         18.2504
   -656015.80547   -495080.27745  20061162.3754                   20061163.2344
        44.7504         32.5004
 19  3  4 21 51 30.0000000  0  6G07G08G13G27G28G30
   -158275.37548   -119089.61745  20994621.7664                   20994620.3794
        48.0004         34.7504
   -202067.55547   -153560.69146  21967780.9304                   21967782.0594
        46.5004         36.2504
  -1264373.69946   -882516.59444  22079696.8594                   22079695.2464
        39.0004         25.5004
    217365.01646    164901.71544  24020273.0554                   24020274.4924
        40.0004         26.7504
  -1023786.47747   -769474.52343  20915937.5944                   20915936.1684
        44.0004         21.5004
   -667857.75047   -504307.74646  20058908.5864                   20058909.7934
        46.7504         37.0004
 19  3  4 21 51 35.0000000  0  6G07G08G13G27G28G30
   -160457.43448   -120789.94945  20994206.5704                   20994205.1884
        48.0004         35.0004
   -204996.18447   -155842.76646  21967223.4304                   21967225.1484
        46.2504         36.0004
  -1287504.39846   -900540.53144  22075295.6884                   22075294.4304
        38.0004         25.5004
    222310.12546    168755.00844  24021214.4384                   24021215.3984
        40.5004         26.2504
  -1043174.16047   -784581.82844  20912248.4384                   20912246.6954
        42.0004         27.2504
   -679668.81647   -513511.20346  20056661.3674                   20056662.2304
        46.7504         36.5004
 19  3  4 21 51 40.0000000  0  6G07G08G13G27G28G30
   -162610.94947   -122468.00845  20993796.5314                   20993794.6374
        47.7504         35.2504
   -207891.40247   -158098.77746  21966672.7274                   21966673.8954
        46.2504         36.0004
  -1310603.84046   -918540.08644  22070900.0234                   22070898.4024
        38.2504         24.0004
    227282.25046    172629.39144  24022160.2504                   24022161.4654
        40.5004         26.7504
  -1062533.41447   -799666.95744  20908564.4614                   20908562.9304
        42.0004         27.5004
   -691449.34447   -522690.83246  20054419.6644                   20054420.3134
        46.5004         36.7504
 19  3  4 21 51 45.0000000  0  6G07G08G13G27G28G30
   -164736.18748   -124124.04745  20993391.8134                   20993390.3674
        48.0004         35.0004
   -210753.42647   -160328.92246  21966128.2814                   21966129.0784
        46.5004         36.2504
  -1333672.35246   -936515.55944  22066510.2344                   22066508.6174
        38.5004         24.7504
    232281.12546    176524.61744  24023111.3284                   24023112.9924
        40.5004         26.2504
  -1081864.48847   -814730.13344  20904886.2194                   20904884.1024
        42.2504         27.2504
   -703199.58647   -531846.86346  20052183.5634                   20052184.8284
        46.5004         36.5004
 19  3  4 21 51 50.0000000  0  6G07G08G13G27G28G30
   -166833.90648   -125758.63345  20992993.3284                   20992991.2934
        48.0004         34.7504
   -213583.01247   -162533.80546  21965589.3444                   21965590.9224
        46.2504         36.0004
  -1356710.66846   -954467.48444  22062126.3754                   22062124.7854
        38.5004         25.0004
    237305.87946    180440.00844  24024067.4694                   24024069.2854
        40.0004         26.7504
  -1101168.20347   -829771.98044  20901212.8524                   20901210.8054
        42.2504         28.0004
   -714920.36347   -540979.93746  20049953.3914                   20049953.8714
        46.7504         36.5004
 19  3  4 21 51 55.0000000  0  6G07G08G13G27G28G30
   -168903.94548   -127371.65245  20992599.4534                   20992597.6484
        48.0004         35.5004
   -216380.10947   -164713.35946  21965057.2034                   21965058.5394
        46.5004         36.5004
  -1379718.59846   -972395.73444  22057748.1644                   22057746.3554
        38.2504         25.0004
    242356.68046    184375.68044  24025028.9304                   24025030.3834
        40.0004         26.2504
  -1120444.34047   -844792.34444  20897544.8134                   20897542.6524
        42.5004         27.7504
   -726611.46147   -550089.88746  20047728.3984                   20047729.3524
        46.7504         37.2504
 19  3  4 21 52  0.0000000  0  6G07G08G13G27G28G30
   1404473.66848   1098636.87545  21292002.8524                   21292000.9884
        48.0004         35.2504
   1356275.42647   1060732.51246  22264323.3754                   22264324.8554
        46.5004         36.7504
    172728.09846    237302.98844  22353168.4144                   22353167.0594
        38.2504         25.5004
   1822852.22346   1415930.64844  24325787.0474                   24325788.2544
        41.0004         27.0004
    435730.52347    367811.43844  21193675.0554                   21193672.7154
        42.5004         27.5004
    837149.04347    668424.78946  20345302.3834                   20345302.8554
        46.7504         36.7504
 19  3  4 21 52  5.0000000  0  6G07G08G13G27G28G30
   1402457.52047   1097065.85245  21291619.0004                   21291617.4264
        47.7504         35.5004
   1353541.94547   1058602.52346  22263803.4144                   22263804.7034
        46.5004         36.2504
    149779.52046    219420.97744  22348802.0394                   22348800.1644
        38.0004         25.2504
   1827953.75446   1419905.85944  24326757.8134                   24326759.3244
        40.5004         27.0004
    416508.08247    352832.91044  21190017.2504                   21190015.0864
        42.5004         28.5004
    825515.84847    659359.96546  20343088.8054                   20343089.6094
        46.7504         36.5004
 19  3  4 21 52 10.0000000  0  6G07G08G13G27G28G30
   1400468.49247   1095515.95745  21291240.7274                   21291239.4064
        47.7504         35.2504
   1350840.53947   1056497.53546  22263289.4924                   22263291.0514
        46.2504         36.2504
    126860.83646    201562.26644  22344440.4224                   22344438.6994
        38.2504         26.0004
   1833080.80546   1423900.95344  24327733.8284                   24327734.9064
        40.5004         27.0004
    397312.65647    337875.43844  21186364.3284                   21186362.2384
        42.5004         28.5004
    813911.78147    650317.83646  20340880.2114                   20340880.6914
        46.7504         36.7504
 19  3  4 21 52 15.0000000  0  6G07G08G13G27G28G30
   1398506.06648   1093986.79345  21290867.5634                   21290865.6804
        48.0004         35.0004
   1348170.45347   1054416.94945  22262781.0704                   22262782.8054
        46.2504         35.7504
    103971.51246    183726.42244  22340085.1804                   22340082.9654
        38.0004         25.2504
   1838232.77746   1427915.47744  24328714.2504                   24328715.4064
        40.5004         26.7504
    378143.73047    322938.62144  21182716.8594                   21182714.7424
        42.5004         28.2504
    802336.31647    641297.99646  20338677.9144                   20338678.5124
        46.5004         36.5004
 19  3  4 21 52 20.0000000  0  6G07G08G13G27G28G30
   1396569.96947   1092478.14545  21290498.5314                   21290497.6094
        47.7504         34.7504
   1345531.43047   1052360.56646  22262278.9304                   22262280.7194
        46.5004         36.2504
     81111.27046    165913.23044  22335734.7814                   22335732.9414
        38.0004         26.0004
   1843409.43846   1431949.22744  24329699.5864                   24329700.4384
        41.0004         26.7504
    359001.01247    308022.21544  21179073.9304                   21179071.8244
        42.5004         28.0004
    790789.17647    632300.21946  20336480.1564                   20336480.9884
        46.5004         36.5004
 19  3  4 21 52 25.0000000  0  6G07G08G13G27G28G30
   1394660.04347   1090989.89145  21290135.1254                   21290133.7234
        47.7504         35.0004
   1342923.53947   1050328.43846  22261782.7584                   22261784.0744
        46.2504         36.0004
     58279.98046    148122.62544  22331390.1884                   22331387.6334
        37.5004         25.5004
   1848610.64546   1436002.11344  24330688.7664                   24330690.0434
        40.2504         27.2504
    339884.33247    293126.09444  21175435.9614                   21175433.8204
        42.2504         28.5004
    779270.24647    623324.43446  20334288.2974                   20334289.1604
        46.5004         36.7504
 19  3  4 21 52 30.0000000  0  6G07G08G13G27G28G30
   1392775.80948   1089521.64845  21289776.9384                   21289774.9614
        48.0004         35.0004
   1340346.14547   1048320.07846  22261292.4614                   22261293.4144
        46.5004         36.0004
     35477.16046    130354.21544  22327050.8204                   22327048.8324
        38.2504         25.2504
   1853835.84046   1440073.69144  24331683.2274                   24331684.6644
        41.2504         26.7504
    320793.24647    278249.93044  21171802.8524                   21171800.4964
        42.5004         28.2504
    767779.01247    614370.21946  20332101.6174                   20332102.3834
        46.7504         36.5004
 19  3  4 21 52 35.0000000  0  6G07G08G13G27G28G30
   1390916.60247   1088072.92245  21289423.6414                   21289421.4064
        47.7504         35.5004
   1337798.63347   1046335.00446  22260807.6804                   22260808.6644
        46.5004         36.5004
     12702.19146    112607.46144  22322716.7114                   22322714.9104
        37.5004         25.0004
   1859084.36746   1444163.46144  24332682.0474                   24332683.1804
        40.5004         26.0004
    301727.09847    263393.18844  21168173.9774                   21168172.3874
        42.5004         28.7504
    756314.83247    605437.09046  20329919.9924                   20329921.0084
        46.7504         36.7504
 19  3  4 21 52 40.0000000  0  6G07G08G13G27G28G30
   1389082.78947   1086643.97345  21289074.3914                   21289072.4654
        47.7504         35.2504
   1335281.38347   1044373.51246  22260328.9534                   22260329.9454
        46.5004         36.2504
    -10044.54746     94882.75844  22318388.0314                   22318386.1684
        38.2504         25.2504
   1864356.64146   1448271.71944  24333684.8984                   24333686.7074
        40.7504         27.0004
    282686.27747    248556.18444  21164551.1334                   21164549.4024
        42.5004         27.7504
    744878.12947    596525.37146  20327743.7274                   20327744.7154
        46.7504         36.5004
 19  3  4 21 52 45.0000000  0  6G07G08G13G27G28G30
   1387274.09447   1085234.60545  21288730.0394                   21288728.1524
        47.7504         35.0004
   1332793.99647   1042435.28546  22259855.3054                   22259856.3484
        46.5004         36.0004
    -32763.32046     77179.81343  22314065.2344                   22314063.2974
        38.0004         23.7504
   1869652.32846   1452398.21544  24334693.6644                   24334694.7704
        41.2504         27.2504
    263670.50447    233738.70344  21160932.6174                   21160930.7734
        42.5004         29.0004
    733468.56647    587634.80946  20325572.3834                   20325573.5124
        46.5004         36.7504
 19  3  4 21 52 50.0000000  0  6G07G08G13G27G28G30
   1385490.08647   1083844.46145  21288390.9924                   21288388.8874
        47.7504         34.7504
   1330336.13347   1040520.06645  22259387.8524                   22259388.8244
        46.5004         35.5004
    -55454.57046     59498.31643  22309747.2504                   22309744.9534
        38.0004         22.7504
   1874970.95746   1456542.60244  24335705.2894                   24335706.3914
        41.0004         26.0004
    244679.27047    218940.34844  21157319.1724                   21157316.7424
        42.5004         28.0004
    722085.70347    578765.03946  20323406.4454                   20323407.5124
        46.5004         36.5004
 19  3  4 21 52 55.0000000  0  6G07G08G13G27G28G30
   1383730.57847   1082473.41445  21288055.9614                   21288053.9414
        47.7504         34.7504
   1327907.50047   1038627.62546  22258925.3594                   22258926.8674
        46.5004         36.5004
    -78118.44946     41838.13344  22305434.3204                   22305432.2624
        38.2504         25.7504
   1880312.36746   1460704.73444  24336722.1334                   24336723.1724
        41.2504         26.7504
    225712.47347    204161.02044  21153709.9454                   21153707.3444
        42.5004         27.5004
    710729.37547    569915.95346  20321245.1884                   20321246.2584
        46.5004         36.2504
 19  3  4 21 53  0.0000000  0  6G07G08G13G27G28G30
   1381995.78547   1081121.62545  21287725.9224                   21287723.8204
        47.7504         35.0004
   1325508.44147   1036758.22746  22258468.6644                   22258470.0554
        46.5004         36.0004
   -100754.73846     24199.49644  22301126.9144                   22301124.7814
        38.0004         25.2504
   1885676.77046   1464884.76644  24337742.5234                   24337743.7424
        41.5004         26.5004
    206770.33247    189400.91444  21150104.8754                   21150102.9694
        42.5004         28.2504
    699399.86347    561087.76646  20319089.5314                   20319090.3794
        46.5004         36.7504
 19  3  4 21 53  5.0000000  0  6G07G08G13G27G28G30
   1380285.54747   1079788.96945  21287400.1724                   21287398.2734
        47.5004         34.5004
   1323138.67247   1034911.65246  22258017.8364                   22258019.2894
        46.5004         36.2504
   -123363.55146      6582.21144  22296824.6254                   22296822.6454
        38.5004         26.0004
   1891063.94546   1469082.57444  24338767.8134                   24338768.8324
        41.0004         26.5004
    187852.63747    174659.84444  21146505.0554                   21146503.0164
        42.5004         28.5004
    688096.90647    552280.25846  20316938.7274                   20316939.6134
        46.7504         36.5004
 19  3  4 21 53 10.0000000  0  6G07G08G13G27G28G30
   1378599.39547   1078475.09045  21287078.8914                   21287077.5044
        47.5004         35.0004
   1320797.69547   1033087.52046  22257572.6804                   22257573.8134
        46.5004         36.2504
   -145945.42246    -11014.04744  22292527.1954                   22292525.2034
        39.2504         26.5004
   1896473.44146   1473297.77044  24339797.7034                   24339797.9654
        41.0004         26.7504
    168958.95347    159937.51644  21142909.6024                   21142907.5314
        42.2504         27.7504
    676820.09447    543493.13346  20314792.5784                   20314793.5234
        46.7504         36.5004
 19  3  4 21 53 15.0000000  0  6G07G08G13G27G28G30
   1376936.90648   1077179.64845  21286762.9224                   21286761.0274
        48.0004         35.0004
   1318485.19947   1031285.56345  22257132.3674                   22257133.4614
        46.0004         35.5004
   -168500.69546    -28589.54343  22288234.6884                   22288233.6724
        36.5004         23.5004
   1901904.83646   1477530.02044  24340830.7734                   24340831.7464
        41.2504         26.0004
    150089.02346    145233.69143  21139318.3444                   21139316.7854
        36.2504         21.5004
    665568.98447    534726.02346  20312651.5554                   20312652.4264
        47.0004         37.0004
 19  3  4 21 53 20.0000000  0  6G07G08G13G27G28G30
   1375298.19147   1075902.73845  21286451.3594                   21286449.4384
        47.7504         34.5004
   1316201.27047   1029505.88745  22256697.8134                   22256698.7034
        46.2504         35.7504
   -191029.26246    -46144.30544  22283948.1334                   22283946.5944
        39.5004         27.5004
   1907358.23446   1481779.41444  24341868.0634                   24341869.4774
        40.0004         26.5004
    131242.60545    130548.15643  21135732.9614                   21135730.3404
        34.5004         19.7504
    654343.76647    525979.10546  20310515.5394                   20310516.9264
        46.2504         36.5004
 19  3  4 21 53 25.0000000  0  6G07G08G13G27G28G30
   1373683.19147   1074644.29345  21286143.2734                   21286141.9224
        47.2504         35.2504
   1313945.75047   1027748.33246  22256269.1414                   22256269.7624
        46.5004         36.0004
   -213531.10946    -63678.19944  22279665.9224                   22279664.3914
        39.0004         26.7504
   1912833.53946   1486045.87944  24342910.2034                   24342911.5004
        40.7504         27.0004
    112419.92645    115881.14143  21132150.9844                   21132148.5864
        35.2504         18.2504
    643144.34047    517252.27746  20308384.5004                   20308385.3054
        46.2504         36.5004
 19  3  4 21 53 30.0000000  0  6G07G08G13G27G28G30
   1372091.79747   1073404.23045  21285840.7584                   21285838.8054
        47.5004         34.7504
   1311718.54747   1026012.84445  22255844.8284                   22255846.1214
        46.2504         35.5004
   -236006.42246    -81191.42644  22275388.8134                   22275387.3874
        38.5004         26.2504
   1918330.66846   1490329.37144  24343955.6804                   24343957.2774
        40.0004         26.2504
     93620.87545    101232.49642  21128572.9774                   21128571.3524
        35.0004         16.7504
    631970.57447    508545.45745  20306257.7504                   20306258.6454
        46.0004         35.2504
 19  3  4 21 53 35.0000000  0  6G07G08G13G27G28G30
   1370524.01248   1072182.58245  21285542.5394                   21285540.5044
        48.0004         34.5004
   1309519.71147   1024299.46545  22255426.3914                   22255427.8674
        46.5004         35.7504
   -258455.11346    -98683.93744  22271117.5394                   22271115.8014
        38.5004         26.5004
   1923849.60546   1494629.81644  24345006.1024                   24345007.9064
        40.7504         26.7504
     74845.32045     86602.25442  21125001.0944                   21124998.8054
        35.5004         16.2504
    620822.55947    499858.69145  20304136.7114                   20304137.9024
        45.5004         35.2504
 19  3  4 21 53 40.0000000  0  6G07G08G13G27G28G30
   1368979.52747   1070979.09045  21285248.5704                   21285246.7584
        47.5004         34.5004
   1307348.86747   1022607.90645  22255013.1334                   22255014.5554
        46.0004         35.2504
   -280877.52046   -116155.89844  22266850.5864                   22266848.6844
        38.5004         25.2504
   1929390.00446   1498947.02044  24346060.4844                   24346062.0394
        40.0004         25.0004
     56092.88745     71989.95742  21121431.5634                   21121430.3444
        32.7504         14.7504
    609699.89147    491191.67245  20302020.2274                   20302021.1484
        46.2504         35.5004
 19  3  4 21 53 45.0000000  0  6G07G08G13G27G28G30
   1367457.71948   1069793.25045  21284958.6174                   21284957.2074
        48.0004         34.5004
   1305205.48447   1020937.72746  22254605.7734                   22254606.6884
        46.7504         36.0004
   -303274.28146   -133607.94144  22262588.9384                   22262586.9224
        39.0004         26.7504
   1934951.24246   1503280.44144  24347119.0164                   24347120.5274
        40.0004         26.0004
     37363.26645     57395.42642  21117866.7894                   21117866.0004
        35.7504         15.5004
    598601.97347    482543.94545  20299908.3914                   20299909.1604
        46.5004         35.5004
 19  3  4 21 53 50.0000000  0  6G07G08G13G27G28G30
   1365958.84848   1068625.28945  21284674.3364                   21284672.2344
        48.0004         34.0004
   1303089.78547   1019289.12145  22254203.0004                   22254204.1054
        46.5004         35.5004
   -325645.09445   -151039.75043  22258331.2734                   22258329.9694
        35.7504         22.5004
   1940533.56346   1507630.29344  24348181.0634                   24348182.6174
        40.5004         25.5004
     18656.41445     42818.69142  21114307.4844                   21114306.9304
        34.2504         17.2504
    587529.19147    473915.79745  20297800.9534                   20297802.3594
        44.5004         34.5004
 19  3  4 21 53 55.0000000  0  6G07G08G13G27G28G30
   1364482.67648   1067475.00046  21284393.4304                   21284391.1374
        48.5004         37.2504
   1301001.41447   1017661.82446  22253805.4064                   22253806.2734
        46.7504         36.2504
   -347990.27046   -168451.62543  22254079.5554                   22254077.7624
        36.2504         21.5004
   1946136.77047   1511996.42244  24349247.1564                   24349248.7234
        42.0004         26.0004
       -27.79346     28259.51242  21110752.4064                   21110751.5784
        39.7504         17.7504
    576481.11347    465306.92645  20295698.6884                   20295699.5274
        45.7504         32.0004
 19  3  4 21 54  0.0000000  0  6G07G08G13G27G28G30
   1363029.13348   1066342.40246  21284116.7734                   21284114.6094
        48.0004         36.5004
   1298940.40247   1016055.84446  22253413.5314                   22253414.4964
        46.7504         36.5004
   -370309.715 5                  22249832.813
        30.500
   1951760.72746   1516378.74244  24350317.4844                   24350319.0044
        40.2504         26.2504
    -18689.44947     13718.02043  21107201.4224                   21107200.0784
        43.2504         19.7504
    565457.80547    456717.32046  20293601.2734                   20293602.1564
        47.2504         36.5004
 19  3  4 21 54  5.0000000  0  5G07G08G27G28G30
   1361597.86348   1065227.10946  21283844.5784                   21283842.5004
        48.0004         36.0004
   1296906.37147   1014470.87546  22253026.1254                   22253027.5274
        45.7504         36.0004
   1957405.03547   1520776.91044  24351392.1954                   24351393.2424
        43.7504         26.0004
    -37328.74646      -806.14543  21103654.9224                   21103652.8754
        41.5004         22.7504
    554458.90247    448146.74246  20291508.1254                   20291508.8914
        47.0004         36.0004
 19  3  4 21 54 10.0000000  0  6G07G08G13G27G28G30
   1360188.80148   1064129.13346  21283575.2814                   21283573.5004
        48.2504         36.5004
   1294899.20747   1012906.82846  22252643.6254                   22252644.6524
        46.2504         36.2504
   -414871.61314                  22241352.656
        28.000
   1963069.68446   1525190.89844  24352470.0084                   24352470.9924
        39.7504         25.0004
    -55945.93746    -15313.05143  21100111.1174                   21100109.8524
        41.5004         22.5004
    543484.29347    439595.10545  20289419.2664                   20289419.9574
        46.0004         34.5004
 19  3  4 21 54 15.0000000  0  6G07G08G13G27G28G30
   1358801.87948   1063048.41446  21283311.7584                   21283309.4884
        48.7504         36.5004
   1292918.85247   1011363.71946  22252267.1414                   22252267.6684
        46.5004         36.7504
   -437115.08214                  22237120.703
        28.000
   1968754.62946   1529620.71544  24353551.6334                   24353552.3484
        41.5004         26.2504
    -74540.83646    -29802.53143  21096573.6414                   21096571.3444
        40.5004         21.7504
    532534.00847    431062.43045  20287336.3984                   20287336.2934
        46.0004         34.2504
 19  3  4 21 54 20.0000000  0  6G07G08G13G27G28G30
   1357436.80547   1061984.73845  21283051.7814                   21283050.2274
        47.2504         35.0004
   1290964.98847   1009841.21945  22251894.8204                   22251896.3404
        45.7504         35.7504
